Date,ShopName,Prefecture,longitude,latitude,Open
2021-11-03,カブトヤマ,兵庫県,135.32811851568366,34.76174338745326,0
2021-11-01,Dining&cafe 39+,島根県,132.88744405825193,35.29964778413339,0
2021-11-01,GUNDAM Café ガンダムカフェ 全店,東京都,139.7708903157,35.699278336588584,0
2021-10-30,ラ・メール,愛媛県,132.53638658674072,33.63823168176698,0
2021-10-27,カフェレスト 海岸通り,香川県,133.71568065824752,34.24957601223677,0
2021-10-27,BROOKLYN ROASTING COMPANY 晴海トリトン店,東京都,139.7792109156991,35.65764213887171,0
2021-10-26,サンマルクカフェ 船橋北口店,千葉県,139.9837378156998,35.70316013637546,0
2021-10-24,RENOIR（ルノアール）,栃木県,139.92708671571734,36.6853945818524,0
2021-10-23,gram 広島店,広島県,132.45830947030927,34.393232405441346,0
2021-10-23,ベーカリーレストランサンマルク八尾山本店,大阪府,135.62030261568114,34.620715595004626,0
2021-10-15,CAFE TONGLLIANO小牧店,愛知県,-1,-1,0
2021-10-11,Cafe+Bar23,石川県,136.60537321648238,36.53054986638439,0
2021-10-08,ELOISE’s Cafe横浜ハンマーヘッド店,神奈川県,139.63976861583248,35.456653480247226,0
2021-10-06,フレッズカフェ ステーション川西能勢口店,兵庫県,135.41121551568492,34.827610283917494,0
2021-10-06,SOUTHERLY サウザリー,神奈川県,139.4021974667725,35.32829622643916,0
2021-10-05,an.loca ぼくとコーヒーとお酒,石川県,136.64645021571505,36.557231689037415,0
2021-10-05,若草 hutte&co-ba MIYAZAKI,宮崎県,131.4219917156375,31.915443234719294,0
2021-10-04,ガレージカフェ TopGun,滋賀県,136.2937665381249,35.22340477892147,0
2021-09-29,ダッキーダックカフェ 町田ジョルナ店,東京都,139.44475521569694,35.542035445199886,0
2021-09-28,Café＆Meal_MUJI 日比谷,東京都,139.75750871569934,35.672595438052014,0
2021-09-24,PRONTO プロント マーレ武蔵浦和店,埼玉県,139.64528871570243,35.844919828583784,0
2021-09-19,マンゴツリーキッチンekie広島,広島県,132.47430321567728,34.398040706874276,0
2021-09-19,コラソンカフェ 大宮店,埼玉県,139.6227659157033,35.9062854252028,0
2021-09-17,Kürtős Kalács クルトシュカラーチ,沖縄県,127.68636531555876,26.235870095213272,0
2021-09-17,スパイスマジック渋谷店,東京都,139.6953504156992,35.66240763861054,0
2021-09-13,神戸屋レストラン 西宮店,兵庫県,135.34197091568336,34.74708058823948,0
2021-08-29,カフェレストラン インク・スポット,山口県,131.2727226721801,33.94223152055599,0
2021-08-24,リストランテ・ジン,石川県,136.45322941571231,36.40182429772138,0
2021-08-22,PRONTO プロント 八柱駅店,千葉県,139.9355970157014,35.79152413152166,0
2021-08-15,ハンプティーダンプティー京都北大路ビブレ店,京都府,135.75621481568857,35.0441080722552,0
2021-08-13,スクウェア・エニックス カフェ大阪,大阪府,135.49511912871728,34.70416641820054,0
2021-08-11,CAFE FREDY 銀座店,東京都,139.76460941569934,35.674999337920234,0
2021-08-10,PRONTO（プロント）小倉魚町店,福岡県,130.8798858620292,33.88370994565932,0
2021-08-10,熊牛68珈琲,福岡県,130.41247271566414,33.5867263495641,0
2021-08-10,GRAND COLOR DAYS（グランドカラーデイズ）,大阪府,135.5360520458551,34.74896989087079,0
2021-08-05,ボードゲームカフェ＆バーadhoc,長野県,138.18686062925295,36.64445437479045,0
2021-07-24,グッドスマイル×アニメイトカフェ秋葉原,東京都,139.77008761419677,35.69948157324038,0
2021-07-22,ISHIYA CAFÉ 新千歳空港店,北海道,141.68036035709434,42.788088215954765,0
2021-07-19,くまモンビレッジ カフェスペース,none,130.7014463156515,32.80053139009235,0
2021-07-18,ライダーズカフェあわじ,兵庫県,134.98047431567946,34.512068400804125,0
2021-07-12,六鹿day,北海道,141.3564942788889,43.05634924477661,0
2021-06-29,KAVE CAFE 大阪道頓堀店,大阪府,135.50444950553972,34.668872392428995,0
2021-06-27,ハンズカフェピオレ明石店,兵庫県,134.9897166156816,34.64934729347352,0
2021-06-27,タニタカフェ有楽町店,東京都,139.7623277817872,35.67477524777177,0
2021-06-13,sisters池袋,東京都,139.71388342925198,35.731480687420294,0
2021-06-06,サンマルクカフェ 京急弘明寺駅前店,神奈川県,139.5974457562337,35.42443279042074,0
2021-06-02,砂丘フレンド,鳥取県,134.23469311583426,35.541242180227215,0
2021-06-02,サンマルクカフェ 神田西口店,東京都,139.76800771583734,35.691154180191894,0
2021-05-26,不二家レストラン南塚口店,兵庫県,135.41617531295165,34.74383418042337,0
2021-05-26,不二家レストラン 栃木店,栃木県,139.72704951298505,36.398228980033416,0
2021-05-26,不二家レストラン 千葉幕張店,千葉県,140.05395977603067,35.65664615653733,0
2021-05-26,不二家レストラン 北里病院前店,神奈川県,139.3950790129676,35.53679888022824,0
2021-05-22,モンスーンカフェ たまプラーザ,神奈川県,139.55459608988883,35.575351161337466,0
2021-05-21,アニON STATION AKIHABARA本店,東京都,139.767547679559,35.70008933664209,0
2021-05-17,PRONTOプロント 新宿小田急エース店,東京都,139.6960714158372,35.69031978019225,0
2021-05-10,カフェド武 原宿店,東京都,139.70558000562255,35.66751688019754,0
2021-05-08,SWEET CAFE ICITY 21,長野県,137.89246400773087,36.18414457040153,0
2021-05-07,UCCカフェプラザ COM高松店,香川県,134.0447971158107,34.35091828052566,0
2021-05-06,B★STAR CAFE(Bスターカフェ) by LOOK,三重県,136.5290326158209,34.872320780390844,0
2021-05-05,サンマルクカフェ 神奈川元住吉店,神奈川県,139.6532572406829,35.56532860283623,0
2021-04-29,cafe Cuiller,山梨県,138.56938420574073,35.66228722786688,0
2021-04-29,サンマルクカフェ浜松町貿易センタービル店,東京都,139.7560698129698,35.65517468020052,0
2021-04-24,江戸フィール Edofeel,東京都,139.76104542926058,35.66906629876234,0
2021-04-14,マルノウチリーディングスタイル,東京都,139.76254011583694,35.67984528019448,0
2021-04-11,TOP SECRET CAFE トップシークレットカフェ,埼玉県,139.47769431584166,35.90851998014187,0
2021-04-08,THE MOST BAKE SHOP,宮城県,140.87294102771943,38.2617143796738,0
2021-04-05,シビックスカイレストラン椿山荘,東京都,-1,-1,0
2021-04-04,カフェデンマルク 札幌店,北海道,141.34934065832854,43.06800019478645,0
2021-04-02,サンマルクカフェ 渋谷井の頭通店,東京都,139.6974059292604,35.661560398762404,0
2021-03-28,MAISON ICHI 東京都写真美術館店,東京都,-1,-1,0
2021-03-28,PRONTOプロント 熊本下通店,熊本県,-1,-1,0
2021-03-27,モンパルナス尼崎店,兵庫県,135.4167678056036,34.71841938042993,0
2021-03-27,のものキッチン秋葉原店,東京都,139.77146811583728,35.698442480190415,0
2021-03-25,レストランマイドーム,大阪府,135.51062882764577,34.68486768043859,0
2021-03-25,PRONTO新宿小田急エース店,東京都,139.6960714158372,35.69031978019223,0
2021-03-22,BE CAFE（ビーカフェ）,兵庫県,135.17126350742302,34.76164268908745,0
2021-03-19,モスカフェ表参道店,東京都,139.70992850562254,35.66657208019774,0
2021-03-17,カフェ・ド・クリエ 博多大博通,福岡県,130.4161182067536,33.59232216793954,0
2021-03-16,神戸屋キッチンnonowa武蔵境店,東京都,139.54097821583755,35.702102980189366,0
2021-03-13,フレッシュベーカリー神戸屋 阪神三宮駅店,兵庫県,135.19255211581748,34.69352658043643,0
2021-03-12,Kure Coffee クレ コーヒー,広島県,132.56479083064076,34.248541262037165,0
2021-03-10,GUNDAM Cafe ガンダムカフェ大阪道頓堀店,大阪府,135.50007682925988,34.667896998777714,0
2021-03-09,稲佐山山頂展望台 ひかりのレストラン,長崎県,129.8486159897009,32.75347900449686,0
2021-03-01,CAFE ＆ BAR PRONTO 中部国際空港店,愛知県,136.81429281582075,34.8588585803942,0
2021-03-01,ララ♪こあら,大阪府,135.5719436056039,34.73367138042603,0
2021-02-24,MouMou Cafe イオンモール岡山店,岡山県,133.91565166581685,34.662290680444336,0
2021-02-21,カフェ食堂enishi,東京都,139.4800025158375,35.70098488018977,0
2021-02-21,Urth Caffé 表参道店,東京都,139.7104285129701,35.66748138019743,0
2021-02-21,神戸屋キッチン EXPRESS タカシマヤゲートタワーモール店,愛知県,136.88098931582687,35.172001980316104,0
2021-02-20,ニド・カフェ Nid CAFE,東京都,139.71345220562233,35.66585198019784,0
2021-02-20,TOWER RECORDS CAFE 札幌ピヴォ店,北海道,141.35017797961183,43.05804049883119,0
2021-02-17,ハンズカフェ池袋,東京都,139.71614866809378,35.7297907191829,0
2021-02-17,ハードロックカフェ京都,京都府,135.7739352067586,35.0056993673172,0
2021-02-14,バーガー＆パブ シュッシュポポン 京都店 レストラン,京都府,135.75227081582298,34.98249048036318,0
2021-02-12,コックンの別荘 レミィ町田店,東京都,139.44478851583412,35.542909480226704,0
2021-02-11,レストラン山海亭,東京都,-1,-1,0
2021-02-10,山形 どんどん焼きカフェ カシワヤ,山形県,140.31643731589062,38.255009979674654,0
2021-02-10,茨木スカイレストラン,大阪府,135.56792332925937,34.81588959877532,0
2021-02-09,ホリーズカフェ グリーンプラザべふ店,兵庫県,134.8490977,34.727831699999996,0
2021-02-06,Cafe comme ca 渋谷西武店,東京都,139.69954921297003,35.661160280198985,0
2021-02-06,Cafe comme ca 福岡VIORO店,福岡県,130.39622471579602,33.58970058073443,0
2021-02-06,Cafe comme ca 本川越ペペ店,埼玉県,139.4791798158417,35.91451528014056,0
2021-02-06,神戸屋キッチン エスパル仙台店,宮城県,140.88306090567627,38.259475279674206,0
2021-02-05,NISHIs KITCHEN いわきFCパーク店,福島県,140.82554071586407,36.99931697990803,0
2021-02-04,ばーすでい&カフェ 東北学院大学店,宮城県,140.8763096911138,38.25006934189572,0
2021-02-01,カフェ デック,東京都,139.7701019056238,35.729511980183204,0
2021-01-31,PRONTOプロント ビーンズ阿佐ヶ谷店,東京都,139.63615571297103,35.70478338018885,0
2021-01-31,レストラン ぽるとカーブドッチ,新潟県,139.05597781588367,37.930473279731466,0
2021-01-31,カフェティンバーハウス エキュート大宮店,埼玉県,139.6237878588686,35.90704859101196,0
2021-01-29,なごめしカフェ トラッツィオーネナゴヤ,愛知県,136.88164901296034,35.17049568031662,0
2021-01-26,ミカフェート 六本松店,福岡県,130.3757867799105,33.577330580832104,0
2021-01-19,デリス グランベリー武蔵小杉店,神奈川県,139.65937001296845,35.57355458021954,0
2021-01-16,XFLAG STORE SHIBUYA,東京都,139.69735121541433,35.66315638019863,0
2021-01-15,ローカルデリ越谷レイクタウン店,埼玉県,139.82269801584115,35.87790598014884,0
2021-01-15,J.S.PANCAKE CAFE ルミネ立川店,東京都,139.41156061583754,35.69847518019028,0
2021-01-14,みぼうじんカレー,東京都,139.75740561296996,35.666192880197926,0
2021-01-13,sans-souci,愛知県,137.17838211295836,35.07455928034014,0
2021-01-12,chano-ma 中目黒,東京都,139.69728941583637,35.64467998020288,0
2021-01-11,Cafe comme ca カフェコムサ 高崎オーパ店,群馬県,139.00895137997486,36.323117980147316,0
2021-01-11,星野デザートアート 道頓堀店,大阪府,135.50543240560282,34.66886668044253,0
2021-01-11,楽農レストラン 育みの里 かんでかんで,兵庫県,134.99105531581856,34.758947580419516,0
2021-01-10,DEAN & DELUCA カフェBMW GROUP TERRACE,東京都,139.765323915837,35.67856718019501,0
2021-01-09,BROWNE COFFEE 豊田毘森公園店,愛知県,137.14538241295872,35.087790680336845,0
2021-01-07,ポムポムプリンカフェ原宿,東京都,139.70322261583678,35.670756780196704,0
2021-01-07,カフェ・アルコ プレーゴ,石川県,136.6535295292616,36.561165998749935,0
2021-01-07,SHIBUYA BOX CAFE & SPACE 渋谷ロフト店,東京都,139.69733391549755,35.66109613868295,0
2021-01-05,PRONTOプロント 仙台青葉通り店,宮城県,140.87596011302406,38.260659379673875,0
2021-01-04,J.S. PANCAKE CAFE 金沢百番街Rinto店,石川県,136.64763601298867,36.578238579995,0
2021-01-04,CAFE；HAUS（カフェハウス）,東京都,139.79380890562229,35.65656378020014,0
2021-01-04,Hattendo Cafeラクーア店,東京都,139.75260009457438,35.706656383026164,0
2021-01-02,mumokuteki 大阪店,大阪府,135.50200482925993,34.707236998777034,0
2021-01-02,CAFE EURO (カフェユーロ ),東京都,139.76983001767994,35.70079059085517,0
2020-12-31,資生堂パーラー キッテ グランシェ ショップ,東京都,139.76498070562263,35.679486080194806,0
2020-12-30,BROOK’S ME-BYO café,東京都,139.70490312766537,35.66817658019758,0
2020-12-30,STYLUS（スタイラス）,宮城県,140.86590440134609,38.2654033250435,0
2020-12-30,ROD 東京店,東京都,139.76549751297046,35.67753128019511,0
2020-12-30,MLB café TOKYO 恵比寿店,東京都,139.71369721296986,35.64397888020294,0
2020-12-28,銀座立田野 アトレ吉祥寺店,東京都,139.58026261297084,35.7030217801893,0
2020-12-28,カフェ＆グリル みのりみのる 新潟店,新潟県,139.06017781301662,37.910188579734985,0
2020-12-28,カフェタマ さいたま新都心,埼玉県,139.63339571297465,35.89376968014541,0
2020-12-27,KAWAII MONSTER CAFE カワイイモンスターカフェ,東京都,139.70563132926043,35.66910219876234,0
2020-12-26,CITY ICECREAM ＆ COFFEE,千葉県,140.04404290562482,35.78028098017153,0
2020-12-26,CCC Cheese Cheers Café Shibuya,東京都,139.69593031534475,35.661558480198984,0
2020-12-24,PRONTOプロント 秋葉原店,東京都,139.77637190562317,35.69895128019022,0
2020-12-22,ハードロックカフェ大阪,大阪府,135.5008473330165,34.68244794824814,0
2020-12-21,ベーカリーカフェ・デリーナ仙台駅店,宮城県,-1,-1,0
2020-12-20,cafe ＆ bar GOODIES,東京都,139.7038817056232,35.69763738019062,0
2020-12-19,花カフェFLOWA,兵庫県,135.34809080560518,34.808232480406886,0
2020-12-19,サンマルクカフェ 目黒東口店,東京都,139.71715020562186,35.63414588020533,0
2020-12-19,山登寿,大阪府,135.49730048295436,34.68931714070853,0
2020-12-18,シナモロールカフェ京都店,京都府,135.76686951582346,35.00451538035749,0
2020-12-18,シルバニア森のキッチン 横浜ワールドポーターズ店,神奈川県,139.63678811583247,35.453564180248016,0
2020-12-13,RONDINO ロンディーノ,神奈川県,139.54996965610798,35.31842510969099,0
2020-12-13,DEAN & DELUCA カフェ青山,東京都,139.7153463056226,35.669199080197316,0
2020-12-10,カフェ・フローラ (CAFE FLORA),大阪府,135.6169640956016,34.76500501118652,0
2020-12-06,パディントン,埼玉県,139.6274789261811,35.84407525676385,0
2020-12-05,ベーカリーカフェローフ 川崎店,神奈川県,139.69502875660902,35.53113627520995,0
2020-12-05,レストハウスつるみ,大阪府,135.57459837590005,34.71347668968769,0
2020-12-03,UCCカフェ コンフォート 神戸市庁舎店,兵庫県,135.194921027646,34.690239180437125,0
2020-12-02,Cafe Rondino,神奈川県,139.54981316820766,35.31843540057123,0
2020-12-01,hane-cafe（ハネカフェ）,東京都,139.7991025056228,35.680457280194595,0
2020-12-01,神楽坂ボードゲームカフェ RE:ALL,東京都,139.7306743268838,35.70575828567489,0
2020-11-30,キッチン涼花,大阪府,135.55426931186705,34.78207123328157,0
2020-11-29,麹町カフェ,東京都,139.74165570562295,35.68361338019359,0
2020-11-29,銀座洋食三笠會館 / カフェ三笠  江戸東京博物館店,東京都,139.79550462766593,35.6964707801907,0
2020-11-28,19TEA,東京都,139.69707537094123,35.66104542563328,0
2020-11-28,スターアイル,東京都,139.4839678289462,35.665202318729065,0
2020-11-28,LeBRESSOレブレッソ 名古屋矢場町店,愛知県,136.90446460675375,35.16182676725146,0
2020-11-26,ファインクック・こと,福岡県,130.43811221579708,33.65486888071586,0
2020-11-24,Weekend Garage Tokyo,東京都,139.70573350562236,35.65276198020105,0
2020-11-16,XFLAG STORE 全店,東京都,139.69928041297,35.663143280198575,0
2020-11-15,ローズベーカリー 伊勢丹新宿店,東京都,139.70424352926054,35.69131899876202,0
2020-11-09,フクロウカフェもふもふ新宿店,東京都,139.70274850562296,35.6898478801922,0
2020-11-08,PRONT プロント東梅田店,大阪府,135.49932282925928,34.700892998777135,0
2020-11-08,76CAFE omotesanto,東京都,139.71111590562245,35.66772088019748,0
2020-11-02,食遊館 鹿六,京都府,135.77072441295454,34.87382198039055,0
2020-11-02,Cafe Restaurant MAHALO,北海道,140.99628990578773,43.197699179139676,0
2020-11-02,鳥のいるカフェ浅草店,東京都,139.79288420562347,35.71216238018714,0
2020-10-30,アニメイトカフェ仙台 / アニメイトカフェショップ仙台,宮城県,140.8797329922368,38.25863011628218,0
2020-10-29,サラベス大阪 Sarabeth’s Osaka,大阪府,135.4944113292593,34.70299939877709,0
2020-10-26,プロムナードカフェ四条寺町店,京都府,135.7664524704434,35.00187633796633,0
2020-10-26,ハングオンカフェ,大阪府,135.66758401295317,34.8134107804057,0
2020-10-26,ほしまるカフェ,茨城県,140.10870251584535,36.086276280101856,0
2020-10-25,Cafe Miyama 渋谷公園通り店,東京都,139.69901882926058,35.66169999876244,0
2020-10-23,ポムポムプリンカフェ 梅田店,大阪府,135.498488,34.705082,0
2020-10-21,猫カフェきゃりこ 新宿店,東京都,139.70143452766598,35.69346673019142,0
2020-10-20,厨 loteat（くりや ロッティート）,神奈川県,139.61665263020942,35.23503113116816,0
2020-10-18,リアン サンドウィッチ カフェ 横浜店,神奈川県,139.6405520129657,35.446845480249536,0
2020-10-17,ごはんdeカフェ ニッケパークタウン加古川店,兵庫県,134.83497231926555,34.76941520819262,0
2020-10-17,PRONTOプロント 上野しのばず口店,東京都,139.7741418292606,35.71148999876171,0
2020-10-14,YURT神戸店,兵庫県,135.19433449272273,34.688335911004074,0
2020-10-13,ベビーフェイスプラネッツ 春日店,福岡県,130.43606422762323,33.52387978075304,0
2020-10-11,猫カフェ 猫家 大宮店,埼玉県,139.6269396292608,35.908245998758886,0
2020-10-11,芸術銭湯+Café 宮の湯,東京都,139.76339913312458,35.718084516492794,0
2020-10-11,LeBRESSO(レブレッソ) 富山婦中店,富山県,137.17444571317273,36.662392779977324,0
2020-10-08,ELLE café Aoyama エルカフェ青山店,東京都,139.70917711150685,35.66295693630597,0
2020-10-06,エイトーパークカフェ プライムツリー赤池店,愛知県,137.0210209611436,35.118800494985216,0
2020-10-06,エイトーパークカフェららぽーと名古屋港アクルス店,愛知県,136.88040151582567,35.10839048033172,0
2020-10-06,エイトーパークカフェ犬山店,愛知県,136.9451638292602,35.38023799876662,0
2020-10-05,cafe gelo (カフェ ジェロ),埼玉県,139.6686339107958,35.84911701124256,0
2020-10-04,cafe haven’t we met（カフェハヴントウィーメット）本店,宮城県,140.8679954056766,38.26702947967268,0
2020-10-04,Eggs’n Things横浜山下公園店（エッグスンシングス）,神奈川県,139.64975922926024,35.4446401987656,0
2020-10-03,ピエスモンテ,北海道,142.35927678585708,43.768512257903254,0
2020-10-02,CAFE BAR KARAKORUM（カラコルム）,東京都,139.75889671297065,35.694219980191264,0
2020-10-02,STATION CAFE BASEL,東京都,139.41140057955897,35.69785993676455,0
2020-09-29,サンマルクカフェ 茗荷谷駅前店,東京都,139.73626590562358,35.71760508018574,0
2020-09-28,99 tsukumo harbor terrace（ツクモ ハーバーテラス）,愛媛県,132.70397941293518,33.88862788065078,0
2020-09-28,cafe dining cocochi 京都西大路,京都府,135.73191382924355,34.979960998772725,0
2020-09-28,レストラン高砂,宮城県,140.8892974056744,38.163117079690636,0
2020-09-28,カフェ&ギャラリー Le Cottage,埼玉県,139.43735650562775,35.925506180138136,0
2020-09-27,PRONTO プロント 阪急かっぱ横丁店,大阪府,135.49587486581757,34.70713228043288,0
2020-09-27,吾妻茶寮,愛知県,136.90364750561244,35.159856580319065,0
2020-09-26,Decor De Cozy cafe（デコール デ コージー カフェ）,京都府,135.75775300675656,35.00717106731842,0
2020-09-26, ふるーつもいいかも。,京都府,135.77769002925965,34.99794419877245,0
2020-09-26,グリーンカフェ八雲,東京都,139.67279871296932,35.62130028020822,0
2020-09-26,メルヘン 県立地球市民プラザ店,神奈川県,139.55311375583716,35.36816023110459,0
2020-09-26,メルヘン県立青少年センター店,神奈川県,139.62583150561827,35.451708380248384,0
2020-09-25,カフェ ドリーム エイト,愛知県,136.90854003744033,35.16320065270654,0
2020-09-24,XFLAG STORE + HANEDA,東京都,139.78178571584414,35.5490854802252,0
2020-09-24,カフェ珈人,東京都,139.69855031297067,35.69021368019212,0
2020-09-23,アロハカフェ カピリナ,埼玉県,139.4844274129749,35.90881578014185,0
2020-09-22,ル・シエール,宮城県,140.9697895158921,38.32684937966269,0
2020-09-22,PRONTO プロント 大宮ラクーン店,埼玉県,139.62540681297514,35.90775098014203,0
2020-09-20,Café＆Meal_MUJIシエスタハコダテ,北海道,140.7519278712068,41.78954481522046,0
2020-09-20,MAISON KAYSER Table(メゾン カイザー テーブル) 渋谷ヒカリエ店,東京都,139.7029258292445,35.65902489876247,0
2020-09-18,桜道Cafe,愛知県,136.90593305326271,35.09999110849472,0
2020-09-16,KING GEORGE キングジョージ,東京都,139.70362520562227,35.650981580201396,0
2020-09-15,FRANCOIS（フランソワ）,東京都,139.69933575882987,35.691615631461794,0
2020-09-15,黒酢レストラン 黒酢本舗 桷志田 なんばスカイオ店,大阪府,135.500927,34.66373,0
2020-09-14,Legare,京都府,135.74439440560934,35.00570928035731,0
2020-09-12,モスカフェ烏丸六角店,京都府,135.75966512104446,35.006716782366404,0
2020-09-12,Cafe Mamma,兵庫県,135.3625371461047,34.76499316313852,0
2020-09-11,サンマルクカフェ 山手台店,神奈川県,139.5270209056178,35.425835380254675,0
2020-09-08,Cafe ＆ Bar Milano 草加店,埼玉県,139.8031882628801,35.82809357735904,0
2020-09-08,コトリカフェ,東京都,139.58979731286476,35.656508519143884,0
2020-09-07,Brown Drop,石川県,136.54702371298583,36.44285538002381,0
2020-09-07,Spoke Cafe（スポークカフェ）,静岡県,138.92553071295836,35.07568948033982,0
2020-09-07,Cafe de mori-kun STAND,静岡県,138.6151339158266,35.16129858031877,0
2020-09-07,俺のBakery＆Cafe 新宿京王モール,東京都,139.69824089955188,35.69021062778884,0
2020-09-06,サンマルクカフェ MEGAドン・キホーテ港山下ナナイロ店,神奈川県,139.65378361296564,35.442384680250775,0
2020-09-06,ロイヤルガーデンカフェ目白,東京都,139.707424,35.721568999999995,0
2020-09-05,しろくまカフェ高田馬場店,東京都,-1,-1,0
2020-09-04,M’s CAFE（エムズカフェ）,愛知県,136.94499317923484,35.38024132255842,0
2020-09-03,不二家レストラン 大和つきみ野店,神奈川県,139.459806412967,35.50991618023468,0
2020-09-03,不二家 レストラン津島店,愛知県,136.77066437658107,35.165202586983284,0
2020-09-02,サンドッグイン神戸屋 八重洲店,東京都,139.76717711583714,35.680301280194335,0
2020-09-02,ポムポムプリンカフェ 横浜店,神奈川県,139.61664331520987,35.46329198024575,0
2020-09-01,カフェ青山 イオンスタイル新百合ヶ丘店,神奈川県,139.50568487209716,35.602347932106476,0
2020-08-30,アンテノール武庫之荘店,兵庫県,135.3928934855647,34.75089689883091,0
2020-08-29,緋毬,愛知県,136.90583130561268,35.17319908031593,0
2020-08-28,サンマルクカフェ MEGAドン・キホーテ函館店,北海道,140.75410661585053,41.81350917922727,0
2020-08-27,CafetheLaunch 中洲店,福岡県,130.40814880558176,33.59130208073383,0
2020-08-26,Cafe mog,神奈川県,139.3626496056206,35.57070328022026,0
2020-08-26,カフェ＆パスタ ドーノドーノ仙台泉店,宮城県,140.87637441302581,38.350182979658996,0
2020-08-25,PRONTO 東京ソラマチ店,東京都,139.80878663531035,35.710361464241515,0
2020-08-24,レストラン エア・ポート,石川県,136.41330308479476,36.40189742431512,0
2020-08-23,シャポーブラン八事店,愛知県,136.96276131295957,35.13708628032486,0
2020-08-22,不二家レストラン宇都宮東武店,栃木県,139.87994715281351,36.55980240371241,0
2020-08-22,PRONTO プロント 浅草店,東京都,139.79271982924448,35.712318998761724,0
2020-08-22,PRONTO プロント 虎ノ門1丁目店,東京都,139.74881190562266,35.66908378019712,0
2020-08-22,PRONTO プロント 立川北口店,東京都,139.41356082924446,35.699639998761896,0
2020-08-19,ミールカフェ 名古屋店,愛知県,136.88425471296017,35.171995080316286,0
2020-08-18,NEW YORKER’S Cafe 町田店,東京都,139.44304800562003,35.54393658022652,0
2020-08-14,cafe Morozoff（カフェ モロゾフ）イオンレイクタウン店,埼玉県,139.82382772924464,35.87730439875935,0
2020-08-13,Alee Beach（アリービーチ）渋谷宇田川町店,東京都,139.69623402926052,35.66152519876245,0
2020-08-13,PRONTO プロント 亀有店,東京都,139.8472628292606,35.76650199876093,0
2020-08-11,Gagnon Café ギャニオンカフェ,北海道,141.32829641955746,43.07285829689187,0
2020-08-11,Caffe Macolla（カフェ マコーラ）,千葉県,139.92676182924407,35.38198499876658,0
2020-08-10,つんつんぶんのりんご,石川県,136.6519178158549,36.559664779998755,0
2020-08-10,イートン桜町店,熊本県,130.70248820556682,32.80154388096443,0
2020-08-09,エルメス御堂筋店,大阪府,135.50068520560274,34.67735718044044,0
2020-08-08,HanamizukiCafe 宇都宮店,栃木県,139.84935587941985,36.556020389204726,0
2020-08-08,HanamizukiCafe 仙台店,宮城県,140.87297431302613,38.35797867965751,0
2020-08-07,PRONTO 福岡赤坂店,福岡県,130.3891404129294,33.58848878073488,0
2020-08-03,アニメプラザ池袋店,東京都,139.7161409837026,35.73010442783443,0
2020-08-02,PRONTO 池袋サンシャイン通り店,東京都,139.71578478585715,35.73052291494853,0
2020-08-01,cafe & bar What A Wonderful World（cafe & bar W3D）,宮城県,140.8676088130242,38.26472867967314,0
2020-07-28,Café_MUJIアトレヴィ巣鴨,東京都,139.73863092926067,35.733465898761395,0
2020-07-24,カフェダイニング・J,大阪府,135.466116400102,34.78014472240822,0
2020-07-20,MAISON KAYSER Table三軒茶屋店,東京都,139.6705777056221,35.64514678020285,0
2020-07-20,＆COFFEE MAISON KAYSER銀座一丁目店,東京都,139.76926670562275,35.672994580196274,0
2020-07-18,パティスリーテラスエルSPAL仙台店,宮城県,140.8814657583014,38.2593633449185,0
2020-07-18,カフェ・ド・サンティエ,香川県,134.04930040559623,34.346972880526806,0
2020-07-18,美少女戦士セーラームーン -SHINING MOON TOKYO-,東京都,139.7365750067568,35.65604466704919,0
2020-07-17,ア・ラ・カンパーニュ大濠公園店,福岡県,130.37519361292925,33.59057248073402,0
2020-07-14,モンスーンカフェG-Zone銀座,東京都,139.76774886267066,35.67513448299813,0
2020-07-14,カフェ ラ・ボエムG-Zone銀座,東京都,139.76774886267066,35.67513448299813,0
2020-07-13,倉敷フクロウの森,岡山県,133.7702322937418,34.59678591923867,0
2020-07-13,くらしきハリネズミの森,岡山県,133.7702322937418,34.59678591923867,0
2020-07-13,倉敷豆柴カフェ,岡山県,133.7702322937418,34.59678591923867,0
2020-07-13,カフェ 小町,岐阜県,136.91189160561734,35.40740298025903,0
2020-07-13,Cat Cafe ねころび,東京都,139.71627472618883,35.729486254471084,0
2020-07-13,キャトル・セゾン神戸/カフェキャトル,兵庫県,135.19028676580774,34.689034629240254,0
2020-07-12,ホテルのカフェ,香川県,133.7947818055953,34.289467180542104,0
2020-07-11,モルモット雑貨カフェ もる組（morugumi）,東京都,139.667511,35.606662,0
2020-07-08,喫茶室ルノアール 千駄ヶ谷駅前店,東京都,139.70987550562296,35.6809366801944,0
2020-07-08,Cafeルノアール ニュー八重洲北口店,東京都,139.76974682926055,35.68110799876215,0
2020-07-07,まなび✕あそびカフェ 仙台,宮城県,140.86838174977032,38.27180337962835,0
2020-07-05,仏生山 レストラン / カフェアジール,香川県,134.04839540559504,34.278186980544994,0
2020-07-05,ALCAFE CONAMI アルカフェコナミ,広島県,132.3944699129444,34.37364458051968,0
2020-07-04,アンデルセンカフェ広島T-SITE店,広島県,132.4064517129445,34.37287748051998,0
2020-07-04,野ふうど 県庁東店,石川県,-1,-1,0
2020-06-28, レフェクトワール,東京都,139.7031781056224,35.66597408019797,0
2020-06-28,珈琲処えきす・かふぇ 函館店,北海道,140.75628546144432,41.813219427490466,0
2020-06-21,MeetFresh 鮮芋仙 吉祥寺北口店,東京都,139.5777053292311,35.70388308779794,0
2020-06-21,TOYS CAFE キャナルシティ博多店,福岡県,130.41005152646255,33.589794288515286,0
2020-06-20,ちどり,茨城県,140.53582851298535,36.41092158003066,0
2020-06-19,エルムの森ショップ・カフェ,北海道,141.34694002927068,43.0709113986966,0
2020-06-16,グリル展望,広島県,133.19661875534288,34.41080937000458,0
2020-06-15,レストランローズ,茨城県,140.1703612158479,36.21210998007385,0
2020-06-13,カフェレストMG-Ⅱ,愛知県,137.13551061295956,35.13887118032429,0
2020-06-13,猫カフェ 天使のこねこネコ,宮城県,140.87299280567632,38.261138579673755,0
2020-06-11,Hiranoya （ヒラノヤ）,大阪府,135.5337808940694,34.69775211322322,0
2020-06-08,里親募集型猫カフェ 猫縁～ねこえん～,東京都,139.64950891297093,35.709468180187706,0
2020-06-08,アーユルヴェーダ・カフェ ディデアン,東京都,139.7167767222761,35.5636801361959,0
2020-06-06,カフェ＆バルSpica,埼玉県,139.72238750562548,35.80352018016602,0
2020-06-04,りんくるカフェ八王子店,東京都,139.33671330562257,35.65937178019943,0
2020-06-04,advance cafe. （アドバンスカフェ）,富山県,137.24168111534183,36.6769242121997,0
2020-06-01,和田門,福岡県,130.40437630558162,33.59089078073392,0
2020-05-29,アンジュ 美しが丘西店,神奈川県,139.54093994803503,35.588488946827724,0
2020-05-29,BakeShop ‘and,宮城県,140.8937691850267,38.26145749175332,0
2020-05-25,ベーカリーレストランサンマルク 船橋夏見台店,千葉県,139.98915021583795,35.721808280184966,0
2020-05-25,カフェゆっくり堂,神奈川県,139.5361161255772,35.40426694128619,0
2020-05-23,navi cafe ナビカフェ,東京都,139.6965609056231,35.69703478019044,0
2020-05-23,フジバンビ神戸栄町通店,兵庫県,135.1875498292593,34.68724099877733,0
2020-05-22,ウズナオムオム 駒込,東京都,139.74832860562384,35.7330006801823,0
2020-05-19,Cafe de Ryokan カフェ ド 良寛,新潟県,139.06708760566892,37.909829479735066,0
2020-05-19,Marche & Cafe hana・yasai 名古屋栄店,愛知県,136.90742210561248,35.165928480317554,0
2020-05-18,ハードロックカフェ福岡,福岡県,130.41695661579587,33.588221080734655,0
2020-05-18,猫カフェ 福猫茶房,北海道,141.3380666057856,43.10795777914379,0
2020-05-18,Cat Room ねこりば,山梨県,138.51114031583566,35.61435888020979,0
2020-05-18,猫カフェPuchiMarry横浜元町店,神奈川県,-1,-1,0
2020-05-18,猫カフェ Puchi Marry 熊本下通り店,熊本県,130.70954990556703,32.8030311809642,0
2020-05-16,B ESPRESSO MORIHICO.+ D,北海道,141.35561820578442,43.060315079146164,0
2020-05-15,オカジョブカフェ,岡山県,133.91680914727763,34.66765855185925,0
2020-05-14,Caffe Epica,京都府,135.76930820560995,35.031074480351066,0
2020-05-13,じょいあす新潟会館,新潟県,139.0452721130164,37.91028007973518,0
2020-05-13,レストランぶんご,大分県,131.61163322098625,33.23882432888411,0
2020-05-13,カフェKIHARU,和歌山県,-1,-1,0
2020-05-12,ノイモンド オーガニック カフェ ル・トロワ店,北海道,141.3555996057846,43.06029857914606,0
2020-05-11,ide cafe イオンタウン守谷店,茨城県,139.9884306158424,35.94483748013359,0
2020-05-07,カフェレストラン ラティーラ,沖縄県,127.8776193054619,26.685166983226104,0
2020-05-07,CAFE 202 全店,青森県,140.75361291308,40.805704479321825,0
2020-05-05,カフェ萬屋宗兵衛,兵庫県,135.188586807254,34.68887779877737,0
2020-05-05,FRANZE & EVANS LONDON 表参道店,東京都,139.71049817032653,35.66736708830313,0
2020-05-03,SMIRK CAFE（スマークカフェ）,神奈川県,139.27198680581122,35.36577418026898,0
2020-05-02,RepRevo 爬虫類カフェ,岡山県,133.7522193057962,34.593473580462195,0
2020-05-01,SHISHA CAFE CIRCUS duo シーシャ カフェ キルクス ドゥオ,愛媛県,132.7689789649731,33.839130837178736,0
2020-05-01,ねこコレ 新潟市役所前店,新潟県,139.0377152452083,37.91734291999596,0
2020-05-01,エンジョイ！カフェ,大阪府,135.48994840579763,34.67120968044207,0
2020-04-30,ARiSE COFFEE ALTERNATIVE,京都府,135.7517208292603,35.016800998772155,0
2020-04-30,MKレストラン 那珂川店,福岡県,130.42399011546462,33.51508085329211,0
2020-04-29,和風れすとらん とりみき,東京都,139.6547121292612,35.738577098761326,0
2020-04-26,カフェ・ベローチェ 多摩センター駅前店,東京都,139.4231832768336,35.62403763537773,0
2020-04-26,CAFE FLAMINGO（カフェフラミンゴ）フェザン店,岩手県,141.1354806132373,39.70277147945454,0
2020-04-24,Cafe&Dolceチャリオット,北海道,143.88896344566973,43.8035698385688,0
2020-04-15,庄内MEAT YOU やくけっちゃーの,山形県,139.90992952788932,38.84437687957892,0
2020-04-13,ウミエラ館,沖縄県,127.83376431568108,26.314520983388917,0
2020-04-11,ラナイカフェ イオン札幌桑園店,北海道,141.3327148981109,43.069340787469294,0
2020-04-02,猫カフェ キャットストリート,愛知県,136.90428970580749,35.16745078031725,0
2020-03-29,彩風亭,北海道,141.6759897280404,45.408657179100274,0
2020-03-28,池袋STORIA,東京都,139.70956470581862,35.73054498018286,0
2020-03-27,ことりカフェ吉祥寺,東京都,139.5699501379416,35.69632960245879,0
2020-03-24,Oh!waikiki けやきウォーク前橋,群馬県,139.07713558154035,36.37952689836636,0
2020-03-22,カフェ カークスKIRKS,兵庫県,135.4160174131361,34.82910998040169,0
2020-03-19,ホリーズカフェベルファ宇治店,京都府,135.7817127278083,34.9164177803796,0
2020-03-16,ピエールプレシュウズ長久手本店,愛知県,137.0351057058075,35.170115980316616,0
2020-03-16,Kenny’s coffee（ケニーズコーヒー）,石川県,136.62678791317146,36.59724397999091,0
2020-03-14,cafe&furniture classico クラシコ,岩手県,141.1787410637664,39.1892906801493,0
2020-03-11,Cafe + Trattoria M カフェ トラットリア エム,東京都,139.7776572090743,35.73304866841949,0
2020-03-09,神戸クリオロカフェ,兵庫県,135.19624740579806,34.690938180437065,0
2020-03-08,Salon de Cafe(サロンドカフェ),東京都,139.7634699131529,35.68570348019343,0
2020-03-08,創作空間caféアトリエ中崎町店,大阪府,135.50447660579826,34.70707718043294,0
2020-03-06,セガフレード・ザネッティ・エスプレッソ 九段下 千鳥ヶ淵店,東京都,139.74610882926117,35.69418999876197,0
2020-03-05,cafe GARDEN カフェ ガーデン,東京都,139.44994691315216,35.64997278020158,0
2020-03-05,ねこと癒し トモカフェ,石川県,136.67909641586562,36.61718827998671,0
2020-03-01,K’sベーカリー 港北PA（下り）,神奈川県,139.5337284131499,35.53557158022856,0
2020-02-27,cafe flaner カフェ フラネ,埼玉県,139.4158497012016,35.80963567209508,0
2020-02-25,ソリッド・アンド・リキッド コミコミスタジオ町田,東京都,139.4446159061996,35.54268690525926,0
2020-02-25,アニメイトカフェ神戸三宮,兵庫県,135.1915389292599,34.691597298777296,0
2020-02-25,KOEI TECMO CAFE & DINING（コーエーテクモカフェ&ダイニング）,東京都,139.71379031536884,35.72927803494258,0
2020-02-24,CAFE DE BRASILIA カフェデブラジリア,東京都,139.7601342131525,35.666055780197844,0
2020-02-24,カフェ・レジェロ アスティ静岡店,静岡県,138.38787545431916,34.971283532024636,0
2020-02-24,T CAFE（ティーカフェ）,福岡県,130.398141513112,33.589645280734274,0
2020-02-23,中目黒 Five Star Cafe,東京都,139.6970775058167,35.64460908020298,0
2020-02-23,CAFE LITTLE MATILDA カフェ リトル マチルダ,長野県,138.25408291316745,36.39981158003302,0
2020-02-22,WORLD BREAKFAST ALLDAY 原宿店,東京都,139.70457470551796,35.666057380197934,0
2020-02-20,創作カフェ 蒼,京都府,135.83508882924392,34.73993399877655,0
2020-02-17,ラナイカフェ イオンモール和歌山店,和歌山県,135.14873799466045,34.276042309761095,0
2020-02-15,ころも農園 蔵カフェ&マルシェ,愛知県,137.15981860580567,35.08477748033756,0
2020-02-15,パンケーキcafeあいあん,北海道,141.36861699949938,43.01524462095304,0
2020-02-15,はろうきてぃ茶寮 江ノ島店,神奈川県,139.47863447938636,35.30148785840878,0
2020-02-14,縁-ENISHI-,栃木県,139.89745226708723,36.56002542022426,0
2020-02-13,レストランけやき,東京都,139.65261150389813,35.646387972837445,0
2020-02-09,本棚食堂mizu,大阪府,135.69535971583008,34.83813128039956,0
2020-02-08,Cafe of Union Square,福岡県,130.67159541132787,33.72781157010352,0
2020-02-08,GORILLA POP CAFE 新宿,東京都,139.70623290581761,35.691150180192025,0
2020-02-05,カフェ・ベローチェ 厚木田村町通り店,神奈川県,139.36243790581273,35.43910188025143,0
2020-02-04,カフェ・ベローチェ 新横浜店,神奈川県,139.61536820581406,35.51006988023448,0
2020-02-04,ベーカリーレストランサンマルク Colette・Mare みなとみらい店,神奈川県,139.63071003063,35.452215805793,0
2020-02-03,CinemaCafe Pizzeria BAR,東京都,139.41186291315336,35.701451080189706,0
2020-02-02,PRONTOプロント 横浜西口北幸店,神奈川県,139.6193624322077,35.46608645420653,0
2020-02-01,ソルビン 天神 （SULBING TENJIN）,福岡県,130.39621017973084,33.58967968082865,0
2020-01-28,サンマルクカフェ 北大路ビブレ店,京都府,135.75616557999393,35.04497198044377,0
2020-01-27,ダッキーダック イオンモール川口前川店,埼玉県,139.70490441584985,35.83369128015903,0
2020-01-27,DRIVE TO GO,愛知県,136.8814007,35.1623922,0
2020-01-26,GREENBOWL 神田店,東京都,139.76886801315308,35.68948748019246,0
2020-01-20,バケット イオンモール直方店,福岡県,130.7496420187825,33.76867027198416,0
2020-01-20,ことりカフェ 巣鴨,東京都,139.73440682926116,35.73517499876133,0
2020-01-19,ロイヤルガーデンカフェたまプラーザ店,神奈川県,139.5563023131507,35.57563318021914,0
2020-01-18,サンマルクカフェ アクアウォーク大垣店,岐阜県,-1,-1,0
2020-01-15,366 SPORTS HIROSHIMA,広島県,132.39666583951376,34.409324409139195,0
2020-01-13,レストラン ロマネ,神奈川県,139.67388982926062,35.27730599876811,0
2020-01-09,bonjour records LUMINE新宿店,東京都,139.6983276798381,35.68975873720816,0
2020-01-08,HANDS EXPO CAFE,東京都,139.76235547704385,35.672475612016235,0
2020-01-06,BABY FACE PLANET’S 和白店,福岡県,130.43168182925874,33.691513998794086,0
2020-01-05,puppy cafe RIO春日井店,愛知県,137.04861782924456,35.28146199876811,0
2019-12-30,神戸屋キッチン ららテラス武蔵小杉店,神奈川県,-1,-1,0
2019-12-28,PRONTO IL BARプロント イルバール 田町店,東京都,139.74607282926104,35.64610899876269,0
2019-12-28,スクウェア・エニックス カフェ東京,東京都,139.77254271504913,35.69857993662806,0
2019-12-28,楠茶館~KusunokiCafe ダイニングレストラン,熊本県,-1,-1,0
2019-12-28,trois,北海道,141.3514207783683,43.0582373343049,0
2019-12-27,サンマルクカフェ エルミこうのすショッピングモール店,埼玉県,139.50938492926156,36.05955929875674,0
2019-12-26,イタリアン・トマト カフェ イオンモール盛岡店,岩手県,141.09849130765298,39.71152120130169,0
2019-12-18,メゾンレクラ（Maison l’éclat）,宮城県,140.79521382926453,38.31330599872903,0
2019-12-15,マンハッタンエクスプレス,東京都,139.75993262431322,35.67309518389486,0
2019-12-11,VREX（ヴィレックス）新宿店,東京都,139.70030381287154,35.69543978019103,0
2019-12-08,café de GAMOYON カフェドガモヨン,大阪府,135.54341582925989,34.69946999877724,0
2019-12-07,壱服庵,兵庫県,135.35925136490604,34.75875021108468,0
2019-12-07,ハンプティーダンプティー高松伏石店,香川県,134.05523331312577,34.314471080535384,0
2019-12-07,小樽芸術村ミュージアムカフェ,北海道,141.0019726059814,43.1973699791397,0
2019-12-04,Live Space Speak Low スピークロウ,香川県,134.05640190579103,34.337400380529374,0
2019-12-04,詩とパンと珈琲 モンクール,北海道,141.3284508292712,43.06153799869663,0
2019-12-01,ヒーリングスペースAVA,福岡県,130.64347925197046,33.86924316815497,0
2019-11-29,アニメイトカフェ福岡天神,福岡県,130.39964962484243,33.590519593068684,0
2019-11-28,眺めのいいカフェ パ・ノ・ラ・マ,高知県,133.5719461158052,33.54675138074653,0
2019-11-24,ALOHA CAFE LILIKOI,岡山県,133.92054182925992,34.665818998777716,0
2019-11-23,ペパーミントカフェ,東京都,139.57787882926115,35.70114199876188,0
2019-11-23,カフェ＆パンケーキ gram 高岡店,富山県,137.02175922967476,36.760767075681514,0
2019-11-19,AKB48 CAFE&SHOP AKIHABARA,東京都,139.77283008631048,35.69900455356478,0
2019-11-18,関西国際空港スカイビューカフェ,大阪府,135.25738000526152,34.441008301078234,0
2019-11-18,レジェンドオブコンコルド,大阪府,135.25738000526152,34.441008301078234,0
2019-11-16,鹿児島県庁18F 展望レストラン ラテラス,鹿児島県,130.55779751407107,31.56022006911951,0
2019-11-14,いたがき ITAGAKI TBCハウジング店,宮城県,140.88714582926443,38.26028099872964,0
2019-11-06,MOYAI CAFE（モヤイカフェ）,東京都,139.4230597554722,35.62035582490879,0
2019-10-20,カンテグランデ グランフロント大阪店,大阪府,135.49408901408958,34.70536546758952,0
2019-10-20,カフェレストラン リップル,大阪府,135.4961450261883,34.701652762004976,0
2019-10-20,CINEMA BOOK CAFEなんばパークス店,大阪府,135.50137272871447,34.661433268221316,0
2019-10-19,FRANZE & EVANS LONDON 京都三条店,京都府,135.76571320675328,35.00879056730985,0
2019-10-17,PRONTOプロント宇都宮パセオ店,栃木県,139.89734248404116,36.55919208071708,0
2019-10-14,六鹿,北海道,141.35075635580804,43.06798519784977,0
2019-10-03,アウルの森 秋葉原店,東京都,139.77198330581794,35.70149818018956,0
2019-10-02,創作空間caféアトリエ日本橋店,大阪府,135.50393861408568,34.65931576761333,0
2019-09-29,サンマルクカフェ ビッグホップガーデンモール印西店,千葉県,140.1615906892166,35.803148039047585,0
2019-09-28,DNS POWER CAFE 中野,東京都,139.66108882926122,35.70695499876181,0
2019-09-25,原宿ミルクホール,東京都,139.70376482926116,35.670994998762296,0
2019-09-21,ポムポムプリンカフェ名古屋店,愛知県,-1,-1,0
2019-09-17,木と水と土と 新山下店,神奈川県,139.65378361314814,35.44238468025065,0
2019-09-16,カフェmoi（モイ）,東京都,139.57536482926116,35.706338998761794,0
2019-09-14,PRONTO 勝どき店,東京都,139.77633282926115,35.65978999876246,0
2019-09-09,Cafe＆Dining ダモンデ,福井県,136.29129582926168,36.10801599875608,0
2019-09-09,PARK SIDE CAFE ecute大宮,埼玉県,139.6239352369373,35.90567652314291,0
2019-09-08,Cinnamon’s Restaurant（シナモンズ ）表参道店,東京都,139.7062778292611,35.666671998762325,0
2019-09-07,保護猫カフェマンチカン京橋,大阪府,135.53417782925993,34.70105999877716,0
2019-09-07,八百屋CAFFEヤサイクル 逗子海岸店,神奈川県,139.56625751408316,35.293598267348365,0
2019-09-07,八百屋CAFFEヤサイクル 横須賀店,神奈川県,139.6494655140868,35.231260967373586,0
2019-09-07,efish エフィッシュ,京都府,135.76724000675466,34.99524896731665,0
2019-09-06,ベビーフェイスプラネッツ 松井山手店,京都府,135.71481164920544,34.84006598057745,0
2019-09-03,Ivorish（アイボリッシュ）那覇,沖縄県,127.67676070332527,26.21101816626808,0
2019-09-02,魔法の国のアリス,東京都,139.6983552140903,35.69253906719862,0
2019-09-01,kitchen KAZU キッチンカズ,神奈川県,139.38995236908454,35.55393929547069,0
2019-09-01,オーチャードカフェ甲府駅前店,山梨県,138.5673085158463,35.66608768019782,0
2019-08-30,ポケストップ 那覇オーパ,沖縄県,127.67676070332527,26.21101816626808,0
2019-08-22,MEALS （ミールズ）,宮城県,140.86847640678064,38.25797886617814,0
2019-08-22,楽天カフェ二子玉川ライズSC店,東京都,139.62976442505928,35.61053619460293,0
2019-08-21,WA CAFE AIM,東京都,139.77836982926118,35.68142999876213,0
2019-08-17,LOLO giardino Cafe(ロロ ジャルディーノ カフェ),静岡県,137.7027373709487,34.704091015829725,0
2019-08-17,Cafe & Space KURASU,東京都,139.5597008292612,35.68380599876211,0
2019-08-16,JB CAFEフォレオ大津,滋賀県,135.9329612516821,34.974011027555584,0
2019-08-12,MISOY,神奈川県,139.63301855091345,35.536275480131266,0
2019-08-07,カフェ88,神奈川県,139.6498208292608,35.44228099876568,0
2019-08-06,アニON STATION名古屋ビーカム栄(BECOME SAKAE)店,愛知県,136.90740395816465,35.162852081212236,0
2019-07-31,なぞともカフェ名古屋栄店,愛知県,136.90694982926047,35.16285499876991,0
2019-07-31,cafe & pancake gram サンシャインサカエ店,愛知県,136.9059659140842,35.16943536740481,0
2019-07-27,J-CAFE ジ アウトレット広島店,広島県,132.39564411582165,34.40988178051017,0
2019-07-21,Tuba’sテューバーズ 富良野市弥生店,北海道,142.38117366080223,43.34443137465651,0
2019-07-16,味工房ほなみ帯広の森店,北海道,143.13678221600375,42.90028167915431,0
2019-07-15,HUMPTY DUMPTY ハンプティーダンプティー 岡崎店,愛知県,137.14338902871705,34.92430096811313,0
2019-07-12,cafe＆bar299,愛知県,136.95164551409005,35.168357467393925,0
2019-07-12,ヴィ・ド・フランス カフェ仙台青葉店,宮城県,140.87319982926445,38.261656998729634,0
2019-07-07,家カフェおたまららぽーと新三郷店,埼玉県,139.86612265059935,35.85917689817692,0
2019-06-30,Jin x gudetama Cafe,東京都,139.67206977109151,35.64317296715174,0
2019-06-30,Cafe de MiNara,奈良県,135.80000341565855,34.68518688043845,0
2019-06-24,PRONTO プロント  信濃町店,東京都,139.71952382926114,35.679708998762145,0
2019-06-24,エ・プロント 千葉大学医学部附属病院店,千葉県,-1,-1,0
2019-06-22,MMCオーガニックカフェ 北シェフズデッキ店,東京都,139.78168591584406,35.54875888022538,0
2019-06-18,シャローム 津田沼店,千葉県,140.02131171409889,35.69084796719666,0
2019-06-18,B・G・M （ビージーエム）,大阪府,135.5289513067525,34.69737896744089,0
2019-06-18,猫カフェPuchiMarry六本木店,東京都,139.73134382926114,35.66381799876238,0
2019-06-16,DIVISION CAFE,愛知県,136.8969279067667,35.16894406724451,0
2019-06-16,ANCLAR 海老名 （アンクラー 海老名）,神奈川県,139.38806957995394,35.45389658034453,0
2019-06-15,ボードゲームカフェ アリスの時計,埼玉県,139.71962542926127,35.80269939876036,0
2019-06-12,トワイライトカフェ,新潟県,139.04298066589286,37.92294152973277,0
2019-06-11,リンツ ショコラ カフェ銀座店,東京都,139.76071782926107,35.66941299876232,0
2019-06-09,D&DEPARTMENT SHIZUOKA by TAITA,静岡県,138.41995631408497,34.95682066749353,0
2019-06-08,TOWER RECORDS CAFE 福岡天神店,福岡県,130.39678821536296,33.590013580734144,0
2019-06-08,ベーカリー＆カフェ ルパ めじろ台店,東京都,139.30787103075068,35.64385259577261,0
2019-06-08,TORITO CAFE （トリト カフェ）,愛媛県,132.96010831581467,34.0443673806081,0
2019-06-08,Bean&Pop ビーンアンドポップ,東京都,139.71437710675744,35.73160926702268,0
2019-06-08,Cafe KOTO,京都府,135.7586668813229,34.984599113000556,0
2019-06-07,secretGATE CAFE (シークレットゲートカフェ),茨城県,140.11279461409296,35.920741067101524,0
2019-06-07,オン ザ コーナー,東京都,139.70251982926112,35.661547998762465,0
2019-06-05,カレー&カフェ かのん,愛知県,136.8993856185665,35.15907132402582,0
2019-06-01,カフェNAMBAN,北海道,141.35211448851024,43.05857013826035,0
2019-05-26,+fine!（プラスファイン）,広島県,132.3768892218486,34.40938952818489,0
2019-05-26,indigo maruyama （インディゴ マルヤマ）,北海道,141.30355011414684,43.04884706545405,0
2019-05-26,カフェグリーンブリーズ,青森県,141.15334331412592,40.71850706576674,0
2019-05-25,FLOWERS Common渋谷,東京都,139.70339240676049,35.65905506705566,0
2019-05-21,OneDay Café,静岡県,138.8050498292605,35.15489799877002,0
2019-05-21,アニメイトカフェショップ新宿,東京都,139.705893,35.690112,0
2019-05-13,cafe anon,愛知県,137.13319282926045,35.125430998770504,0
2019-05-13,グランディール豊明店,愛知県,136.9926685140918,35.06171776744668,0
2019-05-13,マダム ブロ 東京駅京葉ストリート店,東京都,139.76647972871848,35.679890917814944,0
2019-05-11,カフェ メゾン,大阪府,135.52137091407693,34.66687676760847,0
2019-05-11,WR CAFE ダバールカフェ イオンモール春日部店,埼玉県,139.78588981585293,35.987678380123974,0
2019-05-08,Stella Monte ステラモンテ,岩手県,141.159394728751,39.69242986661406,0
2019-05-08,CAFE SPAZIO,東京都,139.7140920163817,35.72898958133992,0
2019-05-08,猫まるカフェeast,東京都,139.81283470675845,35.69826936703804,0
2019-05-06,オアシス21 バスターミナル ショップ,愛知県,136.90807251583664,35.17145718031637,0
2019-05-05,gallary & cafe かわらばん家,愛知県,137.1001148292606,35.226743998768946,0
2019-05-04,IRONCAFe アイアンカフェ,東京都,139.77409420676256,35.70366726703216,0
2019-05-03,アイランド・ヴィンテージ・コーヒー青山店,東京都,139.70894232297857,35.662662360552375,0
2019-05-03,カフェ＆レストラン ブラヴォー,兵庫県,-1,-1,0
2019-05-02,TAMAGO CAFE GOO （タマゴ カフェ グー）,静岡県,138.90478382926042,35.13918399877031,0
2019-04-30,もぐもぐカフェ,岐阜県,136.8842570140924,35.385555167319204,0
2019-04-27,MARBLE COFFEE,岩手県,141.11227482926597,39.390293998718626,0
2019-04-20,文教堂 カルチャーエージェント カフェ 渋谷店,東京都,139.7023707140881,35.66201256720225,0
2019-04-17,CAFE ANTI  カフェ アンティ,埼玉県,139.4904679067638,35.91866506695853,0
2019-04-16,Global Cafe グローバルカフェ,福岡県,130.37834570675412,33.59044756793949,0
2019-04-13,梅田ライム,大阪府,34.697379,135.494041,0
2019-04-03,ウェルネスカフェTAMARIBAイオンタウン黒崎店,福岡県,130.75994351407635,33.85974646796648,0
2019-03-24,Cafe Plenty（カフェプレンティ）阪急梅田駅3階店,大阪府,135.49614791582738,34.70537178043324,0
2019-03-17,銀座Gourmand Grille＆Cafe,東京都,139.76289190676468,35.668261567050905,0
2019-03-17,アンデルセンカフェ広島西医療センター店,広島県,132.22357443257198,34.25106471953001,0
2019-03-07,ぶーみんvinum 東京スクエアガーデン店,東京都,139.7684406140884,35.676035867196745,0
2019-03-06,PRINTEMPS BLANC GREEN PARK CAFE,岩手県,-1,-1,0
2019-03-05,くだもの厨房 オーチャードカフェ,山梨県,138.66309831584724,35.70241498018934,0
2019-03-05,サンマルクカフェ 三田ウッディタウン店,兵庫県,135.1896149287113,34.90377886812135,0
2019-03-02,プルネール カフェ マリノア店,福岡県,130.32091437980006,33.594386649260166,0
2019-03-01,マザームーンカフェ阪急三宮西口店,兵庫県,135.19238582925993,34.693259998777265,0
2019-03-01,刀剣乱舞2.5Dカフェ×刀剣茶寮,東京都,139.7718851702131,35.70039988860522,0
2019-03-01,スタンダードブックストア心斎橋,大阪府,135.49962360675417,34.670629067452545,0
2019-02-26,小金井タウンショップ 黄金や,東京都,139.5243722067682,35.70089046703184,0
2019-02-25,gram 高槻店,大阪府,135.61708377937478,34.854271482582035,0
2019-02-24,CaFe LA MILLE カフェラミル 鎌倉小町通り店,神奈川県,139.55056882926073,35.31968999876751,0
2019-02-23,グランサイバーカフェ バグース仙台店,宮城県,140.87511241410797,38.261438066332225,0
2019-02-23,なぞともカフェ福岡天神店,福岡県,130.3962591224191,33.589773898339516,0
2019-02-23,FLOU CAFE フルーカフェ,大阪府,135.4956347067534,34.68350266745511,0
2019-02-16,APPLE’s Cafe&Diner（アップルズ カフェ＆ダイナー）,長野県,138.63411382732485,36.350048814774055,0
2019-02-15,英会話カフェ＆バーannex,東京都,139.60343251408636,35.744132067176594,0
2019-02-12,La Casa 岡本,兵庫県,135.27500811408325,34.727318767585764,0
2019-02-12,みつばちかふぇ,石川県,136.67585595900405,36.53540902090012,0
2019-02-12,カフェ・ド・クリエ プラス フィールズ南柏店,千葉県,139.9550186828016,35.84452153469724,0
2019-02-12,森乃談話室,愛知県,137.0784958455756,35.17209686000538,0
2019-02-11,フラッグスガーデンカフェ,千葉県,140.16079491584705,35.702508180189376,0
2019-02-11,彩茶房 クイーンズ伊勢丹仙川店,東京都,139.58549600676008,35.66091866704691,0
2019-02-10,パンケーキ＆スイーツ ブラザーズカフェ 梅田オーパ店,大阪府,135.49738197975915,34.70462638052927,0
2019-02-07,ワールドコーヒー京都商工会議所店,京都府,135.75898941408275,35.015421967459645,0
2019-02-06,アニメイト カフェショップ京都,京都府,135.7645077158334,35.00553438035732,0
2019-02-06,ベーカリーレストランサンマルク 宝塚店,兵庫県,135.3553050140854,34.808188367553505,0
2019-02-02,Say Cheese! Cafe セイチーズ カフェ ルミネ横浜店,神奈川県,139.6206594158424,35.46526348024536,0
2019-02-01,Humpty Dumpty 岡山下中野店,岡山県,133.89844511408313,34.639860667624596,0
2019-01-28,Flight Cafe Charlie’s フライトカフェ・チャーリイズ,千葉県,140.36194882734335,35.77563668017231,0
2019-01-27,cafe briller （カフェ・ブリエ）,京都府,135.76737241408264,34.99852096746986,0
2019-01-27,PRONTO 鹿児島マルヤガーデンズ店,鹿児島県,130.55689526206612,31.591047951502485,0
2019-01-26,カフェ＆レストラン レインボー,大阪府,-1,-1,0
2019-01-25,神楽坂 茶寮 博多マルイ店,福岡県,130.41723651536822,33.58890788073452,0
2019-01-23,HEDIARDエディアール 羽田空港店,東京都,139.78372912448486,35.5489992506153,0
2019-01-22,くつろぎ処 伊那Cafe(イナカフェ),愛知県,136.9135477158365,35.165265580317914,0
2019-01-21,cafe POPURI (カフェポプリ),長崎県,129.71782850674234,33.177312768136986,0
2019-01-21,HATHA CAF（ハタカフェ）,兵庫県,134.9930402158264,34.64817548044809,0
2019-01-21,Cafe Olio Motore（カフェ オーリオ モトーレ）,静岡県,138.8705576287196,35.13397046802448,0
2019-01-21,器とごはんkamogama,京都府,135.7520154067568,35.056626067293514,0
2019-01-18,Station waiting バル エスパーク　シャミネ松江店,島根県,133.06249468097266,35.46390296335011,0
2019-01-16,カフェ 中野屋,東京都,139.44887540676237,35.54298696709666,0
2019-01-15,cafe ゆとりの空間 中部国際空港店,愛知県,136.81361347625636,34.859040950621605,0
2019-01-15,マリンブルー,広島県,132.5112269446212,34.290770483132405,0
2019-01-14,CHEZ MADU(シェマディ)イオンモール東久留米,東京都,139.52520531536902,35.74502713407774,0
2019-01-14,ハワイアン フード＆カフェ マノア・ロード,宮城県,140.8339742159019,38.342655179660014,0
2019-01-13,はろうきてぃ茶寮 京都二寧坂店,京都府,135.78061500675682,34.99871496732188,0
2019-01-10,HADEN BOOKS ヘイデンブックス,東京都,139.71803750676443,35.663116467051225,0
2019-01-09,ライダーズカフェGreenPit,東京都,139.5533987067352,35.725752167020076,0
2019-01-07,gram群馬前橋店,群馬県,139.06700567957608,36.39024829846582,0
2019-01-07,CAFÉ LA LIMONAIRE カフェ・ラ・リモネール,山梨県,138.44133951573468,35.91320608014096,0
2019-01-06,EARTH CAFĒ 新鎌ヶ谷店,千葉県,140.00137504951454,35.779670819062886,0
2019-01-04,PRONTO プロント 南池袋店,東京都,139.7118514881531,35.72882899875535,0
2019-01-02,世界名作劇場 FanFunKitchen,神奈川県,139.3475669800065,35.59105088031225,0
2019-01-02,オンリーワンダースポーツカフェ 盛岡店,岩手県,141.14924349308427,39.70160326671297,0
2019-01-02,NINJA KYOTO,京都府,135.76754052840556,35.00461461756019,0
2018-12-31,WIRED KITCHEN and niko 横浜ベイクォーター店,神奈川県,139.624456551295,35.46650944922748,0
2018-12-30,ハンズカフェ 東急プラザ表参道原宿,東京都,139.70584400664052,35.668717025114994,0
2018-12-29,Bottecchia CYCLE CAFE（ボテッキア サイクル カフェ）,島根県,133.06575557841714,35.460449767379075,0
2018-12-28,銀幕の国のアリス,愛知県,136.90745227841558,35.16383486750142,0
2018-12-28,HIDDEN AVE.Cakes,北海道,141.3291359711525,43.0629088653931,0
2018-12-28,カフェ・アドレス 柏高島屋ステーションモール店,千葉県,139.97056510608306,35.86283918287125,0
2018-12-27,ハンデルスカフェ 横浜ポルタ店,神奈川県,139.62134397179562,35.465407823218804,0
2018-12-27,アニメイトカフェショップ京都,京都府,135.76642817840983,35.005534367560664,0
2018-12-26,KING×PASELA CAFE,東京都,139.7698410930402,35.697736067911435,0
2018-12-26,ブリキボタン CAFE&DINING 新宿店,東京都,139.70387007939672,35.691707837102186,0
2018-12-24,Cafe Rest Goldilocks （ゴルディロックス）,岡山県,134.02631757840905,34.64543856771113,0
2018-12-24,農カフェhakari,山梨県,138.682222278418,35.651400567308045,0
2018-12-23,Bal&カフェ78,東京都,139.3754909187555,35.70952238392558,0
2018-12-21,レストラン さんふぁみーる 山内店,沖縄県,127.78771687834684,26.3235104725602,0
2018-12-18,Cafe&Bar PATERS （カフェ&バー ペーターズ）,東京都,139.63698697108956,35.70128496713661,0
2018-12-16,TIA SUSANA  ティア・スサナ,東京都,139.71897797109264,35.68280856714145,0
2018-12-16,LA MADRAGUE マドラグ神楽坂店,東京都,139.7329194786159,35.7035925650677,0
2018-12-12,アトレ秋葉原1店1F全店,東京都,139.7720831690826,35.69841913082823,0
2018-12-11,カワウソと過ごすカフェ little otter ‏,大阪府,135.50294917034842,34.662534998783734,0
2018-12-09,ゆとりの空間 大和富山店,none,137.21277520283988,36.689392013418605,0
2018-12-08,楽天カフェ 渋谷公園通り店,東京都,-1,-1,0
2018-12-08,アカシウス寄宿舎学園,東京都,139.71562067108994,35.72923406712486,0
2018-12-08,ヴィレッジヴァンガード カフェ ルミネエスト新宿,東京都,139.70060239304783,35.69132366790975,0
2018-12-07,American Diner M.C CAFE＆B.D.U.,新潟県,138.82184547843175,37.467228166670346,0
2018-12-06,放課後kitchenかぷらす,石川県,136.6835416711002,36.55538996681776,0
2018-12-06,ホーリーカフェ,三重県,136.5333414784069,34.54917146775221,0
2018-12-05,泥武士 キッチン/ レストラン ぎんざ 泥武士,東京都,139.7643214465549,35.67042575935112,0
2018-12-05,DELI CAFE EXPRESS（デリ カフェ エキスプレス） 京都店,京都府,135.75815295676202,34.98577655806086,0
2018-12-05,Kafe 柘榴,北海道,141.36623577115455,43.103924365405675,0
2018-12-04,アッシュ・ド・カフェ (Ash de Cafe),兵庫県,135.21560867999028,34.70326498052966,0
2018-12-04,ゆとりの空間 三越広島店,広島県,132.46407067841196,34.39313006782035,0
2018-12-03,Cafe Jarrett (カフェ ジャレット),熊本県,130.71283589037603,32.80312798965095,0
2018-11-29,おうちkitchen楓家,徳島県,134.55570469302438,34.070161968571284,0
2018-11-28,Bianchi Café & Cycles自由が丘,東京都,139.6666955784214,35.610221267319446,0
2018-11-27,cafe LILIE,神奈川県,139.44067716007743,35.342366565871345,0
2018-11-26,SKE48 CAFE&SHOP,愛知県,136.90593021397825,35.169528567398274,0
2018-11-25,cafe温故知新,大分県,131.56851087839905,33.18580536837579,0
2018-11-25,ベビー フェイス プラネッツ 富田林店,大阪府,135.6057971784078,34.51109556777323,0
2018-11-24,DOORS CAFE,大阪府,135.4991974710859,34.70775546753577,0
2018-11-20,バケット 静岡パルコ店,静岡県,138.38551617841898,34.97272896757469,0
2018-11-19,Cafe Cachette（カシェット）,神奈川県,139.55067077841824,35.57768206733524,0
2018-11-18,譲渡型猫カフェ ねこまんま,東京都,139.5490071009139,35.696245091872946,0
2018-11-15,子安の里 まりん,神奈川県,139.60590707841172,35.25187396746428,0
2018-11-13,ハンズ カフェ もりのみやキューズモールBASE店,大阪府,135.53012425751152,34.68057713293219,0
2018-11-13,牛久シャトー 一部施設,茨城県,140.1460073221841,35.978125170282894,0
2018-11-12,Coffee books mountain ニュー喫茶,岐阜県,137.06634517033748,35.414245091750786,0
2018-11-12,カフェ コロンバンMELSA店,愛知県,136.90583139292013,35.16846085301926,0
2018-11-12,神戸初のフクロウカフェ ビビ＆ジョージ神戸北野店,兵庫県,135.1927325696618,34.69891409091696,0
2018-11-11,テラリウム表参道,東京都,139.71041777841756,35.66526596730052,0
2018-11-11,ガーデンカフェ フォーリア,長野県,138.62117461096486,36.29886219045862,0
2018-11-10,レストラン 縄文,新潟県,138.76634442220427,37.4385467698319,0
2018-11-10,海カフェ,福島県,140.99271950528734,37.10741553976284,0
2018-11-08,JTRRD cafe 大阪なんば店,大阪府,135.5001271703484,34.66331999878376,0
2018-11-06,天空カフェ・アウラ,長野県,138.61533918002925,36.37695608013565,0
2018-11-04,カフェレストラン ルーフルーフ,千葉県,140.11922589291143,35.78162021976776,0
2018-11-03,桜街茶房 集いの高倉店,愛知県,136.99694451298802,35.000875580358546,0
2018-11-03,アニメコラボカフェSHIROBACO,東京都,139.63988027832724,35.70501942336925,0
2018-11-03,harumi’s  ハルミズ,東京都,139.68303257832244,35.6233523279117,0
2018-10-28,CAFE motoHOLIC,千葉県,139.9090781783288,35.67832422483667,0
2018-10-27,デンマーク・ザ・ロイヤルカフェテラス 東京スクエアガーデン店,東京都,139.7666189799582,35.675956537965114,0
2018-10-27,雪ノ下 府中,東京都,139.47913044294387,35.67174602582084,0
2018-10-24,MOJA in the HOUSE 梅田EST,大阪府,135.5001228357494,34.704775884889095,0
2018-10-22,NEW YORKER’S Cafe 町田中央通り店,東京都,139.44961337837637,35.54180656735217,0
2018-10-22,2tone cafe,兵庫県,135.18458917104581,34.68576946754013,0
2018-10-21,仙台アンパンマンこどもミュージアム＆モール ミュージアムカフェ,宮城県,140.88668116394737,38.263680032045905,0
2018-10-20,TEZU cafe（テヅカフェ）,奈良県,135.73262911388832,34.214253503865365,0
2018-10-20,アーマパスタ （Ama Pasta）,佐賀県,129.86597232062425,33.280809066252644,0
2018-10-19,ELLE café（エル カフェ）ギンザシックス店,東京都,139.763871613975,35.66940876720248,0
2018-10-19,ELLE café（エル カフェ）六本木ヒルズ店,東京都,139.72890811397497,35.660428167204614,0
2018-10-17,神宗淀屋橋本店 併設カフェ,大阪府,135.50167619288294,34.69011197916359,0
2018-10-17,名古屋占いカフェ名駅店,愛知県,136.88560917033652,35.168006095084316,0
2018-10-15,Cafe ちょこんと。,長野県,137.9725216799693,36.23595630705319,0
2018-10-13,カフェチリン,大阪府,135.50406497099397,34.6634593798272,0
2018-10-09,フラッグスカフェ&ダイニング 新宿店,東京都,139.70279517832884,35.69100862413626,0
2018-10-07,パラッツォ PALAZZO,東京都,139.6679838,35.6617703,0
2018-10-07,カントニーズレストラン Bon,新潟県,138.24661959303788,37.1088838674115,0
2018-10-06,COFFEE & TOY さかえや,宮城県,140.86797258001076,38.26495289167763,0
2018-10-06,あとりえ華,北海道,141.71382948017052,45.25261305565985,0
2018-10-06,Edy’s Bread CAFE エディーズ・ブレッドカフェ池袋店,東京都,139.7120924783259,35.73069362195623,0
2018-10-05,Cafe403,青森県,140.74328409298406,40.82866422557938,0
2018-10-04,レストラン かもしか,群馬県,139.00870547099728,36.34047888799205,0
2018-10-03,ミュージックカフェデュオ,山口県,131.24472657098443,33.95613481746484,0
2018-10-02,カフェ paneto-ne (パネトーネ) ‏,東京都,139.61588938754318,35.67143181454097,0
2018-10-02,DAIKOKU cafe,愛知県,136.9379784911871,35.13305124049251,0
2018-10-01,Comach cafe屋,長野県,137.93264177832643,35.72834332208445,0
2018-09-29,カフェ・ド・クリエ 赤坂山王店,東京都,139.738112970996,35.67269522499383,0
2018-09-28,NORTHSHORE 阪急岡本駅店,兵庫県,135.2759658006462,34.72902682797906,0
2018-09-28,ブックスペース栄和堂,神奈川県,139.51739297843895,35.33126276743344,0
2018-09-24,カフェレストMIMOCA,香川県,133.7918604138641,34.29118539978115,0
2018-09-23,Cafe Blanket （カフェ ブランケット）,東京都,139.7319266795459,35.65961733886175,0
2018-09-23,レストランさんかい 幸田店,愛知県,137.17466051389513,34.897152367304784,0
2018-09-23,Café & Bar Salud,鹿児島県,130.19289882923874,32.00822313604508,0
2018-09-23,カスケード 新宿本店,東京都,139.70353401390503,35.69432772386133,0
2018-09-23,レストランぎやまん館, 縄県,127.67691861386051,26.09763029014373,0
2018-09-22,カフェ杜の香り 郡山駅店,福島県,140.38687163613506,37.397153158422235,0
2018-09-22,べるしい,鳥取県,134.21183375477122,35.50240410376646,0
2018-09-16,LAILAICAFE(ライライカフェ),奈良県,135.8159882286249,34.680356968213175,0
2018-09-16,ゆとりの空間 高松店,香川県,134.0487076019284,34.34196729296826,0
2018-09-14,Chill mie cafe チルミーカフェ,東京都,139.60105107112145,35.706825367133725,0
2018-09-12,イデカフェ アクロスモール新鎌ヶ谷店,千葉県,140.00053226833683,35.78048148049834,0
2018-09-12,カフェ・ビオ,秋田県,140.3692039785091,40.22784826595964,0
2018-09-11,カフェトレイン蒸気屋,京都府,135.09060748013732,35.481288480338044,0
2018-09-11,Nines House,熊本県,130.7645338784487,32.803509368570744,0
2018-09-09,D×M,北海道,141.36409317035796,43.06731697844965,0
2018-09-09,カフェラ・デラ・グラッパ CAFFERA Della GRAPPA,東京都,139.7874803915835,35.55085338614414,0
2018-09-08,kawara CAFE＆DINING -FORWARD- 横浜ワールドポーターズ店,神奈川県,139.6363141154191,35.45433864998903,0
2018-09-08,Dining cafe Luxe(ダイニングカフェリュクス),神奈川県,139.6363141154191,35.45433864998903,0
2018-09-04,雪ノ下 みのおキューズモール,大阪府,135.48867281810516,34.8350759073314,0
2018-09-04,CURECLUB CAFE＆SHOP,東京都,139.73827347983826,35.701614036558,0
2018-09-04,モンスーンカフェ茶屋町,大阪府,135.49770417033767,34.707802101260405,0
2018-09-04,カフェ ラ・ボエム 茶屋町,大阪府,135.49770417033767,34.707802101260405,0
2018-09-03,CAFFE SOLARE アリオ亀有店,東京都,139.8497333798396,35.764651533096405,0
2018-09-02,cafe369 milk&cheese 伊佐牧場,鹿児島県,130.55424307092915,31.59124753850255,0
2018-08-30,ブルー スカイ南ウィングカフェ,大阪府,135.2323616481617,34.4329417532615,0
2018-08-30,トミーバハマ銀座店,東京都,139.76302312924994,35.66889209876234,0
2018-08-29,ZEN茶’fe,東京都,139.77487307861415,35.685457164978956,0
2018-08-27,AUX BACCHANALES オーバカナル 赤坂,東京都,139.7387592339499,35.66693454488294,0
2018-08-26,ミカフェート 呉店,広島県,132.55681918587268,34.24400074728384,0
2018-08-25,PRONTOプロント キャナルシティ博多店,福岡県,130.41055545545706,33.58868769525208,0
2018-08-25,珈琲屋 カフェモカ,千葉県,139.99556159290472,35.45243763784856,0
2018-08-23,green cafe（グリーンカフェ）,富山県,137.43913814202205,36.88601502958841,0
2018-08-18,TOLAND CAFE （トゥーランドカフェ）,大阪府,135.4768548351348,34.69076174378425,0
2018-08-10,pie face パイフェイス渋谷モディショップ,東京都,139.69994519290952,35.66164542637978,0
2018-08-10,いしのまきカフェ「 」,宮城県,141.30170552206454,38.43429827163746,0
2018-08-06,esCafe/Dining エスカフェダイニング イオン橋本店,神奈川県,139.34273387985434,35.596229242332974,0
2018-08-06,AlohaTableHawaiianDiner アロハテーブル豊橋店,愛知県,137.38341419290302,34.762187775286485,0
2018-08-05,ごはんdeカフェ 堺北花田店,大阪府,135.51285527983376,34.585079797004795,0
2018-08-05,森のリストランテRocco,茨城県,140.51060601544248,36.563933288663044,0
2018-08-05,ベビーフェイスプラネッツ 太宰府店,福岡県,130.53541105546753,33.49400053858624,0
2018-07-31,Cafe Ano,東京都,139.457390177026,35.64516623965313,0
2018-07-30,nest（ネスト）,北海道,141.3461369336545,43.055979680118384,0
2018-07-24,食パン工房 まちか堂 南柏店,千葉県,139.94553837996324,35.83821278025505,0
2018-07-24,cat cafe nyanny AKIBA,東京都,139.77198127034015,35.702597787821546,0
2018-07-22,カフェソラーレ Tsumugi LUCUA店,大阪府,135.49390702107635,34.703118690691795,0
2018-07-17,6889cafe,東京都,139.4738715770234,35.51316494687477,0
2018-07-16,cafe GOZZO(カフェゴッツォ),東京都,139.76672317034007,35.70312008781442,0
2018-07-16,和カフェ93,静岡県,-1,-1,0
2018-07-16,Go’s Cafe, 潟県,138.2449162697122,37.109090758048566,0
2018-07-14,BOUL’ANGE 自由が丘店,東京都,139.66696089171523,35.609486841607186,0
2018-07-14,レストラン ラドニス,東京都,139.71270189171662,35.67442763804905,0
2018-07-14,カフェ 青山 女池店,新潟県,139.0374932697293,37.89424921314843,0
2018-07-11,good juice Terre Table 神南本店,東京都,139.7003415696814,35.66511173855981,0
2018-07-11,男装執事 Chrysophrase カフェ クリソプレーズ,none,140.11745757702516,35.609463441608455,0
2018-07-11,ベークショップ神戸屋 パニッシュ五日市店,東京都,139.22762017034012,35.732324087414916,0
2018-07-10,下堂薗茶舗,鹿児島県,130.54372817033516,31.583497141297475,0
2018-07-09,LEPOSINY CAFE レッポジーニ カフェ,埼玉県,139.31774717034068,36.163412081485326,0
2018-07-09,CAFFE SOLARE カフェ ソラーレ 原宿竹下通り店,東京都,139.7038882696816,35.671463838211395,0
2018-07-05,BP CAFE（BPカフェ）,新潟県,139.0531890917646,37.915971911895106,0
2018-07-04,スタンダードブックストア 茶屋町店,大阪府,135.49939397700683,34.70714339047627,0
2018-07-04,ふくろうの城千葉店,千葉県,140.11703967985463,35.60917754162415,0
2018-07-02,チァム 西友吉祥寺店,東京都,139.5790537798565,35.70577373632969,0
2018-07-02,カフェソラーレ 府中店,東京都,139.4804801703401,35.671457088247216,0
2018-06-26,カフェコムサ 御影クラッセ店,兵庫県,135.25307867953532,34.715520390028146,0
2018-06-18,カフェアンドバル リズム cafe&Bar rhythm,熊本県,130.71100656962474,32.80621578989609,0
2018-06-17,PRONTOプロント 京都駅ビル店,京都府,135.7576777346594,34.98590612184935,0
2018-06-17,しあわせをよぶふくろうの城 原宿店,東京都,139.7049598770264,35.667830938410766,0
2018-06-16,まかいの牧場 ファームデリ,静岡県,138.58363609170965,35.336296356515426,0
2018-06-13,アンディハウス,群馬県,139.1771603696953,36.31907520243074,0
2018-06-11,カフェ ペロリンガ 中野店,東京都,139.66478717943465,35.709219628835285,0
2018-06-10,AMTcafe大宮店,埼玉県,139.62628718440743,35.90678163723998,0
2018-06-10,BAKE CAFE すとーく,鳥取県,133.32396359171193,35.44972935033714,0
2018-06-05,cafe mitte (カフェ ミッテ),愛知県,137.168654977011,34.91063397954919,0
2018-06-05,カフェ レストラン 漫画人館,熊本県,130.71274285732542,32.76541237110411,0
2018-06-04,グッドモーニングカフェ千駄ヶ谷,東京都,139.71078799171661,35.679257537784146,0
2018-06-03,factory ファクトリー,東京都,139.70698933822442,35.660448617424194,0
2018-06-02,AROMATIQUE CAFE  アロマティックカフェ,東京都,139.41532187702705,35.699798136657606,0
2018-06-02,PRONTO プロント四日市店　,三重県,136.61937817033922,34.967603097782465,0
2018-05-30,Cafe Beatle Club,東京都,139.43405278027538,35.58556480063433,0
2018-05-26,ドールランド みなかみ,群馬県,138.93486202929955,36.687087271952755,0
2018-05-20,カフェ ラ キッシュ イオンモール羽生店,埼玉県,139.5396561156907,36.1428654800894,0
2018-05-19,GREEN BONDS CAFE (グリーン ボンズ カフェ),神奈川県,139.6272865276668,35.47314868024346,0
2018-05-19,Cafeルノアール ヨドバシAkiba横店,東京都,139.77460621300347,35.69956098019007,0
2018-05-19,RANDY ランディー,東京都,139.7411832943969,35.66594528809693,0
2018-05-18,カフェベネ 赤坂一ツ木通り店,東京都,139.73398331568018,35.67456098019584,0
2018-05-16,スプーンスタイル 東京駅一番街店,東京都,139.76758548844776,35.68119177670452,0
2018-05-14,FIKA TIME（フィーカタイム）イオン常滑店,愛知県,136.82453408150667,34.88191560501738,0
2018-05-12,BRIO CAFFE(ブリオカフェ)イオンモール東員店,三重県,136.57841906598821,35.061346554668646,0
2018-05-09,和み茶寮花らん香ろん,大阪府,135.47130150564982,34.803302080408315,0
2018-05-07,不二家/不二家レストラン浦和コルソ店,埼玉県,139.6534841801151,35.858515780250606,0
2018-05-07,カフェラミル 新宿三丁目店,東京都,139.70531520566914,35.69220698019178,0
2018-05-07,カフェラミル 上野広小路店,東京都,139.77308512767175,35.709140480187806,0
2018-05-07,キネマカフェ,福岡県,130.40480271295792,33.593098880733514,0
2018-05-06,自由が丘なぞともカフェ,東京都,139.6693526156786,35.60790228021153,0
2018-05-05,CAFF Lu-Le カフェ ルゥール,東京都,139.69732791568063,35.69132638019196,0
2018-05-05,珈琲＆レストラン アンジュ 高津店,神奈川県,139.58725415700573,35.59644878021426,0
2018-05-04,HI！me Cafe（ハイミーカフェ） イオンスタイル umie店,兵庫県,135.18156681739,34.67939348345942,0
2018-04-29,レストラン ソラノテラス,静岡県,138.80415881566861,35.15474263032038,0
2018-04-23,ブルーコーンカフェ（BLUE CORN CAFE）,神奈川県,139.63055115161148,35.53618610626636,0
2018-04-23,FRANZE & EVANS LONDON 京都・三条店,京都府,135.76363031563963,35.00872337416572,0
2018-04-22,カフエマメヒコ宇田川町店,東京都,139.695399727608,35.66224318737513,0
2018-04-16,カフェカルディーノ仙川店,東京都,139.5855425128619,35.661260280198846,0
2018-04-09,ダッキーダックアトレ松戸店,千葉県,139.90019612755285,35.78457438017041,0
2018-04-09,chacafe 茶空楽,東京都,139.76804110655712,35.69248511363152,0
2018-04-09,VERY FANCY Loves ANNTEANA,東京都,139.70139167958175,35.65070433935018,0
2018-04-06,プロント PRONTO 新大阪南口店,大阪府,135.49901939443498,34.7289240782318,0
2018-04-03,NOODOL CAFE 秋葉原ヌードルカフェ,東京都,139.77021540551868,35.70205228018933,0
2018-04-02,T.C cafe 岡山店,岡山県,133.92623074658061,34.66264188559003,0
2018-03-30,Herbal cafe HIROBA（ハーバルカフェ ヒロバ）,新潟県,139.0665995129123,37.88393837973964,0
2018-03-26,プラザカフェ,栃木県,139.4453714273834,36.32319448004945,0
2018-03-24,maxplus cafe,沖縄県,127.81309702109974,26.307351483473372,0
2018-03-21,カフェトラヴィアータ,東京都,139.70690696983135,35.74928708027562,0
2018-03-21,不二家 栄地下センター店,愛知県,136.90586247484853,35.169688500821174,0
2018-03-18,ふくろう茶房鳩ヶ谷店,埼玉県,139.7390137274696,35.827176480160595,0
2018-03-18,Rafre (ラフレ),北海道,142.4531913277352,43.67120097912072,0
2018-03-17,こもれびカフェ,秋田県,140.21887236376662,39.612337212893614,0
2018-03-14,六甲牧場カフェイ オンモール神戸北店,兵庫県,135.1936005055904,34.861042962139614,0
2018-03-14,BUS STOP CAFE,福岡県,130.42247057714215,33.59015674948008,0
2018-03-11,bran cafe,大阪府,135.50115366984383,34.67604798053643,0
2018-03-10,グルテンフリーCafé RiceTerrace かまくら,神奈川県,139.54646861261446,35.31444415760698,0
2018-03-10,カフェプラザ枚方 ビオルネ店,大阪府,135.6443307798718,34.815517780501104,0
2018-03-09,カフェ・レストラン ポールダール,愛知県,137.39463825930548,34.76938395874745,0
2018-03-08,お菓子の国のアリスカフェ 新宿ミロード店,東京都,139.69732791542032,35.69132638019186,0
2018-03-08,カフェグレ 船橋西武店,千葉県,139.98196791542054,35.701279980189604,0
2018-03-08,Deco Cafe Re (デコカフェ),香川県,134.0406691153855,34.296252380540324,0
2018-03-07,カフェ デュ モンド 水戸京成百貨店,茨城県,140.46215498003346,36.37811268013535,0
2018-03-05,HEIMAT CAFE ハイマット カフェ,東京都,139.7022531771516,35.62084328030531,0
2018-03-05,ブレラ珈琲館,長野県,138.36715847991982,36.75734518005545,0
2018-03-04,ベーカリーレストランサンマルク 金沢東インター店,石川県,136.66152697725616,36.597291386892124,0
2018-03-04,アロハキッチン西千葉店,千葉県,140.10184206989246,35.62218784091142,0
2018-03-03,MELLOW BROWN COFFEE 武蔵小杉店,神奈川県,139.6580239155041,35.573811343462744,0
2018-02-26,ベーカリーレストランサンマルク富山太郎丸店,富山県,137.21346639187811,36.678782180071885,0
2018-02-26,マコーレ蒲田店,東京都,139.72098649185062,35.56189008031913,0
2018-02-26,レストランいわさき,千葉県,139.9389716108139,35.39034492297518,0
2018-02-22,Bshop CANTEEN ビショップカンティーン,兵庫県,135.19022481547844,34.68944569132809,0
2018-02-22,THE筋肉れすとらん,京都府,135.75873961542797,35.00631517429604,0
2018-02-22,Cafe SMILE（カフェスマイル）,大阪府,135.50767951547743,34.63132739443774,0
2018-02-20,CAFE AMIGO (カフェ アミーゴ) ららぽーと立川立飛店,東京都,-1,-1,0
2018-02-20,カフェラボエム渋谷,東京都,139.69699511549769,35.66443013850009,0
2018-02-15,ココアショップ アカイトリ (COCOA SHOP AKAITORI),大阪府,135.4993033154782,34.671041792313325,0
2018-02-13,CAFE AMIGO (カフェアミーゴ),東京都,139.41571131535156,35.71317698018693,0
2018-02-12,Earth&Salt アースアンドソルト,東京都,139.71085501549732,35.65146053921097,0
2018-02-10,ゲームカフェ THE WIN WIN ウィンウィン,東京都,139.7239167154968,35.62557884062903,0
2018-02-10,広野町レストラン アルパインローズ,福島県,140.99859621552977,37.23529605078558,0
2018-02-06,カフェ コロラド 新百合ヶ丘店,神奈川県,139.50563091549645,35.60450624178302,0
2018-02-04,Floydフロイド三島店,静岡県,138.91203851548696,35.123700867952714,0
2018-02-04,marbre blanc cafeマーブルブランカフェ 福岡イオン伊都店,福岡県,130.25622471545728,33.577481250045885,0
2018-02-04,レストラン太陽,福岡県,130.6899498154586,33.64379514659038,0
2018-01-28,BASEBALL CAFE & BAR Sandlot,神奈川県,139.6357212149544,35.445257550485174,0
2018-01-25,ROSSO LUANA（ロッソ ルアナ）,神奈川県,139.64353201549952,35.34085225617075,0
2018-01-23,ファミリーカフェ マドカ,神奈川県,139.6088786155017,35.450377950204896,0
2018-01-21,なごも。阪急庄内店,大阪府,135.4730430154881,34.74971248809902,0
2018-01-19,にゃんこいわ,東京都,139.85508331550704,35.71813323555416,0
2018-01-18,Cafe Bellamente ( カフェ・ベッラメンテ),大阪府,135.31996731548162,34.41044670621514,0
2018-01-16,bricolage ぶりこ,愛知県,136.90374591549602,35.16183956588788,0
2018-01-16,不二家/不二家レストラン 高田町店,神奈川県,139.61017811550374,35.55268524461806,0
2018-01-15,Pafe & Burger QOL,神奈川県,139.151206315498,35.265122960286575,0
2018-01-15,カフェデニーズ 和光店,埼玉県,139.61020671550847,35.78647273179984,0
2018-01-15,カフェデニーズ アリオ仙台泉店,宮城県,140.87995701556096,38.3244324881171,0
2018-01-14,ブレッツカフェ クレープリー ラゾーナ川崎店,神奈川県,139.69398371550346,35.53255914571805,0
2018-01-12,マコーレ西荻窪店,東京都,139.59818911550664,35.703065636381055,0
2018-01-11,サンマルクカフェ mozoワンダーシティ店,愛知県,136.88133131549748,35.22479476247545,0
2018-01-08,ベーカリーレストランサンマルク青森小柳店,青森県,140.79498311561645,40.8217079388331,0
2018-01-07,Apsara Cafeアプサラカフェ 豊中店,大阪府,135.46440231548885,34.79003438593564,0
2018-01-07,Cath’s Cafe (キャス カフェ),神奈川県,139.4442680154996,35.33821685631424,0
2018-01-06,B’s CAFE(ビーズカフェ)三郷店,埼玉県,139.85248121550956,35.843422728666646,0
2018-01-05,PRIVATE KITCHEN ヒソカ,東京都,139.70096041550653,35.690767737055815,0
2018-01-03,PATIO パティオ 鶴岡S-MALL店,山形県,139.82988901557007,38.7390056638697,0
2018-01-03,カフェダイニング エルヴェ,東京都,139.59694991550555,35.640147039831014,0
2018-01-02,ぶどうの森大山店,愛知県,137.35440441548752,34.726661589334576,0
2018-01-02,Pillar Cafe,東京都,139.7067337155059,35.654228239059286,0
2018-01-02,ふくろうの森,神奈川県,139.34885741549945,35.33050155673376,0
2018-01-01,カフェデニーズ 大和鶴間店,神奈川県,139.45477801550243,35.49046734801729,0
2017-12-31,Cafe RASHIKU（カフェ ラシク）,東京都,139.59789761550604,35.667612438325655,0
2017-12-30,RRainbow テラスモール湘南,神奈川県,139.44437001549963,35.33846625630052,0
2017-12-29,SATSUMA DINING &BAR,滋賀県,136.1006650154953,35.12440856791453,0
2017-12-28,アニマルカフェ 仙台福郎,宮城県,140.87189471555968,38.26068959182615,0
2017-12-26,COUTUME 青山店,東京都,139.70912367969234,35.66291698029555,0
2017-12-25,Cafe&MealMUJI横浜ベイクォーター,神奈川県,139.62446191550208,35.46650944932496,0
2017-12-25,カフェラミル 大阪ガーデンシティ店,大阪府,135.48934951548716,34.6986798908336,0
2017-12-24,カフェ ふくろう神社,東京都,139.79632817962633,35.716048980283055,0
2017-12-23,よーじやカフェ三条店,京都府,135.76365731549305,35.00877307416333,0
2017-12-22,レストラン＆カフェ ベラビスタ,神奈川県,139.61088051549814,35.25770286068961,0
2017-12-22,PRONTO 千葉駅前,千葉県,140.11344901550515,35.61164704139206,0
2017-12-22,不二家レストラン/不二家 太子町店,兵庫県,134.58494531548968,34.832992583628666,0
2017-12-22,不二家レストラン/不二家 松戸店,千葉県,139.8976194155084,35.78413343192864,0
2017-12-21,ハナオカフェ柏店,千葉県,139.96941617994156,35.859106327900136,0
2017-12-17,T&Chouette,山梨県,138.8933285799352,35.54321214523268,0
2017-12-16,おやこカフェトゥーリズ,神奈川県,139.60587057993655,35.605056641849615,0
2017-12-13,不二家レストラン 渋谷店,東京都,139.69684807993772,35.65988333884628,0
2017-12-13,Little Campanella リトルカンパネラ,三重県,136.599846679922,34.855557682511765,0
2017-12-13,kohuku sengawa,東京都,139.58516067955813,35.66133033876774,0
2017-12-11,フェアビーンズコーヒー 橦木館カフェ,愛知県,136.91371897992818,35.18013576499299,0
2017-12-11,パクチーハウス東京,東京都,139.6339874799374,35.64887873944937,0
2017-12-09,フライング トマト カフェ,大阪府,135.51728851548722,34.701005690709145,0
2017-12-09,食堂・音楽室 アルマカン,東京都,139.58203001550675,35.701085236489725,0
2017-12-08,ベーカリーレストランサンマルク 茨木店,大阪府,135.5810980154893,34.81495228459769,0
2017-12-04,レストランふじ,東京都,139.71947601550667,35.696538036739305,0
2017-12-01,RICO DE KITCHEN 千歳烏山店,東京都,139.59965767974484,35.666672980294656,0
2017-11-29,カフェ・ド・ミンガス,大阪府,135.49956327982596,34.66366489280408,0
2017-11-28,Maruta cafe マルタカフェ,山口県,131.79894097981796,34.256639814473274,0
2017-11-27,プロント千葉駅前店,千葉県,140.11331557984562,35.61176104148277,0
2017-11-26,U cafe,愛知県,136.98233137983667,35.18635676465622,0
2017-11-26,フライング トマト カフェ,大阪府,135.51729387982678,34.70095939080744,0
2017-11-25,BROWSE CAFE ブラウズカフェ,神奈川県,139.5554128798446,35.563682344113666,0
2017-11-19,darts cafe ガーデン奈良三条店,奈良県,135.7978046798264,34.68290839177404,0
2017-11-18,R cafe,滋賀県,135.9426593798374,35.218325462922735,0
2017-11-15,Spuntino（スプンティーノ）,島根県,133.3325522155399,36.20329208007594,0
2017-11-14,オーガニックデリ&カフェ みどりえ 祐天寺店,東京都,139.69013627995827,35.63684138030157,0
2017-11-12,仙台市福祉プラザ レストラン あすなろ,宮城県,140.87789028002265,38.250603479775165,0
2017-11-05,レストランオホーツク,北海道,143.98727158017425,43.88829797921626,0
2017-11-04,ベビーフェイスプラネッツ 大垣店,岐阜県,136.61737447995156,35.35494218036822,0
2017-11-01,サンマルクカフェ クイーンズ伊勢丹横浜店,神奈川県,139.6186115799543,35.46559598034193,0
2017-11-01,ハンズカフェ コクーンシティ店,埼玉県,139.63320957996459,35.89648968024192,0
2017-10-30,ハルジョオン・ヒメジョオン LEAVES函館店,北海道,140.72093348011512,41.76755837933282,0
2017-10-30,Cafe&Bar JamJam,山口県,130.93022757992344,34.14434738067613,0
2017-10-22,レストラン憩,愛知県,136.90885287995013,35.290247780383936,0
2017-10-17,KTM Cafe 大阪店,大阪府,135.4882378799356,34.672558380537424,0
2017-10-08,カフェ コヨーテ イオンモール沖縄ライカム,沖縄県,127.79519767976214,26.315278283469823,0
2017-10-02,Planet3rd高円寺,東京都,139.64725607995993,35.70192528028656,0
2017-09-23,スタジオミュジック 高円寺店,東京都,139.64887987995976,35.703330380286175,0
2017-09-17,カフェレスト63,北海道,144.38969388014942,43.01274057925054,0
2017-09-16,Farmer’s Kitchen&Cafe ポタジェ,長野県,137.97356437997232,36.21947978016996,0
2017-09-16,アンドンカフェ （Andon cafe）,神奈川県,139.38316827995374,35.442860980347376,0
2017-09-16,RinzTOKYO,東京都,139.74267207996007,35.70865128028494,0
2017-09-15,サンジェルマン タンドレス 名古屋店,愛知県,136.88301957994733,35.16988618041319,0
2017-09-12,町なかファームカフェ西11丁目店,北海道,141.33868078015072,43.05725707924832,0
2017-09-09,LadyBird（レディバード）,埼玉県,139.7165515799623,35.806345480262415,0
2017-09-08,ハンズカフェ アミュプラザ鹿児島店,鹿児島県,130.54047277986646,31.584554181439753,0
2017-09-03,カフェ カーボ イオンモール今治新都市店,愛媛県,132.960582079921,34.043885580703154,0
2017-09-01,holy （ホーリー）,東京都,139.7048080771183,35.64914333943507,0
2017-08-30,フォーシーズンらんず(和蘭豆),佐賀県,130.27103375683,33.26266528082819,0
2017-08-30,NOZ BY T.Y.FARM,東京都,139.74608411558427,35.62261758020792,0
2017-08-28,Cafe de AZABUSABO 町田ジョルナ店,東京都,139.44502688001393,35.5421313803238,0
2017-08-27,梅田 阪急三番街 リバーカフェ,大阪府,135.49635521534688,34.704699090511475,0
2017-08-27,デリス タルト＆カフェ 阪急三番街,大阪府,135.49635521534688,34.704699090511475,0
2017-08-27,Cafe L’Arc-en-Ciel,大阪府,135.49635521534688,34.704699090511475,0
2017-08-22,BOWL ららぽーと富士見店,埼玉県,139.54595281537158,35.860843727707596,0
2017-08-22,カフェコムサ ヨドバシ梅田店,大阪府,135.4942022153468,34.704192790538684,0
2017-08-20,CAFE BREZZA （カフェ ブレッツア）,神奈川県,139.58183921536292,35.454213549996076,0
2017-08-18,Dining cafe maruco ダイニングカフェ マルコ,北海道,142.39904271556296,43.775359952540725,0
2017-08-16,ハンズカフェ ウィング川崎店,神奈川県,139.6986201153644,35.532326945731185,0
2017-08-15,Cafe Mar （カフェマール）,北海道,141.32014011554395,43.05155249914342,0
2017-08-15,Cafeダイゴ,愛知県,136.9339105153568,35.16562366568326,0
2017-08-14,Ltd. cafe 二子玉川ライズ店,東京都,139.62637531536626,35.61230774135611,0
2017-08-14,カジュアルレストラングリーンズ,静岡県,138.18212411252284,34.83704048341128,0
2017-08-13,ハンズカフェ福岡パルコ店,福岡県,130.39838240000003,33.591062900000004,0
2017-08-11,神戸屋レストラン吹田内本町店,大阪府,135.51977371534787,34.75627698774711,0
2017-08-11,ブルーハワイライフスタイル なんばCITY店,大阪府,135.50077771534606,34.66189679280294,0
2017-08-11,アニマックスCAFE 東京秋葉原店,東京都,139.76828981536806,35.70239683641812,0
2017-08-06,こもれびの森,兵庫県,135.21693561534778,34.7526590879412,0
2017-08-05,B.S CAFE （ビーエス カフェ）,愛知県,136.98070101535586,35.12855226769045,0
2017-08-04,BOWLららぽーと海老名店,神奈川県,139.38689431520967,35.455794980247425,0
2017-08-01,ベーカリーレストランサンマルク つくば研究学園店,茨城県,140.08904781537643,36.083774715396906,0
2017-07-30,ことりに会えるカフェ クラインフォーゲル,広島県,132.45843001534038,34.38963710732153,0
2017-07-23,マンゴカフェ みらい長崎ココウォーク店,長崎県,129.86245971530735,32.76253859203048,0
2017-07-22,SAIRAM（サイラム）西荻窪店,東京都,139.5995296153682,35.70324953637133,0
2017-07-17,信州うちやま農園 長野市アゲイン店,長野県,138.18442511538888,36.64632618404567,0
2017-07-15,FOODS LABO SONTON Cafe,東京都,139.81358921536764,35.674643537940504,0
2017-07-12,神戸屋キッチン 国立店,東京都,139.44387931536792,35.69844573663488,0
2017-07-11,カフェ コロラド 石神井台店,東京都,139.58055221536878,35.732148634784984,0
2017-07-10,札幌豆工房,北海道,141.36256601554467,43.08512499699552,0
2017-07-10,食事的カフェRoomK,群馬県,139.15108311538197,36.32997940172609,0
2017-07-10,ウエストパークカフェ スカイファウンテン,東京都,139.78644021536482,35.55093174471423,0
2017-07-09,お野菜カフェ アトリエラムカーナ,東京都,139.71965631536796,35.68890873715805,0
2017-07-09,エルカフェ 東急プラザ蒲田店,東京都,139.71312741536522,35.56208004410449,0
2017-07-08,ドンク MARK IS みなとみらい店,神奈川県,139.62956731536303,35.45770214980556,0
2017-07-08,食堂カフェ cocon,兵庫県,134.81375491536474,35.54393634509661,0
2017-07-05,カフェ グランログス,茨城県,140.12909561544856,35.99710082019072,0
2017-07-05,Green Houseくるみ,愛知県,137.0305210154315,35.18931556439923,0
2017-07-05,旬鮮レストラン あやはし,沖縄県,127.9267228152757,26.332503091164526,0
2017-07-04,L.LovesR.(エルラブズアール),東京都,139.70314241552222,35.660866380199074,0
2017-07-04,GIOオーガニックカフェ仙台駅前店,宮城県,140.877693015587,38.2605663796739,0
2017-07-04,Ｃａｆｅ花音,東京都,139.29894231552274,35.682451580194,0
2017-07-01,ベーカリーレストランサンマルク鳥取店,鳥取県,134.22752081561944,35.48871468023957,0
2017-06-28,総合東京病院 レストラン アザレア,東京都,139.66179461541097,35.72816273500375,0
2017-06-27,Gallery Zweig,福岡県,130.42146987989497,33.5159942808494,0
2017-06-27,PENCAFE,栃木県,139.985122579975,36.8908151800284,0
2017-06-26,NOBU Cafe ノブカフェ 吉祥寺,東京都,139.57692291560755,35.70352588018916,0
2017-06-23,GREEN CAMP Cafe,大阪府,135.37469818013093,34.4592750805926,0
2017-06-19,TOYLABO CAFE (トイラボカフェ),大阪府,135.50108688002908,34.703847780529536,0
2017-06-17,K’s CAFE サークルK岡崎りぶら店,愛知県,137.15748927996498,34.9592958804651,0
2017-06-17,CAFE＆BAKERY MIYABI 浅草橋店,東京都,139.78180577998245,35.69803438028731,0
2017-06-17,ショーレストラン DDPシアター 新宿店,東京都,139.69913007998247,35.695223180288025,0
2017-06-16,The Relax cafe CRADLE,滋賀県,136.2256225153986,35.13319116743929,0
2017-06-14,Laid Back Cafe,滋賀県,136.2206593155352,35.23645988030033,0
2017-06-13,cafe+bar chocon,福岡県,130.37619387977114,33.56822535062221,0
2017-06-09,ベーカリーレストランサンマルク 柏の葉公園店,千葉県,139.94254131562448,35.88956078014622,0
2017-06-08,りせっとcafe 関内店,神奈川県,-1,-1,0
2017-06-08,知るカフェ 早稲田大学前店,東京都,139.70920877986123,35.7109483360456,0
2017-06-07,en café,東京都,139.86146841571266,35.68689433726772,0
2017-06-07,カフェテラス M2,大阪府,135.64441391526287,34.81562128456219,0
2017-06-05,SKIP KIDS川崎ルフロン店,神奈川県,139.69449181534483,35.52958074588131,0
2017-06-04,gooz銀座店,東京都,139.76109031544593,35.667865238312054,0
2017-06-04,RF Cafe アールエフ カフェ,東京都,139.77487621544637,35.68667223728061,0
2017-06-03,coffon (コホン),福岡県,130.3906469153576,33.57930084995129,0
2017-06-03,Rastaman’s Cafe,東京都,139.7900633155111,35.71032883598255,0
2017-06-03,小さなカフェ,大阪府,135.49103311548902,34.58529889689717,0
2017-06-03,鎌倉 鉢の木 カフェ,神奈川県,139.55091731555078,35.330326980277555,0
2017-06-03,TINY GARDEN KITCHEN 虎ノ門店,東京都,139.75090699999998,35.666214,0
2017-06-02,soLella (ソレラ) 枚方店,大阪府,135.64437771553892,34.815669680405065,0
2017-06-02,アジアン雑貨さらさ Cafe Che & Pho,北海道,141.32658291574847,43.054169179146385,0
2017-05-29,れすとらん 四六時中 イトーヨーカドー新浦安店,千葉県,139.92060201549359,35.64293708020327,0
2017-05-28,ビストロ エマンジェ,兵庫県,135.06879111539618,34.9373899803744,0
2017-05-27,Cafe Leela カフェ リーラ,兵庫県,134.67694877983106,35.017602380450626,0
2017-05-26,CAFE89 (カフェ カトル・ヴァン・ヌフ),東京都,139.69540787984803,35.689995880289246,0
2017-05-24,SAMBAZON AÇAÍ CAFE,東京都,139.7194393154143,35.650780080201365,0
2017-05-22,カフェ・カイラ 表参道店,東京都,139.70471701541453,35.66737948019745,0
2017-05-22,CAFE & GRILL BALLY’S,岡山県,134.01551011539934,35.0723769803407,0
2017-05-21,Cafe Kuma.co (カフェクマコ),大阪府,135.50032907982344,34.705804380528996,0
2017-05-18,cafe tree,埼玉県,139.5449255796497,35.85560492809349,0
2017-05-18,Pan Mu (パン夢),岐阜県,136.7805814796402,35.449585250345315,0
2017-05-15,天神明治通りカフェ,福岡県,130.39849827982226,33.591592980828025,0
2017-05-15,KOFFIE HUIS,福岡県,130.37132987982218,33.58290908083058,0
2017-05-15,GOOD TIMES CAFE 仙台店,宮城県,140.8799437799396,38.26014387977354,0
2017-05-15,岐阜会館,岐阜県,136.75852717991103,35.42602338035137,0
2017-05-14,菜園レストラン 近江野菜の台所,滋賀県,135.9068699799003,34.98475618045858,0
2017-05-13,NOHARA BY MIZUNO,東京都,139.7019225799122,35.66877648029417,0
2017-05-12,cafe capri,岡山県,133.88497257988737,34.64506408054457,0
2017-05-12,Rest café+bar,群馬県,139.1758770799281,36.31526298014891,0
2017-05-12,えんがわinn,東京都,139.66311987991048,35.60193938030972,0
2017-05-12,Maple Garden Café (メープルガーデンカフェ),三重県,136.67876617702856,35.07618498043601,0
2017-05-10,阪急ベーカリー＆カフェ　鈴鹿ハンター店,三重県,136.54422081546016,34.873351580390526,0
2017-05-10,GENERAL FARM’Sさんすて岡山店,岡山県,133.9153359154553,34.66561128044347,0
2017-05-10,青山アンデルセン,東京都,139.71031951547957,35.664766880198236,0
2017-05-09,craft & zakka 創巣堂,静岡県,138.92631901546267,34.971245080365925,0
2017-05-05,みーとカフェ,東京都,139.71366820527248,35.731506180182684,0
2017-05-02,Bakery＆Chapel Cafe セーヌの畔,大阪府,135.51797211547068,34.70021738043458,0
2017-05-02,スパイスプラス 霞ヶ関イイノダイニング店,東京都,139.75058131549426,35.670979980196854,0
2017-05-02,HYPER CAFE,愛知県,136.81775401548373,35.24159988029907,0
2017-05-01,THANKS ON THE TABLE. 湘南Ｔ−ＳＩＴＥ店,神奈川県,139.4620937152479,35.33441275652151,0
2017-05-01,ごはんカフェSHIRAKABA,北海道,141.54399511543136,42.623210926434936,0
2017-04-30,Cats cafe 22番地 小山店,東京都,139.8574542153685,35.71570833568761,0
2017-04-30,cafe manduka,東京都,139.69886221536728,35.66163413865367,0
2017-04-29,Dog Cafe Rolick,宮城県,141.2777101154294,38.424950982258046,0
2017-04-29,TP’s cafe,東京都,139.54015791536725,35.65331713910952,0
2017-04-29,WIRED CAFE 宇都宮PARCO店,栃木県,139.88432121538693,36.56090738883239,0
2017-04-29,OWL Cafe しあわせをよぶふくろうの城 仙台店,宮城県,140.87803071542527,38.24567069269968,0
2017-04-24,道玄坂カフェ,東京都,139.6934708798159,35.65837468029652,0
2017-04-23,Moena CAFE,東京都,139.70552931536733,35.66960293821681,0
2017-04-22,カフェカルディーノ 酒々井プレミアム・アウトレット店,千葉県,140.2921608153685,35.71610783566574,0
2017-04-22,Bloom,秋田県,140.10739951546026,39.72100120558043,0
2017-04-18,カフェ＆バー CHARACRO (キャラクロ) 秋葉原店,東京都,139.76679857980076,35.70024863663283,0
2017-04-18,Bridge COFFEE & ICECREAM,東京都,139.78663887980116,35.71510703581753,0
2017-04-18,サンマルクカフェ 阪急岡本店,兵庫県,135.27406397978024,34.72911418929926,0
2017-04-18,ちどりカフェ,宮崎県,131.4238557797245,31.93510733383192,0
2017-04-16,ちびっこ共和国 ひなたカフェ,奈良県,135.77844791534505,34.62402779482814,0
2017-04-15,カフェ デニーズ 湘南台店,神奈川県,139.44452991536158,35.39237865336649,0
2017-04-15,あぐりCafe ぱれっと 長洲店,千葉県,140.12340197979867,35.60197054201881,0
2017-04-15,PET’s THE WORLD,福岡県,130.52229027975156,33.32073376346342,0
2017-04-14,STICK SWEETS FACTORY ゆめタウン大江店,熊本県,130.7234240797413,32.80287259006681,0
2017-04-12,かっぱや,兵庫県,134.69599637978234,34.83183368378717,0
2017-04-10,ベーカリーレストランサンマルク 新神戸店,兵庫県,135.203793079775,34.70995099032607,0
2017-04-10,503cafe（ゴーマルサンカフェ）,東京都,139.33606337979504,35.652888139229994,0
2017-04-09,TEA LIGHT,福岡県,130.3984124797567,33.58360144982181,0
2017-04-09,ULTRA CAFÉ 池袋店,東京都,139.70292937980153,35.73088173495152,0
2017-04-09,ベーカリーレストランサンマルク大倉山店,神奈川県,139.63122467979696,35.52672744613389,0
2017-04-08,PRONTO 京急羽田空港駅店,東京都,139.7842961797977,35.54993754486544,0
2017-04-08,PRONTO 横浜西口店,神奈川県,139.62034837979581,35.46721834938321,0
2017-04-05,café コトリ,愛知県,136.94274991533382,35.24450808029832,0
2017-04-03,本棚珈琲 ららぽーと立川立飛店,東京都,139.4152638797849,35.71199418028416,0
2017-04-03,スイーツパラダイス上大岡店,神奈川県,139.5944863797773,35.40904318035528,0
2017-04-02,カフェ＆レストラン夢の丘,静岡県,138.1707168797626,34.84931198049256,0
2017-03-28,カフェサルーン雅,兵庫県,135.05000567975708,34.63013408054835,0
2017-03-28,アロハカフェ カウカウ 新鎌ヶ谷店,千葉県,139.99839797978672,35.78058138026834,0
2017-03-27,Salon de thé CLOVER サロン･ド･テ クローバー,東京都,139.57563611535144,35.70507328018871,0
2017-03-27,カフェレストラン シャトル,広島県,132.4264500153195,34.470826780494164,0
2017-03-27,カフェ&和酒 N3331,東京都,139.7679969153512,35.69718888019049,0
2017-03-26,スイーツパラダイス 倉敷店,岡山県,133.74330457975645,34.60427118055498,0
2017-03-25,PRONTO 越谷レイクタウン店,埼玉県,139.8224128797894,35.87780018024615,0
2017-03-24,あまバリカフェ,愛知県,136.78463187977124,35.18082978041032,0
2017-03-23,K620,京都府,135.75887577699405,35.00308198045413,0
2017-03-23,Händer,千葉県,139.85985827979104,35.943912080231144,0
2017-03-23,RASMUS KLUMP CAFE,千葉県,140.01099237978804,35.83343218025631,0
2017-03-22,MMCオーガニックカフェ 新横浜駅ビル店,神奈川県,139.61505027977978,35.50770388033191,0
2017-03-19,アロマーズ,福岡県,130.40857747973115,33.589978780828524,0
2017-03-18,治一郎 アスティ藤枝店,静岡県,138.25045187976278,34.8491160804926,0
2017-03-17,Cafe DOG MOFU,愛知県,136.88727818530384,35.17684559786013,0
2017-03-15,カフェ伽羅,千葉県,139.94284111535165,35.71554358018637,0
2017-03-12,E.H BANK （イーエイチバンク）,兵庫県,135.1907944797587,34.686758480533896,0
2017-03-12,リッチタイム★カフェ稲毛店,none,140.09133477978307,35.638022080301255,0
2017-03-11,Nature Trail Cafe. ネイチャ―トレイルカフェ,北海道,141.36085351556153,43.06568447914574,0
2017-03-11,breaq stand,東京都,139.77188381535132,35.700477580189855,0
2017-03-11,ADELE’S CAFE （アデルズ・カフェ）,青森県,140.73545741549418,40.82611067931962,0
2017-03-11,HARBOR’S CAFE 横浜港大さん橋店,神奈川県,139.6454041153448,35.45156118024846,0
2017-03-11,浜田市世界こども美術館ミュージアム･カフェ,島根県,132.0732523153302,34.886420980387236,0
2017-03-10,Cafe Poco a poco,愛媛県,132.77067327973631,33.80538728076856,0
2017-03-08,浜田市世界こども美術館 ミュージアムカフェ,島根県,132.07320397976366,34.8864341804832,0
2017-03-08,カフェ ミンピ 山町店,富山県,137.00756637981235,36.74676928005779,0
2017-03-07,ベビーフェイスプラネッツ 門真店,大阪府,135.61642661532636,34.741104080424186,0
2017-02-25,AKB48カフェ＆ショップ難波店,大阪府,135.50167297975807,34.66486088053949,0
2017-02-23,Herb Kitchen じりりた,北海道,141.34545621556134,43.05612017914636,0
2017-02-19,shakers cafe lounge ハービスENT店,大阪府,135.49228507975894,34.699679680530515,0
2017-02-19,カフェ＆ダイニング プリマベーラ,石川県,136.60698397980633,36.51916168010522,0
2017-02-15,げんちゃんハウス,宮城県,141.14531831542268,38.337686479660995,0
2017-02-12,ベーカリーレストランサンマルク石神井台店,東京都,139.57608651535213,35.73176058018252,0
2017-02-12,ベーカリーレストランサンマルク 大阪たつみ店,大阪府,135.55119562723968,34.640233680449995,0
2017-02-12,ベーカリーレストランサンマルク金沢八景店,神奈川県,139.63443781534198,35.34329668027451,0
2017-02-12,カフェコムサ 南町田グランベリーモール店,東京都,139.47058283582422,35.509339324080265,0
2017-02-12,nagood（ナグッド）,奈良県,135.8227593150895,34.68182798043926,0
2017-02-11,Cafe&Bar for Outdoors Beaver,兵庫県,135.2754600153261,34.727743480427506,0
2017-02-09,カフェデュモンド新百合ヶ丘ショップ,神奈川県,139.50703841534872,35.60308588021255,0
2017-02-09,New York Garden cafe,富山県,137.20959741537757,36.689583379971474,0
2017-02-08,CAFÉ DE ENFANT,静岡県,138.67046491533728,35.160098580319094,0
2017-02-07,ジャーニィ,none,134.2239376797792,35.49401678033515,0
2017-02-06,パンケーキ専門店mg.,大阪府,135.49983287975832,34.67782038053615,0
2017-02-05,Glick Grill （グリックグリル）,香川県,134.06009139157285,34.31011048063189,0
2017-02-05,Conselzarl イオンモール堺北花田店,大阪府,135.51313417975595,34.584470280560154,0
2017-02-02,SEMBA223CAFE,大阪府,135.5017988153248,34.682916680439085,0
2017-01-29,セレブ・デ・トマト 東京ドームシティ店,東京都,139.75249487978482,35.70317238028621,0
2017-01-29,雪ノ下佐野プレミアム・アウトレット,栃木県,139.60173267976154,36.29411098015362,0
2017-01-28,妖怪堂,京都府,135.72928257976676,35.006182480453404,0
2017-01-27,ひつじのショーンカフェ,大阪府,135.50601587975822,34.675468680536824,0
2017-01-27,ひつじのショーン茶屋,京都府,135.75383867954187,34.99692337489952,0
2017-01-24,うまごやカフェ食堂,北海道,141.36003687999613,43.154893179243665,0
2017-01-23,Cafe Bar Lilac,三重県,136.51209077975997,34.74309708051953,0
2017-01-22,Cafe blanc 2,千葉県,140.05398457978708,35.79138778026591,0
2017-01-22,Arch Café,大阪府,135.63499157975974,34.73329398052212,0
2017-01-22,カフェ青山万代店,新潟県,139.05139847984387,37.915101679833384,0
2017-01-21,トトスクキッチン,東京都,139.73281437031966,35.710305487716155,0
2017-01-21,IZACAFE PRIMO,群馬県,139.05852337033656,36.323535898759225,0
2017-01-21,Natural Garden Cafe 芽亜里,滋賀県,135.82857847976751,35.034306880446444,0
2017-01-20,ムーラン,大阪府,135.50658547937257,34.77333848692865,0
2017-01-19,Cafe Rokuto,東京都,139.52062397978554,35.7348406802788,0
2017-01-18,シャ・ノワール・キッチン菜々彩,大阪府,135.61796257975885,34.70249948052979,0
2017-01-18,アンティ・アンズ 二子玉川ライズS.C.店,東京都,139.62533597978236,35.61203028030738,0
2017-01-17,Cafe Walk,熊本県,130.71125477971162,32.79544568105965,0
2017-01-17,カフェ コンコルド,静岡県,137.70528877975912,34.70527368052921,0
2017-01-14,マサカフェ,東京都,139.70708857978394,35.673078880293104,0
2017-01-14,マトリョーシカ 新宿マルイ店,東京都,139.70375207978427,35.690126780289155,0
2017-01-13,カフェ&バー CHARACRO池袋店,東京都,139.7137444797855,35.73266718027947,0
2017-01-10,神戸屋シルフィー 天王寺ミオ店,大阪府,135.51165007975746,34.64733108054395,0
2017-01-10,a la campagne たまプラーザテラス店,神奈川県,139.5563744797816,35.57783978031532,0
2017-01-10,Hawaiian Pancake Factory イオンモール広島府中店,広島県,132.49704907975115,34.394906180609574,0
2017-01-08,カフェデュモンド 茶屋町,大阪府,135.50035296945273,34.70604468052887,0
2017-01-07,神戸屋キッチン 錦糸町店,東京都,139.8122188797844,35.69642998028773,0
2017-01-07,キャッスル・ハウス,秋田県,140.1182627798945,39.71779497955314,0
2017-01-04,カフェ コムサ 仙台エスパル店,宮城県,140.87984181542063,38.259097179674086,0
2017-01-01,ひだまり,京都府,135.7384033797673,35.031047380447056,0
2017-01-01,CafeMUJI京王聖蹟桜ヶ丘,東京都,139.44485277978345,35.65135168029825,0
2016-12-30,芦屋CAFE LaBo イオンモール宮崎店,宮崎県,131.4531323796908,31.92286228133013,0
2016-12-30,芦屋CAFE Labo トレッサ横浜店,神奈川県,139.64395307978003,35.524202980328106,0
2016-12-30,Auberge Leo Soleil（オーベルジュ レオソレイユ）,岡山県,134.17173377975698,34.62933328054857,0
2016-12-29,猫カフェ くるるん,静岡県,138.37600997976602,34.975778580460855,0
2016-12-29,カフェ アタゴ,埼玉県,139.3841941797882,35.83523228025587,0
2016-12-29,カイザーベルク阿蘇,熊本県,131.0429589796687,32.92405698102133,0
2016-12-27,カフェ・ラ・フロール・ノンノン,熊本県,130.70606087981923,32.80089118105805,0
2016-12-27,room deli cafe,愛知県,136.9378670798758,35.179970380410644,0
2016-12-27,Cafe BONNE CHANCE,沖縄県,124.13000417964784,24.355727084371377,0
2016-12-26,solid and liquid TENJIN,福岡県,130.39801417974778,33.59013278082857,0
2016-12-26,A971,東京都,139.72858337980003,35.66499798029502,0
2016-12-24,cafe La Porte Rouge,千葉県,140.10473027953066,35.792277131578516,0
2016-12-24,cafe BOOST,茨城県,140.4153978795454,36.375088199311065,0
2016-12-21,イズマイ,東京都,139.77890737939668,35.69381343698678,0
2016-12-19,Cafe de RocoMoco,福岡県,130.5231718793351,33.28839946513595,0
2016-12-19,Cafe Bohem Tanya,東京都,139.7260476793965,35.688205437294414,0
2016-12-17,オートレストラン長島,三重県,136.7194732793799,35.05764767162152,0
2016-12-17,長渕剛オフィシャルカフェRock On,東京都,139.66783047939444,35.612204141459316,0
2016-12-17,Cafe Little Hands,山梨県,138.43407147940306,35.9287933240601,0
2016-12-17,カフェブレーク 千里中央セルシー店,大阪府,135.4937553149376,34.80878468493003,0
2016-12-17,KAIONA TOKYO,東京都,139.71032551496003,35.6589766388002,0
2016-12-16,AMT café 吉祥寺店,東京都,139.57691507939708,35.705365336353,0
2016-12-13,ヨーヨーキッチン！,愛媛県,132.7659583793488,33.838592536501444,0
2016-12-13,ピーターラビットカフェ 町田モディ店,東京都,139.44299867939267,35.543266345230776,0
2016-12-12,カフェ スーク （cafe Souk & dining kitchen）,三重県,136.60678067937758,34.96585497657533,0
2016-12-11,純喫茶リエール,和歌山県,135.16800317935756,34.188182818097054,0
2016-12-10,mori cafe,愛知県,136.873644879384,35.214164863149406,0
2016-12-10,茶の愉 吉祥寺店,東京都,139.57465967939703,35.706295736301925,0
2016-12-10,玉屋珈琲店,静岡県,137.77992237937175,34.74143598863965,0
2016-12-10,猫三昧,東京都,139.79260287939718,35.71271633594956,0
2016-12-09,caffa q,栃木県,139.61598867942507,36.74742997846678,0
2016-12-08,treetop(ツリートップ),京都府,135.77533537937833,34.99942247476509,0
2016-12-06,モンスーンカフェ 麻布十番店,東京都,139.7327227793958,35.65644743903569,0
2016-12-06,パインツリーブレス 久茂地店,沖縄県,127.67741487917999,26.21597519612812,0
2016-12-05,Green House Cafe （グリーンハウスカフェ）,兵庫県,135.04329397937306,34.79547748574048,0
2016-12-05,野菜カフェ まめはな,愛知県,136.9688198793802,35.066308271153666,0
2016-12-05,EARLY BIRD COFFEE,埼玉県,139.72346717940076,35.846291528606855,0
2016-12-05,LoLo Stile (ロロスティーレ),愛知県,137.01992997938328,35.183777464796826,0
2016-12-05,café de PERRINE (カフェ ド ペリーヌ),東京都,139.50385677939673,35.69814443674921,0
2016-12-04,ニコノカフェ,大阪府,135.50167997936643,34.530390899924235,0
2016-12-04,トラヤカフェ表参道ヒルズ店,東京都,139.70664937939597,35.66715253844885,0
2016-12-04,トラヤカフェ六本木ヒルズ店,東京都,139.72697057939567,35.658863538903155,0
2016-12-04,cochonnet,福岡県,130.87067877934862,33.835183236680066,0
2016-12-02,DECO,兵庫県,135.2766841794915,34.728160380523214,0
2016-11-27,カノビアーノカフェ,東京都,139.72798417951873,35.667455180294354,0
2016-11-27,松涛カフェ Bunkamura店,東京都,139.69342087951844,35.66109658029598,0
2016-11-26,cochonne,福岡県,130.87230689144164,33.8351620807602,0
2016-11-24,カフェレストラン エーデルワイス,岩手県,141.19903957948765,38.967718650501574,0
2016-11-21,サニーサイド Natural & Healthy Cafe,沖縄県,125.27905177915342,24.78723785437135,0
2016-11-18,robin,奈良県,135.82666127949005,34.680293580535384,0
2016-11-18,カフェ食堂 DEUX coleurs,宮城県,140.87762527959705,38.25649067977422,0
2016-11-17,PRONTO 虎ノ門店,東京都,139.74789347951878,35.66989718029395,0
2016-11-15,ベーカリーレストランサンマルク立川店,東京都,139.4302395793974,35.72001823554874,0
2016-11-15,WITCH CAFE,新潟県,139.10483887945838,37.946118410155584,0
2016-11-14,旬菜 Dining Bar cub,東京都,139.7043111796171,35.66961153831353,0
2016-11-13,SEVEN PEACE CAFE,千葉県,139.92724677939918,35.789151731750735,0
2016-11-12,カフェ バー 鈍色,広島県,132.33455717936184,34.35425050929762,0
2016-11-12,LA’NANSHi ANESAMEGoi,新潟県,139.0586723794574,37.9111478121743,0
2016-11-12,atta cafe,静岡県,137.66820437937204,34.75467938792946,0
2016-11-09,Cafe One,愛知県,136.96214367938254,35.16045786606028,0
2016-11-07,トレインカフェ,千葉県,140.1241939793973,35.71949573557739,0
2016-11-04,cafe cosmonaute （カフェ コスモノート）,愛知県,136.95973517938268,35.1655581657839,0
2016-11-03,Sports cafe YELL,青森県,141.48843737953302,40.509952157990135,0
2016-11-02,ベーカリーレストランサンマルク 豊中桜塚店,大阪府,135.47166767662122,34.775129286832495,0
2016-11-01,ちびっこ共和国 ひまわりキッチン,静岡県,138.26697201494045,34.91751977908331,0
2016-10-30,豆時計カフェ in Pocket,栃木県,139.80376831497776,36.31572510252051,0
2016-10-29,レストランシャクナゲ藤岡店,群馬県,139.076163614976,36.24929540621557,0
2016-10-28,Paradise Café,愛知県,136.89362241494263,34.997605874766876,0
2016-10-25,カフェ・竜,埼玉県,139.63361921497213,36.10821521404402,0
2016-10-23,UMIHICO,長崎県,129.94344331503538,33.01311367921697,0
2016-10-21,ME ME ME,東京都,139.69428181220087,35.66348293855319,0
2016-10-20,base2.5,大阪府,135.49659651493414,34.67222529225098,0
2016-10-19,カサ ラ ティーダ,沖縄県,127.80007781474677,26.43736268675648,0
2016-10-18,Soy+CAFE,滋賀県,136.2492311149462,35.13344016742679,0
2016-10-17,Bond Cafe Kitchen,三重県,136.55021971494222,34.982624875574956,0
2016-10-16,ル・コントワール,北海道,140.71777901513698,41.76252668061832,0
2016-10-15,Cafe otto,広島県,132.46392501519935,34.392655180514666,0
2016-10-14,Cafe Creperie Rateau 名鉄百貨店,愛知県,136.8817794151177,35.16958056546932,0
2016-10-14,咲花カフェ,東京都,139.80920331513093,35.70935583603659,0
2016-10-13,Kitchen & Cafe ルミユカ,京都府,135.74972511521148,35.06823488034178,0
2016-10-13,カフェブルー マルヤマクラス店,北海道,141.31611791545103,43.055152279146334,0
2016-10-12,雪ノ下 横浜中華街,神奈川県,-1,-1,0
2016-10-11,ANALOG SHIBUYA,東京都,139.69767311504805,35.66325083856567,0
2016-10-11,カフェ ソラノトリ,長崎県,129.7800020149784,32.82601678879295,0
2016-10-09,プロント亀戸店,東京都,139.82405061504892,35.69788803666609,0
2016-10-08,cafe&bar haru,北海道,141.34322911525703,43.05399589898774,0
2016-10-08,カフェデュモンド池袋スパイス2店,東京都,139.70686451504983,35.72964813492283,0
2016-10-08,海中市場,福岡県,130.35563431499818,33.65068754623184,0
2016-10-08,pirka cafe,東京都,139.50390161504905,35.70201593643959,0
2016-10-07,mogoon ららぽーと立川立飛店,東京都,139.4152572150494,35.71269043585375,0
2016-10-07,yurucafe (ユルカフェ),東京都,139.72899891504946,35.71107953594228,0
2016-10-07,gooz 武蔵小杉店,神奈川県,139.65488771504593,35.575827343353204,0
2016-10-06,はんだづけカフェ,東京都,139.76862251504923,35.70421743631881,0
2016-10-05,Cafe Rovinj,滋賀県,135.9145718150348,35.13820586716863,0
2016-10-04,cielo azul cafe,静岡県,138.3850229150307,34.97617517592251,0
2016-10-04,The Higher green tea’s 名古屋泉店,愛知県,136.9100417150357,35.174286365214556,0
2016-10-02,エスカフェダイニング下北沢店,東京都,139.66405931534476,35.662676080198665,0
2016-10-02,UCHI,神奈川県,139.56155711503942,35.324615057054935,0
2016-10-02,PRONTO亀戸駅店,東京都,139.82402311504904,35.69786633666724,0
2016-10-02,カフェデュモンド 池袋スパイス2,東京都,139.70684171504993,35.72961983492441,0
2016-10-01,Ｃａｆｅ＆Ｍｅａｌ ＭＵＪＩあべのａｎｄ,大阪府,135.51158217945775,34.64424779384335,0
2016-09-30,パルファン 博多の森店,福岡県,130.45287997943217,33.59767134908973,0
2016-09-30,cafe ease,広島県,132.4589591150161,34.39026820728874,0
2016-09-30,カフェ コムサ そごう柏店,千葉県,139.97024467975012,35.8632089802494,0
2016-09-24,Body Balance Restaurant mu-MU西新宿店,東京都,139.69042787955289,35.6914162371179,0
2016-09-24,Paella de Oroパエージャ・デ・オーロ,福岡県,130.35301987950277,33.59022294947751,0
2016-09-23,mog 京都三条店,京都府,135.76806117966277,35.009160680452524,0
2016-09-22,ベーカリーレストランサンマルク宇都宮八幡台店,栃木県,139.88572042702415,36.575041279995446,0
2016-09-22,青山ダイヤモンドホール,東京都,139.70935311515785,35.66522868019802,0
2016-09-22,This Is Cafe 牧之原本店,静岡県,138.24194111504482,34.7578470876635,0
2016-09-20,ティ・ロランド松濤店,東京都,139.69179501504814,35.65950413877105,0
2016-09-19,なぞともカフェ六本木店,東京都,139.7316347150481,35.66227383861927,0
2016-09-19,なぞともカフェ428（シブヤ）店,東京都,139.69848571504818,35.6631127385733,0
2016-09-18,オーガニックハウス コピス吉祥寺店,東京都,139.57733357939685,35.70470713638914,0
2016-09-17,cafe fuuno,沖縄県,127.72570887926294,26.272353593768745,0
2016-09-16,Double Tall Cafe 札幌Pivot店,北海道,141.3500217154732,43.05813777914614,0
2016-09-15,PEPESO CAFE,北海道,143.19929947984508,42.906409679256086,0
2016-09-13,知るカフェ近畿大学前店,大阪府,135.58391241506783,34.651570393355954,0
2016-09-12,雪ノ下工房,大阪府,135.50080501510368,34.70160578043424,0
2016-09-11,シェルブール八戸店,青森県,141.4878143152799,40.510386979354315,0
2016-09-11,カフェダイニングaim LINE,北海道,140.7292434799037,41.80321657933001,0
2016-09-11,雪ノ下 立川,東京都,139.4141516797287,35.70296128028614,0
2016-09-10,シャ・ノワール吉田店,大阪府,135.6238068763709,34.6844912351507,0
2016-09-09,カフェ コモド CAFE comodo,愛知県,136.9001660795275,35.16067786604806,0
2016-09-02,ル・カフェ・ドトール銀座 仙台広瀬通り一番町店,宮城県,140.8690433151483,38.26219549173925,0
2016-08-28,サンマルク 練馬光が丘店,東京都,139.6344936152055,35.75606978017686,0
2016-08-27,カフェダッキーダック アリオ橋本店,神奈川県,139.34906361512188,35.59055444254734,0
2016-08-27,トラベルカフェ博多グリーンホテル天神店,福岡県,130.39123981507416,33.58992294939889,0
2016-08-27,CAFE&DELI  IL  PONTE,茨城県,140.11051971513405,36.081654515514785,0
2016-08-26,トラベルカフェ日本旅行横浜店,神奈川県,139.63591387953466,35.44831715041475,0
2016-08-26,アニマックスCAFE 大阪日本橋店,大阪府,135.5030123150994,34.66036489288536,0
2016-08-21,ベーカリーレストランサンマルク 佐賀開成店,佐賀県,130.27062451506652,33.26448336627733,0
2016-08-20,Café ぐぅぐぅ,新潟県,138.84841391516895,37.44601483877907,0
2016-08-20,雪ノ下 静岡,静岡県,138.42071431510706,34.982343575589866,0
2016-08-19,Cafe&Meal MUJI 南青山,東京都,139.71033481525237,35.66192428019879,0
2016-08-07,ベビー モンシェール カフェ 越谷レイクタウン店,埼玉県,139.828576,35.882097,0
2016-08-06,aere cafe,大阪府,135.47540491510242,34.78681398610931,0
2016-08-04,ヴィ・ド・フランス カフェ 秋葉原駅前店,東京都,139.77254801512456,35.698794036616185,0
2016-08-02,ガンダムカフェ 東京駅店,東京都,139.768312,35.68170399999999,0
2016-07-30,なないろカフェ アリオ上田店,長野県,138.24190767957649,36.39951729794893,0
2016-07-30,ベーカリーレストランサンマルク 鴻池店,大阪府,135.60324767953486,34.696864391027454,0
2016-07-23,東京24区イオンモール木更津店,千葉県,139.90645067955097,35.36545135492949,0
2016-07-23,お茶とお菓子 横尾,東京都,139.57367267955934,35.70501533637181,0
2016-07-20,わくわく×モグモグ×キッチン Shu,沖縄県,127.73260867974365,26.417921983424822,0
2016-07-16,cafe Me・terre（カフェ ミ・テール）,三重県,136.50705767953568,34.73174438915875,0
2016-06-25,神戸屋シルフィーグランアージュ 丸の内店,東京都,139.76472867955857,35.67807533784969,0
2016-06-23,パブレストラン 絹,神奈川県,139.6430366795529,35.447312350469474,0
2016-06-21,神戸屋シルフィー グランアージュ丸の内店,東京都,139.76476867955859,35.67806233785043,0
2016-06-20,TeTeS 西麻布店,東京都,139.720839679558,35.659965338842625,0
2016-06-18,THE FLOWER APARTMENT CAFE,神奈川県,139.64127767969467,35.45214135020579,0
2016-06-12,cafe あおば,東京都,139.48082967955844,35.67101233823698,0
2016-05-22,beco cafe,東京都,139.59685367952852,35.704733336387434,0
2016-05-21,ヒーリングヴィラ印西,千葉県,140.1641676795311,35.80537633085806,0
2016-05-18,PRONTO 所沢東口店,埼玉県,139.47172267953053,35.78612033191707,0
2016-05-16,雪ノ下 町田,東京都,139.44564731508981,35.54157834522601,0
2016-05-16,カフェレストラン 千曲川,東京都,139.71766731509535,35.76154333317079,0
2016-05-15,京都ヒトマナビカフェ,京都府,135.75623431507654,35.00386837442874,0
2016-05-10,ベーカリーレストランサンマルク 春日部店,埼玉県,139.74239567953518,35.96766332191466,0
2016-05-07,雪ノ下千葉稲毛店,千葉県,140.12552767952735,35.65767633896801,0
2016-04-24,森のBe-cafe,滋賀県,136.04391667953107,35.05222137191445,0
2016-04-20,Cafe Dining Calmo上尾店,埼玉県,139.60052567955404,35.98140032115595,0
2016-04-17,ドッグランカフェNORCS,東京都,139.5859446795483,35.75667733353511,0
2016-04-17,勉強カフェ渋谷北参道スタジオ,東京都,139.70554167954631,35.67703233790697,0
2016-04-11,うさぎカフェ Ra.a.g.f 自由が丘店,東京都,139.66678367969087,35.60889598030815,0
2016-04-10,資生堂パーラー汐留店,東京都,139.7584786796923,35.664357980295165,0
2016-04-10,オムチャントーン,東京都,139.78085667969302,35.687922980289684,0
2016-04-10,カフェモロゾフ 京阪百貨店すみのどう店,大阪府,135.61812731523258,34.708908980432426,0
2016-04-03,BLUE SKY カフェテリア,千葉県,140.38983967969546,35.77580798026949,0
2016-04-03,ブールブラン,兵庫県,135.1845236796661,34.68641898053387,0
2016-03-31,Autumn Leaf秋葉原店,東京都,139.77000067958303,35.70214833652902,0
2016-03-28,FAAM cafe,福岡県,130.4035626795336,33.595030449227075,0
2016-03-28,みやぎフードキッチン CocoRon 産直レストラン,宮城県,140.8700176796472,38.25936519200327,0
2016-03-28,Hanakahi,静岡県,138.38739017030593,34.9751310976814,0
2016-03-28,スエッコカフェ & ダイニング,神奈川県,139.57788167957324,35.29684935866037,0
2016-03-28,NORTH SIDE CAFE,東京都,139.66453667958206,35.6626833386934,0
2016-03-28,OnEdrop cafe,東京都,139.77565867958282,35.69314333702312,0
2016-03-21,カフェラカム 彩菓房,東京都,139.63359267982233,35.7048389802858,0
2016-03-20,ブロードカフェ,愛知県,136.91075567980832,35.15139098041762,0
2016-03-19,カフェ・ニューギニ,東京都,139.25102067982436,35.7870349802669,0
2016-03-19,雪ノ下名古屋店,愛知県,136.89858767980863,35.16915698041314,0
2016-03-17,カフェ蔵,山形県,140.1477506798909,38.30123497976658,0
2016-03-15,サンジェルマン恵比寿店,東京都,139.7110066798207,35.643270980300045,0
2016-03-13,チーズレストランDAIGOMI池袋,東京都,139.70959667974668,35.733802980279165,0
2016-03-13,ペストリー＆カフェ「STAR26」,福岡県,130.42473367969117,33.58915598082891,0
2016-03-13,レストラングリーン,埼玉県,139.0985146797545,36.02995298021183,0
2016-03-13,Cafe&Gallery SACHICAFE,三重県,136.58729967972323,34.84296598049416,0
2016-03-10,サンシャインカフェ,京都府,135.7652946797274,35.008764980452646,0
2016-03-10,ask a giraffe,京都府,135.75805167972752,35.00948398045249,0
2016-03-07,日比谷公会堂アーカイブカフェ,東京都,139.75321467955223,35.67150033821029,0
2016-03-06,Ａdagio（アダージョ）,静岡県,138.88861067953894,35.12392836803751,0
2016-03-06,ふくしまオルガン堂下北沢,東京都,139.66470667955195,35.65386933917658,0
2016-03-06,べっぴん食堂 ココカラ,京都府,135.75896967953625,35.01300837403176,0
2016-03-05,KUA`AINAイオンモール沖縄ライカム店,沖縄県,127.79374267935411,26.31423679201307,0
2016-03-05,カフェ＆レストラン スター・アイル大阪歴史博物館店,大阪府,135.51862167952837,34.682745391783335,0
2016-03-05,ロゴスキー (名古屋),愛知県,136.88371267954028,35.17110136548335,0
2016-03-03,下北沢FREE FACTORY,東京都,139.66632667955207,35.6610563387827,0
2016-03-02,下北沢FREE FACTORY,東京都,139.66632567958197,35.66106733878209,0
2016-03-02,P.style 西大井駅店,東京都,139.7196856795806,35.60190434202294,0
2016-02-27,レストラン サクラハウス,長崎県,129.86767467951455,32.74635649294851,0
2016-02-26,BOGART’S CAFE 原宿 表参道店,東京都,139.70168567958214,35.665412338543895,0
2016-02-22,ベッカーズ秋葉原,東京都,139.7704293152713,35.69776098019041,0
2016-02-17,PEN STATION Museum & Café,東京都,139.7682913152941,35.67687698019525,0
2016-02-17,Culfe,静岡県,138.37838531527547,34.975658980364685,0
2016-02-16,Rozetta Cafe,大阪府,135.49572731526732,34.671744980441886,0
2016-02-14,SALU SALLUZA cafe terraza,北海道,141.34324431551167,43.09820097914415,0
2016-02-14,にんにく屋五右衛門福岡キャナルシティ店,福岡県,130.40851131523928,33.59059198073399,0
2016-02-13,不二家沼津駅ビル店,静岡県,138.8573266797126,35.10268698042949,0
2016-02-12,カフェ チャオプレッソ 近鉄刈谷パーキングエリア店,愛知県,137.04635467971093,35.04068398044479,0
2016-02-07,はらドーナッツ パセオ札幌店,北海道,141.35066217999346,43.06929487924796,0
2016-02-07,ブラザーズカフェテリア南船場店,大阪府,135.50396267970135,34.67704598053633,0
2016-02-06,クラブツーリズムカフェ 練馬店,東京都,139.64866467972956,35.7372309802784,0
2016-02-06,カフェ・ハイチ 新宿二号店,東京都,139.6945696797283,35.68733598028981,0
2016-02-05,サラベス代官山店,東京都,139.7006926797273,35.647708980299115,0
2016-02-05,アンダンテ,福岡県,130.54757167967867,33.792682980771964,0
2016-02-05,マンゴツリーカフェ仙台,宮城県,140.87937767979938,38.26193897977319,0
2016-02-04,ほわわカフェ,東京都,139.5959186797285,35.69888098028715,0
2016-02-03,Café Klavier カフェ クラビーア,千葉県,140.0201036797281,35.68598798029022,0
2016-01-30,CAFE buffo,兵庫県,135.18840267958845,34.69656539104331,0
2016-01-27,フラッグスカフェ グランデュオ立川店,東京都,139.41246767961215,35.69749033678459,0
2016-01-24,kimama cafe ピクニック,新潟県,139.0395166796943,37.9186242117424,0
2016-01-24,ブルガリア料理ザゴリエ,東京都,139.71339967963695,35.54977034487468,0
2016-01-24,ホロン イオンモール太田店,群馬県,139.39847267965465,36.29470430378752,0
2016-01-22,89cafe １号店,大阪府,135.50376156943702,34.707714390446085,0
2016-01-20,オーシャンテラス新産店,新潟県,138.7889063152489,37.441029239063695,0
2015-12-06,Hawaiian7Style,愛知県,137.4282783153267,34.75187198042139,0
2015-12-06,カフェフロッグ,茨城県,139.98286431535726,35.93001198013713,0
2015-12-06,KTM Cafe,東京都,139.70303531535038,35.66676198019773,0
2015-11-30,金沢ブランチD5,石川県,136.65034331537467,36.57665697999525,0
2015-11-30,アンユ アンド リリー,宮城県,140.87011731542052,38.25800697967448,0
2015-11-30,ふれあいの場 しっぽ,千葉県,139.96831431535554,35.86118598015279,0
2015-11-30,beegle cafe,滋賀県,135.89030931533276,34.991076980361,0
2015-11-30,古民家カフェはちどり,愛知県,137.49941631533048,34.903012980383096,0
2015-11-30,カフェ ピノ,愛知県,136.9803543153397,35.25900998029496,0
2015-11-29,cafe＆kitchen OAK,滋賀県,136.01094631533405,35.036892980349464,0
2015-11-29,L⇔R cafe,京都府,135.76503431533325,35.00776298035666,0
2015-11-29,カフェ・ココロバ,埼玉県,139.62735831535684,35.90934898014173,0
2015-11-29,レストランなごみ処駿河亭,静岡県,138.43292631533262,34.98479198036246,0
2015-11-29,Oyatsu＋ オヤツプラス,高知県,133.56037331529686,33.56731798074053,0
2015-11-25,アニメイトカフェ福岡天神店,福岡県,130.39788731519684,33.590780980733896,0
2015-11-15,スタンダードブックストアカフェもりのみや,大阪府,135.52813367960553,34.680729391891,0
2015-11-15,HAPPY STYLE 川口店,埼玉県,139.71323267963177,35.8019193310482,0
2015-11-14,CAFE & BAR下北沢FLAT,東京都,139.66491167962826,35.664308338604414,0
2015-11-08,ネザーランド・カフェ,北海道,141.00409567983985,43.18871489046147,0
2015-11-07,レストラン栗の木,神奈川県,139.478188679644,35.607744341703125,0
2015-11-03,睦月うつわギャラリー&カフェ,東京都,139.7361666798055,35.700296336630316,0
2015-10-31,YEAST PARADISE+ イーストパラダイス プラス,愛知県,137.03210331520143,35.15575898032021,0
2015-10-31,Cafe Quone,宮城県,140.86089631529038,38.26223697967366,0
2015-10-31,ハワイアン・マハロカフェ 高針店,愛知県,136.99274631520123,35.14591098032257,0
2015-10-31,ハワイアン・マハロカフェ 昭和橋店,愛知県,136.8694313152005,35.12478198032779,0
2015-10-31,ハワイアン・マハロカフェ 名駅広小路店,愛知県,136.8867473152018,35.16868798031697,0
2015-10-25,F.O.B COOP 広尾本店,東京都,139.7203303152152,35.65342398020069,0
2015-10-21,のらいぬcafe,新潟県,138.24289131528354,38.03528697971291,0
2015-10-20,HAVANA CAFE,東京都,139.72957331521553,35.66467298019811,0
2015-10-20,café Agartha,岩手県,141.14697931533362,39.70047197945481,0
2015-10-18,KEYUCA CAFE  エキュート立川店,東京都,139.41105631511863,35.69734498019057,0
2015-10-12,sweets+cafe NICO,福岡県,130.55664931506044,33.399847980788444,0
2015-10-10,Cafe de JiJi,愛知県,137.38888631509812,34.74427098042339,0
2015-09-30,煎豆茶亭 こうひいてい,長野県,138.117479,36.04617,0
2015-09-30,月こころ,茨城県,139.86399200000002,36.295187000000006,0
2015-09-30,アロハキッチン 成田店,千葉県,140.316679,35.781041,0
2015-09-30,sui-table スイテーブル,東京都,139.68420600000002,35.655906,0
2015-09-30,よしむらカフェ,香川県,133.814102,34.313637,0
2015-09-30,カフェ・ダイアン神楽坂,東京都,139.730857,35.703874,0
2015-09-30,GREEN Kitchen,滋賀県,135.926086,34.987145999999996,0
2015-09-30,サラダの店まごはち,愛知県,136.817364,35.200499,0
2015-09-27,チェンカフェ,東京都,139.708205,35.669446,0
2015-09-27,北沢一丁目カフェ,東京都,139.672274,35.661978999999995,0
2015-09-26,ごはんカフェ Mare,長野県,137.91333,36.223872,0
2015-09-26,カフェ ぐらんたす,大阪府,135.495667,34.687053999999996,0
2015-09-23,こりすカフェ,和歌山県,135.172667,34.23392400000001,0
2015-09-23,サンマルク 山手台店,神奈川県,139.527153,35.425845,0
2015-09-23,富岡チャン,群馬県,138.89146599999998,36.25649,0
2015-09-20,hatakenowa・畑の環,佐賀県,129.900889,33.191658,0
2015-08-31,西洋料理 テラスレストラン,東京都,139.744183,35.667001,0
2015-08-31,カフェ かまくら七（なな）,神奈川県,139.56026500000002,35.323663000000046,0
2015-08-31,T-PARK CAFE,埼玉県,139.612021,35.789792999999996,0
2015-08-31,FRAMES 渋谷店,東京都,139.698383,35.661426,0
2015-08-30,アトリエ・ド・ウフレ,東京都,139.80508300000002,35.67753500000002,0
2015-08-30,パティスリーカフェ　ウフレ,東京都,139.79756799999998,35.671833,0
2015-08-30,airs burger cafe,神奈川県,139.69535299999998,35.532819,0
2015-08-30,カランコロン,栃木県,139.915692,36.551038999999996,0
2015-08-29,空想特撮CAFE BAR つぶらノ森,北海道,141.356003,43.054497,0
2015-08-25,ジョイカフェ,岩手県,141.155858,39.699445999999995,0
2015-08-23,銀座ライオン 武蔵の杜カントリークラブ店,埼玉県,139.271025,35.978197,0
2015-08-23,caffe beanDaisy,神奈川県,139.61748200000002,35.46322,0
2015-08-23,DINER TOMMY EMPIRE,福井県,136.195998,35.942701,0
2015-08-21,ミルクの旅 ミント神戸店,兵庫県,135.196089,34.694472999999995,0
2015-08-16,ル・バタクラン,兵庫県,135.19603,34.694466,0
2015-08-16,レストランふぁみぃる まつ家,福島県,140.399508,37.549141,0
2015-08-16,海鮮居酒屋 おおーい北海道 すすきの店,北海道,141.354544,43.055433,0
2015-08-16,ロコズキッチン,東京都,139.705143,35.730871,0
2015-08-16,四六時中 イオン盛岡店,岩手県,141.09936700000006,39.711272000000015,0
2015-08-16,イタリアン・トマトカフェジュニア イオンモール橿原店,奈良県,135.76322000000002,34.507138,0
2015-08-15,薬剤師カフェ ヴィタ銀座本店,東京都,139.7643,35.668959,0
2015-08-09,かーちゃんふるさと農園わぃわぃ,福島県,140.463257,37.753604,0
2015-08-02,シェアードテラス 外苑いちょう並木,東京都,139.719518,35.673230000000004,0
2015-07-31,FLAGS Cafe グランデュオ 蒲田店,東京都,139.715705,35.562490999999994,0
2015-07-31,イタリアントマト カフェ ジュニア 西新プラリバ店,福岡県,130.360134,33.583629,0
2015-07-31,フラリバール平川店,山口県,131.463498,34.15363,0
2015-07-31,ハナジャム 西新店,福岡県,130.360134,33.583629,0
2015-07-31,カフェあにょ,福岡県,130.360134,33.583629,0
2015-07-31,白壁もやい 風の家,愛知県,136.91275,35.182783,0
2015-07-31,スフレ専門店 六盛茶庭,京都府,135.780195,35.016166999999996,0
2015-07-31,マウイマイクス 白山店,東京都,139.75193299999998,35.722304,0
2015-07-31,Cafe Chameau,兵庫県,135.190009,34.695547,0
2015-07-31,千疋屋 ルミネ荻窪パーラー店,東京都,139.61969,35.70462799999999,0
2015-07-31,CAFE 茶蘭花,大阪府,135.502669,34.662602,0
