Date,ShopName,Prefecture,longitude,latitude,Open
2021-11-11,さかい珈琲 大和高田店,奈良県,135.732921215679,34.493689101783744,1
2021-11-11,珈琲所コメダ珈琲店 セブンパーク天美店,大阪府,135.54126747048537,34.59297553735473,1
2021-11-11,スターバックスコーヒー尾道高須店,広島県,133.23488531567807,34.43305700501189,1
2021-11-10,むさしの森珈琲 相模原横山店,神奈川県,139.3619757156976,35.56797824378129,1
2021-11-09,カフェ・ド・クリエ 大垣西インター店,岐阜県,136.5884478908684,35.377854805810145,1
2021-11-08,POP BY COFFEE,石川県,136.64461121571512,36.56460868862458,1
2021-11-08,Whim Coffee Stand (ウィムコーヒースタンド),東京都,139.64837581569998,35.70611573621338,1
2021-11-06,KROOME COFFEE,大阪府,135.486338515682,34.66955229239258,1
2021-11-03,スターバックスコーヒー セブンパーク天美店,大阪府,135.54176082925076,34.59236240279253,1
2021-11-02,スターバックスコーヒー京王笹塚店,東京都,139.66531603192996,35.67361680728281,1
2021-11-02,ドトールコーヒーショップ 横須賀中央駅前店,神奈川県,139.6686726156924,35.27932215951516,1
2021-11-01,ぱんだこーひー,岡山県,133.94109891568212,34.67132289229778,1
2021-10-30,さかい珈琲 大安寺店,奈良県,135.817802017649,34.66684353768813,1
2021-10-29,スターバックスコーヒー岡山平井店,岡山県,133.95033752367297,34.63382054859189,1
2021-10-28,Z/X coffee 高岳店,愛知県,136.91695531569079,35.17382046523835,1
2021-10-27,タリーズコーヒー アリオ加古川店,兵庫県,134.8496352926396,34.72818017798257,1
2021-10-27,Single O Hamacho,東京都,139.78875882925195,35.68410718806823,1
2021-10-27,星乃珈琲店 道頓堀店,大阪府,-1,-1,1
2021-10-27,珈琲所コメダ珈琲店 高崎飯塚店,群馬県,139.0065427157112,36.34117480110208,1
2021-10-27,猿田彦珈琲 名古屋 則武新町店,愛知県,136.8777393156908,35.179988364904176,1
2021-10-25,スターバックスコーヒー岡崎針崎店,愛知県,137.15035844411676,34.91840076000652,1
2021-10-22,珈琲所コメダ珈琲店 プラットモール長崎店,長崎県,129.86223646295994,32.770137825285474,1
2021-10-20,スターバックスコーヒー フルルガーデン八千代店,千葉県,140.1171758250341,35.722049036997106,1
2021-10-20,スターバックスコーヒー名古屋則武新町2階店,愛知県,136.87852145828376,35.17949533738603,1
2021-10-20,スターバックスコーヒー名古屋則武新町1階店,愛知県,136.87852145828376,35.17949533738603,1
2021-10-19,星乃珈琲店 那覇オーパ店,沖縄県,127.67800596231818,26.211668683741323,1
2021-10-17,CHIMNEY COFFEE 渋谷本店,東京都,139.6983698156991,35.656918938911446,1
2021-10-15,スターバックスコーヒー イーアス春日井店,愛知県,136.9818848041637,35.25889760681924,1
2021-10-14,珈琲家暖香 一宮木曽川店,愛知県,136.77687641569344,35.33675265639335,1
2021-10-14,SWELL COFFEE ROASTERS（スウェル コーヒー ロースターズ）,東京都,139.6970382156988,35.64691053946007,1
2021-10-13,ハワイ カウコーヒー JR大宮駅店,埼玉県,139.62437852925225,35.90634298502259,1
2021-10-10,FREAK COFFEE ROASTERS,愛知県,137.01740281569096,35.18320366473017,1
2021-10-08,珈琲所コメダ珈琲店 ダイエー武蔵村山店,東京都,139.3767110157005,35.735707334589044,1
2021-10-07,タリーズコーヒー ＆TEA水戸エクセル店,茨城県,140.47437321619284,36.37132294642823,1
2021-10-03,ドトールコーヒーショップ 城南信用金庫瀬谷店,神奈川県,139.4810051145638,35.470118470210956,1
2021-10-01,珈琲所コメダ珈琲店 東池袋一丁目店,東京都,139.7137865157003,35.7292232349449,1
2021-10-01,スターバックスコーヒー阪神梅田本店 9階店,大阪府,135.4968846019544,34.70102782106016,1
2021-10-01,スターバックスコーヒー阪神梅田本店 地下2階店,大阪府,135.4968846019544,34.70102782106016,1
2021-10-01,THE SMOKIST COFFEE  新宿御苑前店,東京都,139.70799021569945,35.68917653714282,1
2021-09-30,フグレン羽根木公園,東京都,139.6542852292358,35.65680908844127,1
2021-09-30,HARIO CAFE 泉屋博古館東京店,東京都,139.74084294829308,35.665596557149556,1
2021-09-30,UNI COFFEE ROASTERY 大船店,神奈川県,139.5325238292355,35.35342209257001,1
2021-09-29,星乃珈琲店 東戸塚店,神奈川県,139.55618799998805,35.42957373710642,1
2021-09-27,THE SMOKIST COFFEE新宿御苑前店,東京都,139.70957482925192,35.689178887998935,1
2021-09-27,カフェ・ド・クリエ 流山アルコテラス店,千葉県,139.89159261436643,35.898981846127896,1
2021-09-27,珈琲所コメダ珈琲店 金町南口店,東京都,139.8710276357268,35.76868938703126,1
2021-09-27,珈琲所コメダ珈琲店 北上本石町店,岩手県,141.11449324746872,39.291511547762326,1
2021-09-25,星乃珈琲店 八代西片店,熊本県,130.63447065336743,32.51006139660041,1
2021-09-25,スターバックスコーヒー八王子宇津木店,東京都,139.34257625918934,35.68393567419814,1
2021-09-25,スターバックスコーヒー札幌川下店,北海道,141.44639482924472,43.05323397866838,1
2021-09-24,カフェ・ド・クリエ 流山アルコテラス店,千葉県,139.88887892326633,35.898932290685735,1
2021-09-23,スターバックスコーヒー カインズ会津若松店,福島県,139.89980249060858,37.48758943430776,1
2021-09-22,むさしの森珈琲 世田谷オークラランド店,東京都,139.6375904522456,35.6409417638925,1
2021-09-22,スターバックスコーヒー宇部琴芝店,山口県,131.2595816739524,33.95738282982975,1
2021-09-21,支留比亜珈琲店 栄町店,愛知県,136.92449041177665,34.88665668693322,1
2021-09-21,スターバックスコーヒー豊川下長山店,愛知県,137.38000655824996,34.806964197410565,1
2021-09-20,M’s beans 札幌本店,北海道,141.33169770963045,43.070972863613,1
2021-09-20,BECK’S COFFEE SHOP ペリエ千葉エキナカ,千葉県,-1,-1,1
2021-09-19,ドトール珈琲店 本郷三丁目店,東京都,139.75860316728412,35.70701885132114,1
2021-09-18,スターバックスコーヒーノブレスパルク袋井店,静岡県,137.92463205235327,34.73897695976687,1
2021-09-17,タリーズコーヒー &TEA ららぽーと立川立飛店,東京都,139.4177473157002,35.71171563590597,1
2021-09-16,PATHFINDER XNOBU （パスファインダー タイムスノブ）,大阪府,135.49313491568282,34.70289099060763,1
2021-09-15,スターバックスコーヒー イオンタウン伊賀上野店,三重県,136.13456119730057,34.74807826514911,1
2021-09-15,スターバックスコーヒー福岡星見ヶ丘店,福岡県,130.4481141461075,33.50726813411642,1
2021-09-14,スターバックスコーヒー グランツリー武蔵小杉店,神奈川県,139.65804291569765,35.57374014346616,1
2021-09-14,スターバックスコーヒー掛川細田店,静岡県,137.98053282706582,34.77156493115657,1
2021-09-14,スターバックスコーヒー ビバシティ彦根店,滋賀県,136.2522247719674,35.24318683857515,1
2021-09-12,DUCT COFFEE LAB 武蔵小山店,東京都,139.7061122292519,35.617702988975154,1
2021-09-12,小春や珈琲,大阪府,135.54590861567937,34.49864410151973,1
2021-09-10,スターバックスコーヒー梅田HEP FIVE3階店,大阪府,135.5001875292509,34.70412290130344,1
2021-09-10,スターバックスコーヒーイオンモール常滑店,愛知県,136.82482412202003,34.88250644990023,1
2021-09-10,スターバックスコーヒー河内長野高向店,大阪府,135.55015191567836,34.442814104492925,1
2021-09-10,豆工房 コーヒーロースト 恵那店,岐阜県,137.41252421569536,35.449470150253916,1
2021-09-09,スターバックスコーヒー宗像店,福岡県,130.5567253794627,33.785706206049134,1
2021-09-08,ブルーボトルコーヒー 白井屋カフェ,群馬県,139.06791351571206,36.390336598361955,1
2021-09-06,スターバックスコーヒー イオン市川妙典店,千葉県,-1,-1,1
2021-09-06,コスタコーヒー スタンド at SYNTH×Business-Airport,大阪府,135.4916767156824,34.698669090833704,1
2021-09-03,スターバックスコーヒー千歳船橋駅店,東京都,-1,-1,1
2021-09-01,スターバックスコーヒー栄セントラルパーク店,愛知県,136.90736735825146,35.17203508758778,1
2021-09-01,CRAFT COFFEE & GELATO KUNZUDO,京都府,135.77406151568755,34.98933417521152,1
2021-08-31,fukamori coffee,東京都,139.7968008292519,35.68750368802183,1
2021-08-30,タリーズコーヒー日比谷フォートタワー店,東京都,139.75402165304163,35.67082813955565,1
2021-08-29,Stone River Coffee,東京都,139.6553152732266,35.60722560722522,1
2021-08-29,KAZU COFFEE,愛知県,136.9382960536688,35.193562372942466,1
2021-08-27,スターバックスコーヒー新潟小新店,新潟県,138.98799680417,37.868460553269955,1
2021-08-27,ユニフードドトールコーヒー新守山店,愛知県,136.94771922757724,35.205504263521256,1
2021-08-27,カフェ・ド・クリエ ケヤキゲート府中店,東京都,139.47751821569932,35.67305993802652,1
2021-08-25,珈琲館 イオンスタイル新百合ヶ丘店,神奈川県,139.50138797710645,35.6034705979636,1
2021-08-25,カフェ・ド・クリエ ホピタル 静岡県立総合病院店,静岡県,138.38408301568774,35.00314037446685,1
2021-08-25,スターバックスコーヒーくずはモール ハナノモール店,大阪府,-1,-1,1
2021-08-25,スターバックスコーヒー日本医科大学 武蔵小杉病院店,神奈川県,139.65737865825324,35.58075417648605,1
2021-08-18,スターバックスコーヒー郡山並木店,福島県,140.35954111573056,37.410161140825025,1
2021-08-18,LAUGH COFFEE（ラフ コーヒー）,群馬県,139.0674380157121,36.392722898229046,1
2021-08-18,REWARD COFFEE （リワード コーヒー）,東京都,139.87011101569917,35.66282203858792,1
2021-08-10,スターバックスコーヒー静岡南瀬名店,静岡県,138.4204844292351,35.002770297303975,1
2021-08-05,神乃珈琲 川崎有馬店,神奈川県,139.58006282925183,35.57977198949248,1
2021-08-05,珈琲所コメダ珈琲店 沖縄浦添経塚店,沖縄県,127.72335882700075,26.237816861271423,1
2021-08-01,樹珈琲,神奈川県,139.3911814128954,35.4219403517551,1
2021-08-01,髙木珈琲行徳 メトロピア店,千葉県,139.9123140156996,35.68298863748217,1
2021-08-01,VOIGHT COFFEE,宮城県,140.85019090560422,38.270188591273296,1
2021-07-30,ドトールコーヒーショップ アリオ橋本店,神奈川県,139.3482332292358,35.59197578932617,1
2021-07-28,スターバックスコーヒーJR東日本ホテルメッツ 目白店,東京都,139.70630852923594,35.72111368756225,1
2021-07-27,en. 珈琲焙煎所,岡山県,133.92925740399394,34.66258041334764,1
2021-07-23,HUMAN MADE Cafe by Blue Bottle Coffee,東京都,139.71205391289968,35.672668038048066,1
2021-07-23,ブルーボトルコーヒー 梅田茶屋町カフェ,大阪府,135.4981496656411,34.70763057942657,1
2021-07-23,星乃珈琲店 茨城県立図書館店,茨城県,140.47528562759783,36.37637469914054,1
2021-07-22,珈琲所コメダ珈琲店 ビエラ小倉店,福岡県,130.88156435437173,33.887598442883075,1
2021-07-22,珈琲所コメダ珈琲店 千里丘駅東店,大阪府,135.55256440509217,34.79029058041174,1
2021-07-21,むさしの森珈琲 武蔵野西久保店,東京都,139.55722181290045,35.70779113612129,1
2021-07-21,dekoboko coffee house,兵庫県,135.16331881288235,34.66618539257267,1
2021-07-20,スターバックスコーヒー エミオひばりヶ丘店,東京都,139.5447220292359,35.75165418714429,1
2021-07-19,スターバックスコーヒー エキュート大宮ノース店,埼玉県,139.62377941290382,35.90655417518805,1
2021-07-19,ドトールコーヒーショップ イオンモール白山店,石川県,136.58227964458027,36.54356387936845,1
2021-07-17,コスタコーヒー 原宿駅店,東京都,139.70070246041752,35.67099430350645,1
2021-07-16,珈琲所コメダ珈琲店 阪急園田店,兵庫県,135.4471773203821,34.75284305119692,1
2021-07-16,スターバックスコーヒー皇居外苑 和田倉噴水公園店,東京都,139.75903891569948,35.683053537478656,1
2021-07-15,スターバックスコーヒー諫早駅店,長崎県,130.0401967445684,32.85191886550645,1
2021-07-14,CALM (カルム),三重県,136.5829179542888,34.85523728928513,1
2021-07-14,CONNY COFFEE 彦根店,滋賀県,136.2417140128927,35.264219060335414,1
2021-07-14,スターバックスコーヒー ミュープラット神宮前店,愛知県,136.9127078292514,35.12620909564213,1
2021-07-13,珈琲元年 鳴子店,愛知県,136.9635749410658,35.098905995917626,1
2021-07-13,シナボン・シアトルズベストコーヒー ゆめタウン廿日市店,広島県,132.3333751156766,34.3460366096369,1
2021-07-13,珈琲所コメダ珈琲店 荻窪西口店,東京都,139.61780622923587,35.70486948778443,1
2021-07-12,ロバーツコーヒー 麻布十番店,東京都,139.735212327585,35.655217539004624,1
2021-07-12,スターバックスコーヒー TSUTAYA BOOKSTORE イオンモール白山店,石川県,136.58011231571479,36.54423728976482,1
2021-07-12,スターバックスコーヒー イオンモール白山店,石川県,136.58202741840046,36.544740506911516,1
2021-07-08,スターバックスコーヒー リエール藤沢店,神奈川県,139.48738942923552,35.33855689277153,1
2021-07-08,スターバックスコーヒー エキュート上野 公園口店,東京都,139.77549682923592,35.713665087664104,1
2021-07-07,むさしの森珈琲 旭川大雪通店,北海道,142.37890691305833,43.76766925303846,1
2021-07-07,スターバックスコーヒー そよら新金岡店,大阪府,135.51459582923468,34.56688610313139,1
2021-07-07,EWALU times,三重県,136.52117747842655,34.56547382280578,1
2021-07-06,珈琲所コメダ珈琲店 新三田駅前店,兵庫県,135.207852804163,34.911498613700196,1
2021-07-05,BRIDGE BUILD COFFEE,愛知県,137.36391241288393,34.76623778721215,1
2021-07-04,サンマルクカフェ ペリエ稲毛店,千葉県,140.09189382925186,35.63709508871044,1
2021-07-01,丸福珈琲店 そごう千葉店,千葉県,140.11177651584535,35.61103318021073,1
2021-06-29,さかい珈琲 京都園部店,京都府,135.4679433509265,35.111961782698344,1
2021-06-29,ナカニシ珈琲,岡山県,133.92807582925087,34.680202101622505,1
2021-06-29,スターバックスコーヒー豊橋柱店,愛知県,137.3755165508867,34.75040744057955,1
2021-06-29,エデンコーヒー eden coffee,茨城県,140.47149629643152,36.35458418265642,1
2021-06-28,TSUTAYA BOOKSTORE カラフルタウン岐阜店,岐阜県,136.72823236507185,35.36251544334035,1
2021-06-28,SAKURA COFFEE （サクラコーヒー）,北海道,142.37958078069636,43.72901728736043,1
2021-06-27,AZLM CONNECTED CAFE 渋谷地下街店,東京都,139.6998195292519,35.65942468840547,1
2021-06-27,シナボン・シアトルズベストコーヒー VIERRA小倉店,福岡県,130.8824106348942,33.8871172864474,1
2021-06-25,Nene Coffee,千葉県,140.12913440636441,35.786234241811144,1
2021-06-24,星乃珈琲店 つくば店,茨城県,140.08599651993504,36.071396416036166,1
2021-06-24,スターバックスコーヒー イオンモール津山店,岡山県,134.0461168292352,35.0650302964664,1
2021-06-24,タノカンダ珈琲,山梨県,138.52680201289877,35.618682641006295,1
2021-06-21,珈琲日記,東京都,139.72389645046036,35.685482041527706,1
2021-06-20,シャモニーes CoCoLo店,新潟県,139.06167281573983,37.91252721199433,1
2021-06-19,星乃珈琲店 守谷店,茨城県,139.9798738512489,35.9507003202689,1
2021-06-19,珈琲所コメダ珈琲店 たつの店,兵庫県,134.55074665825006,34.85314519617289,1
2021-06-19,Z/X coffee （ゼクス コーヒー）,愛知県,136.94524952925144,35.16846799507205,1
2021-06-14,amaretto（アマレット）,大阪府,135.54577292352255,34.698684630201434,1
2021-06-14,DAZZLE coffee stand (ダズル コーヒー スタンド),宮崎県,131.07726240549283,31.76707114209599,1
2021-06-09,スターバックスコーヒー イオンモール岡崎3階店,愛知県,137.16399812757277,34.93759217800062,1
2021-06-09,スターバックスコーヒー京都亀岡店,京都府,135.5848866505844,35.01817232972307,1
2021-06-08,さかい珈琲 宇都宮簗瀬店,栃木県,139.89347751291507,36.54395428978072,1
2021-06-04,ORION COFFEE,大阪府,135.46774791581905,34.76980318041691,1
2021-06-03,星乃珈琲店 岡山今店,岡山県,133.89785820560206,34.640747280449744,1
2021-06-03,珈琲所コメダ珈琲店 仙台幸町店,宮城県,140.89930975395743,38.272921476754775,1
2021-06-01,珈琲屋らんぷ 守山店,愛知県,137.01382431296054,35.1925499803111,1
2021-06-01,スターバックスコーヒー 鹿児島与次郎店,鹿児島県,130.5624135623152,31.566613612471162,1
2021-06-01,スターバックスコーヒー あべのキューズモール店,大阪府,135.50913631581636,34.64529898044879,1
2021-06-01,MAXCAFE 名古屋丸の内店,愛知県,136.90407712924386,35.17469569876968,1
2021-06-01,sal coffee,北海道,141.34396820578422,43.05565997914618,1
2021-05-31,GENIC COFFEE,福岡県,130.86691880558737,33.882321580652494,1
2021-05-31,ドトール珈琲店 府中店,東京都,139.4788748292605,35.670526098762316,1
2021-05-28,珈琲所コメダ珈琲店 ビーンズ阿佐ヶ谷店,東京都,139.63583882926054,35.704836598761794,1
2021-05-25,HUMAN MADE 1928 Cafe by Blue Bottle Coffee,京都府,135.76639600560924,35.008476680356665,1
2021-05-25,シナボン・シアトルズベストコーヒー イオンモール川口店,埼玉県,139.72340665828898,35.83760199503955,1
2021-05-25,スターバックスコーヒー TSUTAYA 和歌山高松店,和歌山県,135.16998932925873,34.20859149878521,1
2021-05-20,フレッシュロースター珈琲問屋 新潟店,新潟県,139.12394583375823,37.922094287465924,1
2021-05-20,珈琲所コメダ珈琲店 イオンモール川口店,埼玉県,139.72340665828898,35.83760199503955,1
2021-05-18,スターバックスコーヒー イオンモール川口店,埼玉県,139.72319590090214,35.83774669270932,1
2021-05-17,ZEBRA Coffee & Croissant 渋谷公園通り店,東京都,139.69717308153838,35.6642300983795,1
2021-05-15,タリーズコーヒー カワサキデルタ店,神奈川県,139.69378582926038,35.53012099876437,1
2021-05-12,セガフレード・ザネッティ・エスプレッソ 王子メトロピア店,東京都,-1,-1,1
2021-05-09,むさしの森珈琲 浜田山店,東京都,139.62743009473988,35.684111367515854,1
2021-05-07,星乃珈琲店 東松山店,埼玉県,139.39982561584412,36.034900480113414,1
2021-05-02,サンマルクカフェ吉備SA（下り）店,岡山県,-1,-1,1
2021-05-01,KEY’S CAFE 福岡千早店,福岡県,130.43606793262794,33.650228192821515,1
2021-04-29,AC ROASTERY (つかしん),兵庫県,135.41883567810333,34.76156317275704,1
2021-04-29,シナボン・シアトルズベストコーヒー シーモール下関店,山口県,130.92344806876926,33.9493413104349,1
2021-04-29,むさしの森珈琲 甲府伊勢店,山梨県,138.56834340562236,35.65050748020159,1
2021-04-29,猿田彦珈琲 伊勢国 多気店,三重県,136.51127571581296,34.45948818049713,1
2021-04-28,Rain coffee roastery,北海道,141.27730751313283,43.08835707914468,1
2021-04-27,ブルーボトルコーヒー 渋谷カフェ,東京都,139.69931380562258,35.66406728019844,1
2021-04-26,サンマルクカフェ MICRO  JR天王寺駅店,大阪府,135.5130657346114,34.64699778192287,1
2021-04-25,BASE COFFEE セントラルパーク店,愛知県,136.90774380418188,35.17159819734256,1
2021-04-23,アフェクショネイト珈琲,鳥取県,134.12813250561882,35.48272508024106,1
2021-04-22,VIVA COFFEE（ビバコーヒー）,東京都,139.66711832926066,35.78409979876067,1
2021-04-21,スターバックスコーヒーイオンモール岡山1階店,岡山県,133.91653312924322,34.66253219877777,1
2021-04-21,スターバックスコーヒー大名古屋ビルヂング店,愛知県,136.8839894292438,35.17235649876975,1
2021-04-20,むさしの森珈琲 イオンモール倉敷店,岡山県,133.74586462924313,34.60370929877873,1
2021-04-19,ナポリ珈琲 豊明インター店,愛知県,136.9975709292598,35.03912119877179,1
2021-04-19,サンマルクカフェ 綾瀬リエッタ店,東京都,139.82530038915945,35.762183449100064,1
2021-04-19,スターバックスコーヒーイオンモール堺鉄砲町店,大阪府,135.47917391581535,34.59426538046198,1
2021-04-17,TAILORED CAFE SHIBUYA STAND,東京都,139.70378832926048,35.66113649876243,1
2021-04-16,スターバックスコーヒーアミュプラザくまもと店,熊本県,130.68950330166254,32.78989792628868,1
2021-04-16,高倉町珈琲 平塚店,神奈川県,139.3320892056163,35.34801578027329,1
2021-04-15,スターバックスコーヒーEKIZO 神戸三宮店,兵庫県,135.1932040573013,34.693478027240374,1
2021-04-14,タリーズコーヒー九州大学病院店,福岡県,130.4142599945466,33.608281785647534,1
2021-04-13,猿田彦珈琲 奈良 鹿猿狐ビルヂング店,奈良県,135.82963253460963,34.68093250085157,1
2021-04-13,KEY’S CAFÉ 東京都庁店,東京都,139.6911051292445,35.689736698762026,1
2021-04-13,スターバックスコーヒー四日市中央緑地店,三重県,136.6113158292597,34.95237899877315,1
2021-04-13,スターバックスコーヒー上尾壱丁目店,埼玉県,139.5701948292609,35.96085789875814,1
2021-04-11,ライオンコーヒー  イオンモール岡崎店,愛知県,137.16235661582218,34.93758778037464,1
2021-04-10,ニュータンバ,兵庫県,135.2022819921955,34.6999024939532,1
2021-04-08,珈琲所コメダ珈琲店 大通西6丁目店,北海道,141.34862882927064,43.0583849986966,1
2021-04-08,スターバックスコーヒー ラゾーナ川崎1階店,神奈川県,139.69575382924424,35.53232459876436,1
2021-04-07,カフェ・ド・クリエ ホピタル 慶應義塾大学病院店,東京都,139.71679340731174,35.68093599791822,1
2021-04-06,むさしの森珈琲 品川グランドコモンズ店,東京都,139.7402408129694,35.627143680206906,1
2021-04-05,むさしの森珈琲 南越谷駅前店,埼玉県,139.78968912926084,35.87690999875931,1
2021-04-04,ドトールコーヒーショップ 北仙台駅前店,宮城県,140.86672167985395,38.281327279770025,1
2021-04-02,タリーズコーヒー富士宮店,静岡県,138.61072182925992,35.226387998768935,1
2021-04-02,スターバックスコーヒー太田小舞木店,群馬県,139.38433582924515,36.28473299875365,1
2021-04-02,totoかふぇ,新潟県,139.07832241562372,37.76650282306809,1
2021-03-31,ブルーボトルコーヒー 渋谷カフェ,東京都,139.69740691583658,35.66407888019827,1
2021-03-30,珈琲所コメダ珈琲店 東濃信用金庫土岐中央店,岐阜県,137.18384782926006,35.35733499876697,1
2021-03-30,スターバックスコーヒー豊田鞍ケ池公園店,愛知県,137.21539982925972,35.097670998770916,1
2021-03-29,タリーズコーヒー ルミネエスト新宿B1店,東京都,139.70050322530443,35.69097057678683,1
2021-03-29,スターバックスコーヒー熊本帯山店,熊本県,130.7600944246517,32.80487705879946,1
2021-03-29,スターバックスコーヒー可児広見店,岐阜県,137.0629931056178,35.42262788025542,1
2021-03-27,喫茶室ルノアール 新横浜駅前店,神奈川県,139.61826975876153,35.508474301501316,1
2021-03-26,ROASTELIER by NESCAFÉ 三宮,兵庫県,135.1964139294711,34.69226361275496,1
2021-03-26,珈琲所コメダ珈琲店 阪急三宮西口店,兵庫県,135.1918913056031,34.69286668043659,1
2021-03-26,珈琲所コメダ珈琲店 東京医科大学病院店,東京都,139.6914448292605,35.69305499876199,1
2021-03-26,珈琲所コメダ珈琲店 ミーツ国分寺店,東京都,139.48029900562324,35.70073028018993,1
2021-03-26,スターバックスコーヒー足利福居町店,栃木県,139.4453134154733,36.31094299769137,1
2021-03-24,むさしの森珈琲 守谷店,茨城県,140.00140682926082,35.92394999875867,1
2021-03-24,むさしの森珈琲 イーアスつくば店,茨城県,140.08359425829016,36.08724739502543,1
2021-03-23,カフェ・ド・クリエ 板橋区立中央図書館店,東京都,139.6808058292606,35.762678998760954,1
2021-03-23,星乃珈琲店 浅草店,東京都,139.79313930562347,35.712312080187075,1
2021-03-23,珈琲所コメダ珈琲店 南池袋グリーン大通り店,東京都,139.7134456056238,35.72887378018318,1
2021-03-23,スターバックスコーヒー エトモ池上店,東京都,139.7025452292604,35.57201899876375,1
2021-03-20,珈琲所コメダ珈琲店 京急大森町店,東京都,139.7316114500961,35.5720794931943,1
2021-03-20,スターバックスコーヒーイオンタウン茨木太田店,大阪府,135.57351265828393,34.837993995099914,1
2021-03-20,スターバックスコーヒー高槻安満遺跡公園店,大阪府,135.62891866582086,34.8561047303948,1
2021-03-20,スターバックスコーヒー小牧市中央図書館店,愛知県,136.92535782925998,35.28963699876796,1
2021-03-18,上島珈琲店 京都嵯峨嵐山店,京都府,135.67614182924368,35.01756399877215,1
2021-03-18,タリーズコーヒー 倉敷美観地区店,岡山県,133.7708592292592,34.59441519877888,1
2021-03-18,喫茶室ルノアール 新橋日比谷口店,東京都,139.75645060562266,35.66776918019743,1
2021-03-17,珈琲所コメダ珈琲店 淡路志筑店,兵庫県,134.8986752055979,34.434028280503796,1
2021-03-17,FRANK ニカイノフランク,兵庫県,135.186005305603,34.68745668043794,1
2021-03-16,BIRTH COFFEE(バースコーヒー),大阪府,135.499575129259,34.479395698780756,1
2021-03-16,桜珈琲 松原店,大阪府,135.54842176770194,34.57758367021523,1
2021-03-15,からふね屋珈琲店,大阪府,135.50077022925944,34.73432899877665,1
2021-03-15,タリーズコーヒー松山赤十字病院店,愛媛県,132.77334629346737,33.848533694676966,1
2021-03-15,スターバックスコーヒー丸亀マルタス店,香川県,133.79818382924276,34.2894986987839,1
2021-03-13,カフェ・ド・クリエ 東武新河岸駅店,埼玉県,139.49719700562704,35.89060398014607,1
2021-03-13,ROSETIQUE CAFE supported by Nespresso PRO,東京都,139.65181640562133,35.61425348020999,1
2021-03-11,珈琲所コメダ珈琲店 シャポー船橋店,千葉県,139.98509411188596,35.701778919230634,1
2021-03-11,珈琲所コメダ珈琲店 伏見桃山駅前店,京都府,135.7641824292435,34.93282449877345,1
2021-03-10,FORWARD COFFEE BREWERS,兵庫県,135.29411125697567,34.71360143924892,1
2021-03-09,ドトールコーヒーショップスーパービバモール蕨錦町店,埼玉県,139.67570881583995,35.82179428016178,1
2021-03-09,8A GARAGE COFFEE,北海道,141.17875941313412,43.14439997914201,1
2021-03-09,スターバックスコーヒー伊勢 内宮前店,三重県,136.72274392925897,34.46091749878106,1
2021-03-09,シアトルズベストコーヒー ゆめタウン東広島店,広島県,132.74943702925898,34.42764529878161,1
2021-03-08,MAX CAFE 仙台国分町店,宮城県,140.8676345056766,38.264135579673166,1
2021-03-08,MAX CAFE 岡崎店,愛知県,137.1684493124585,34.95568095472987,1
2021-03-07,むさしの森珈琲 久が原店,東京都,139.6995156292443,35.57833749876366,1
2021-03-06,カフェ・ド・クリエ 阪急三番街店,大阪府,135.49704682925923,34.70422699877709,1
2021-03-05,星乃珈琲店 イオンモール新利府店,宮城県,140.97148107898806,38.32270199547054,1
2021-03-05,ドトールコーヒーショップ イオンモール新利府店,宮城県,140.97148107898806,38.32270199547054,1
2021-03-04,THE CITY DONUTS AND COFFEE,兵庫県,135.1897647201648,34.69815048026636,1
2021-03-04,タリーズコーヒー KU白楽駅店,神奈川県,139.6272109292442,35.48963129876495,1
2021-03-04,スターバックスコーヒー梅田イーマ店,大阪府,135.4982191129507,34.70067678043454,1
2021-03-03,ホリーズカフェ ゼスト御池店,京都府,135.7683727292436,35.01102589877225,1
2021-03-03,タリーズコーヒー サンリブくりえいと宗像店,福岡県,130.56166751580028,33.811833180672025,1
2021-03-03,ドトールコーヒーショップ 新青森駅店,青森県,140.69128831594733,40.827649579319456,1
2021-03-02,さかい珈琲 武庫川店,兵庫県,135.3731739093784,34.7040991969642,1
2021-03-02,ドトールコーヒーショップ 西新井西口店,東京都,139.7900059274386,35.77624991101814,1
2021-03-01,天迦久珈琲,奈良県,135.82984982924322,34.6779709987775,1
2021-02-27,珈琲屋らんぷ 一宮玉ノ井店,愛知県,136.758837829244,35.3328089987673,1
2021-02-27,星乃珈琲店 青森南佃店,青森県,-1,-1,1
2021-02-27,珈琲所コメダ珈琲店 イオン東神奈川店,神奈川県,139.6321173292603,35.479911498765105,1
2021-02-27,タリーズコーヒー柴又駅前店,東京都,139.8757584810013,35.75708059196288,1
2021-02-27,スターバックスコーヒーイオンモール新利府南館2階店,宮城県,140.9712386583019,38.32372829491573,1
2021-02-27,スターバックスコーヒーイオンモール新利府南館1階店,宮城県,140.97118265830187,38.32286399491583,1
2021-02-27,スターバックスコーヒー狭山市入間川にこにこテラス店,埼玉県,139.40431070246987,35.86473942691826,1
2021-02-25,BECK’S STATION LOUNGE（ベックスステーションラウンジ）,埼玉県,139.63250482926082,35.89371599875907,1
2021-02-25,エクセルシオールカフェ 東京ソラマチ店,東京都,139.80954706084785,35.71001837540752,1
2021-02-22,むさしの森珈琲 昭島店,東京都,139.35588001297103,35.7137490801867,1
2021-02-20,珈琲所コメダ珈琲店 イオン釧路店,北海道,144.4047003292705,43.008591898696785,1
2021-02-20,珈琲所コメダ珈琲店 大和鶴間イトーヨーカドー店,神奈川県,139.45495631583313,35.48996278023946,1
2021-02-17,星乃珈琲店 仙台吉成店,宮城県,140.82335182924785,38.29458699872926,1
2021-02-16, スターバックスコーヒー大船グランシップ店,神奈川県,139.53270272765883,35.35509698027165,1
2021-02-12,珈琲館 用賀駅ビル店,東京都,139.63262161296922,35.626602680207135,1
2021-02-12,スターバックスコーヒーイオンモール高知2階店,高知県,133.54196782924186,33.57650419879611,1
2021-02-10,珈琲所コメダ珈琲店 姫路駅前店,兵庫県,134.6912683056058,34.82964178040166,1
2021-02-03,Soyo’s bakery （ソヨズベーカリー）,鳥取県,133.85003312394312,35.45383656251021,1
2021-01-29,珈琲庵 珈集 加古川ヤマトヤシキ店,兵庫県,134.83865021295225,34.76623868041765,1
2021-01-29,スターバックスコーヒー イオンモール京都桂川2階店,京都府,135.70262064925785,34.9646297695567,1
2021-01-27,珈琲所コメダ珈琲店 一之江駅前店,東京都,139.88192582926058,35.685645998762105,1
2021-01-27,スターバックスコーヒー 東京ワールドゲート神谷町店,東京都,139.74471382926052,35.66465599876234,1
2021-01-27,カンノンコーヒー 吉祥寺店,東京都,139.5707918292605,35.69061499876198,1
2021-01-25,珈琲所コメダ珈琲店 藤井寺駅前店,大阪府,135.59109621581504,34.57220088046777,1
2021-01-25,スターバックスコーヒー アトレ信濃町店,東京都,139.71743831583703,35.68015098019449,1
2021-01-25,スターバックスコーヒー葛西臨海公園駅店,東京都,139.85996582926052,35.64472899876273,1
2021-01-19,むさしの森珈琲 東大和店,東京都,139.43860011297178,35.74670228017898,1
2021-01-19,むさしの森珈琲 川崎野川店,神奈川県,139.59676119784876,35.57195399486638,1
2021-01-19,むさしの森珈琲 国立富士見台店,東京都,139.4468233129706,35.68442078019367,1
2021-01-18,港屋珈琲 松阪店,三重県,136.5417691505753,34.55113063709054,1
2021-01-16,Botanic Coffee Kyoto,京都府,135.79331120560957,35.01878718035396,1
2021-01-13,スターバックスコーヒー帝京大学板橋キャンパス店,東京都,139.71400482924457,35.75921719876106,1
2021-01-11,珈琲所コメダ珈琲店 赤羽東口店,東京都,139.72054190562486,35.77931388017161,1
2021-01-11,珈琲所コメダ珈琲店 秋田東通店,秋田県,140.1421038558751,39.71258150894512,1
2021-01-02, スターバックスコーヒー豊明店,愛知県,137.02061282924365,35.060093998771464,1
2020-12-31,タリーズコーヒー高知桟橋通り店,高知県,133.54571882925794,33.549671998796576,1
2020-12-30,むさしの森珈琲 ひたちなか西光地店,茨城県,140.532087981501,36.41852860914926,1
2020-12-30,むさしの森珈琲 末広町店,東京都,139.76976780562325,35.70326318018923,1
2020-12-20,むさしの森珈琲 長津田みなみ台店,神奈川県,139.49796751296722,35.522224980231805,1
2020-12-20,むさしの森珈琲 藤沢湘南台店,神奈川県,139.46000770561716,35.396265080261735,1
2020-12-19,日常COFFEE,岡山県,133.6700287,34.5438843,1
2020-12-14,星乃珈琲店 町田北口店,東京都,139.44453771296773,35.54451368022651,1
2020-12-14, 星乃珈琲店 上板橋店,東京都,139.6767748658546,35.763522138469185,1
2020-12-14,CLAVIS CAFE KEYCOFFEE,埼玉県,139.6558403129741,35.85906338015325,1
2020-12-13,REC COFFEE 天神北 TOGO SHOP,福岡県,-1,-1,1
2020-12-12,スターバックスコーヒー TSUTAYA BOOKSTORE エミフルMASAKI店,愛媛県,132.71495442160224,33.78925965137422,1
2020-12-12,スターバックスコーヒー イオン八事店,愛知県,136.96258822924378,35.137142298770286,1
2020-12-11,スターバックスコーヒー西武東戸塚S.C.店,神奈川県,139.55829361296534,35.43020508025369,1
2020-12-09,ドトールコーヒーショップ 八重洲ブックセンター店,東京都,139.76745982924444,35.67823209876218,1
2020-12-08,ONIYANMA COFFEE STAND （オニヤンマコーヒースタンド）,北海道,141.34917041313227,43.06769347914576,1
2020-12-07,AC Roastery（ACロースタリー）,大阪府,135.4956349292433,34.67480109877758,1
2020-12-07,YAZAWA COFFEE ROASTERS 立石店,東京都,139.84709220562408,35.737899180181145,1
2020-12-06,星野珈琲店 磐田南店,静岡県,137.8452608292433,34.69740099877725,1
2020-12-04,スターバックスコーヒー アスナル金山3階店,愛知県,136.89995082924378,35.144382998770176,1
2020-12-04,HAZELNUT COFFEE & TOAST（ヘーゼルナッツコーヒーアンドトースト）,東京都,139.7355118905475,35.73518297265316,1
2020-12-02,コナズ珈琲大津店,滋賀県,135.90819882924367,34.98386599877269,1
2020-12-02,コナズ珈琲アメリカンビレッジ店,沖縄県,127.75559982923404,26.31602399896176,1
2020-12-02,タリーズコーヒー伊豆ゲートウェイ函南店,静岡県,-1,-1,1
2020-12-01,ドトールコーヒーショップ 水戸北口駅前店,茨城県,140.4773141129844,36.37139828003912,1
2020-11-30,LAZY COFFEE BASE,徳島県,134.3652098055911,34.07801648059872,1
2020-11-30,スターバックスコーヒー光が丘IMA店,東京都,139.62824782924457,35.75883799876098,1
2020-11-30,スターバックスコーヒー仙台泉パークタウン桂店,宮城県,140.8647066184095,38.33238667126491,1
2020-11-29,シナボン・シアトルズベストコーヒー 天神地下街店,福岡県,130.400472829258,33.58836899879593,1
2020-11-28,スターバックスコーヒー カインズ羽生店,埼玉県,139.53300302286692,36.15606299854809,1
2020-11-27,スターバックスコーヒー イオンモール上尾店,埼玉県,139.5998311361111,35.964684340683995,1
2020-11-25,珈琲所コメダ珈琲店 新小岩北口店,東京都,139.85716260562359,35.71780958018587,1
2020-11-25,珈琲所コメダ珈琲店 イオンモール浦和美園店,埼玉県,139.72906071584134,35.89087538014599,1
2020-11-24,スターバックスコーヒー本巣北方店,岐阜県,136.6785837056179,35.433602880252764,1
2020-11-23,SHIKISHIMA COFFEE FACTORY,群馬県,139.0462748158521,36.41688958002932,1
2020-11-22,タリーズコーヒー 羽田イノベーションシティ店,東京都,139.75513796493786,35.5478103612349,1
2020-11-22,むさしの森珈琲 三芳藤久保店,埼玉県,139.5322893129738,35.8386623801579,1
2020-11-21,丸福珈琲店 Good Old & New Edition,大阪府,135.50068381295037,34.67384728044139,1
2020-11-20,ゆげ焙煎所 西宮北口店,兵庫県,135.35634682925934,34.74402599877647,1
2020-11-20,CLUTCH coffee stand,大阪府,135.4935906056045,34.75781658041985,1
2020-11-20,タリーズコーヒー エミル高槻店,大阪府,135.6230558292435,34.849967998774794,1
2020-11-19,スターバックスコーヒー シエスタハコダテ店,北海道,140.75168401310245,41.78961867922925,1
2020-11-19,スターバックスコーヒー熊本菊陽店,熊本県,130.80061844099816,32.859694063962635,1
2020-11-18,スターバックスコーヒー イオンタウン岡崎美合店,愛知県,-1,-1,1
2020-11-18,スターバックスコーヒー西東京新町店,東京都,139.53311551297102,35.712150980187104,1
2020-11-17,カフェ・ド・クリエ グラン サンシャイン通り店,東京都,139.7141611129714,35.73031808018293,1
2020-11-17,スターバックスコーヒーさいたま新都心 コクーンシティ コクーン1店,埼玉県,139.63410141547237,35.894198997702134,1
2020-11-16,スターバックスコーヒー浦和西口店,埼玉県,139.6533413292608,35.8575105987596,1
2020-11-16,スターバックスコーヒー仙台六丁の目店,宮城県,140.9366529056763,38.25114257967558,1
2020-11-16,カモメのサイフォン珈琲店,愛知県,136.91046450561248,35.166806580317484,1
2020-11-15,ココデコーヒー,東京都,139.81054622926055,35.69783069876192,1
2020-11-14,スターバックスコーヒーイオンタウン守谷店,茨城県,139.98851091584237,35.94488358013371,1
2020-11-13,スターバックスコーヒーアミュプラザみやざき店,宮崎県,131.4313756162749,31.91530999162919,1
2020-11-13,スターバックスコーヒー心斎橋パルコ店,大阪府,135.50068381295037,34.67384728044139,1
2020-11-10,MAX CAFE 小倉駅前店,福岡県,130.88078270558768,33.88672528065126,1
2020-11-10,高倉町珈琲 仙台新港店,宮城県,140.9790793277196,38.27189287967202,1
2020-11-10,高倉町珈琲 名古屋豊山店,愛知県,136.91645637393646,35.24394582203529,1
2020-11-09,ラルフズ コーヒー ルミネ新宿,東京都,139.70007402766583,35.68967338019246,1
2020-11-08,さかい珈琲 帯広店,北海道,143.2007828292704,42.92701799869703,1
2020-11-07,髙木珈琲 茨木店,大阪府,135.5623146039831,34.82589249612499,1
2020-11-06,タリーズコーヒーところざわサクラタウン店,埼玉県,139.50585861462952,35.79666907775092,1
2020-11-04,タリーズコーヒー 丸の内テラス店,東京都,139.76358662924446,35.68462359876212,1
2020-10-31,BARBARA COFFEE,大阪府,135.2806148292588,34.36143199878268,1
2020-10-31,KEY’S CAFÉ（キーズカフェ） いわき駅前店,福島県,140.89318160565105,37.05746237989629,1
2020-10-31,珈琲所コメダ珈琲店 BINO栄店,愛知県,136.9063408378016,35.169234248011456,1
2020-10-31,マックスカフェ 長野駅前店,長野県,138.18999350564238,36.642232879981556,1
2020-10-30,ALPHA BETA COFFEE ROASTERS,東京都,139.6517288292604,35.60750299876322,1
2020-10-28,コナズ珈琲甲府店,山梨県,138.54479082926053,35.65156299876258,1
2020-10-28,KEY’S CAFÉ（キーズカフェ） 三河安城駅店,愛知県,137.06016988153723,34.96887799839324,1
2020-10-28,タリーズコーヒー野田阪神ウイステ店,大阪府,135.47529092925927,34.695324098777306,1
2020-10-28,タリーズコーヒー羽田空港第2ターミナル出発ゲート店,東京都,139.78677271583442,35.55069048022495,1
2020-10-28,YAMATOYA COFFEE32,群馬県,139.05852321585147,36.390050780035075,1
2020-10-26,スターバックスコーヒー北見三輪店,北海道,143.85912098758098,43.798251858733764,1
2020-10-26,スターバックスコーヒー東海加木屋店,愛知県,136.90739388153733,35.00692699839252,1
2020-10-24,珈琲所コメダ珈琲店 北12条東店,北海道,-1,-1,1
2020-10-23,スターバックスコーヒー塩尻店,長野県,137.9501238292612,36.15564199875542,1
2020-10-21,珈琲所コメダ珈琲店 福岡渡辺通5丁目店,福岡県,130.40274282925796,33.58628699879594,1
2020-10-21,スターバックスコーヒーイオンモール神戸北店,兵庫県,135.19446882924342,34.86131199877454,1
2020-10-20,丸福珈琲店 神戸阪急店,兵庫県,135.19510741295088,34.69297808043663,1
2020-10-17,スターバックスコーヒー豊橋曙店,愛知県,137.39983702924323,34.73045339877666,1
2020-10-16,タリーズコーヒー ルミネ立川店,東京都,139.41347571297098,35.6984751801903,1
2020-10-13,シアトルズベストコーヒー 宮崎駅店,宮崎県,131.431331133687,31.915880419682757,1
2020-10-10,スターバックスコーヒー松島離宮店,宮城県,141.05990562926402,38.36729089872848,1
2020-10-08,星乃珈琲店 赤羽ビビオ店,東京都,139.71725571583895,35.77777778017198,1
2020-10-08,珈琲屋 無為,兵庫県,135.20285272765398,35.08757968033706,1
2020-10-08,スターバックスコーヒーイオンモール大牟田店,福岡県,130.4259445799534,33.03061708098971,1
2020-10-08,コーヒーロースト TERU 真備店,岡山県,133.7106518198417,34.63719739556116,1
2020-10-07,星乃珈琲店 西新宿2号店,東京都,139.69750882924447,35.68896999876207,1
2020-10-06,マーロウブラザーズコーヒーそごう横浜店,神奈川県,139.62290671583253,35.46542488024519,1
2020-10-05,珈琲所コメダ珈琲店 八戸城下店,青森県,141.495503829267,40.51837199870958,1
2020-10-04,スターバックスコーヒー 北見大雪通店(仮),北海道,143.859495705802,43.79836167911657,1
2020-10-02,珈琲所コメダ珈琲店 神戸灘店,兵庫県,135.2452813723466,34.71455773493865,1
2020-10-02,タリーズコーヒー新宿小田急第一生命ビル店,東京都,139.69083182924447,35.69160299876202,1
2020-10-02,スターバックスコーヒー徳島北田宮店,徳島県,134.5431520446242,34.086839300393095,1
2020-10-02,スターバックスコーヒー中野セントラルパーク店,東京都,139.66085787349516,35.70703977025268,1
2020-09-29,タリーズコーヒー 大阪新阪急ホテル店,大阪府,135.49747082521935,34.704941687030086,1
2020-09-29,ほの香 泉店,宮城県,140.87358711891946,38.35775092374401,1
2020-09-28,珈琲や 早稲田工房,東京都,139.7221412056233,35.70551318018871,1
2020-09-28,オトナキチコーヒー,島根県,132.7554138292601,35.36579399876683,1
2020-09-28,スターバックスコーヒー三郷中央店,埼玉県,139.87886327788172,35.83235324974181,1
2020-09-25,ドトールコーヒーショップ ビバモール名古屋南店,愛知県,136.9130363530317,35.10009239592739,1
2020-09-25,リラコーヒー,北海道,141.36137682927065,43.06714299869663,1
2020-09-24,スターバックスコーヒー イオンモール奈良登美ヶ丘店,奈良県,135.7501961129516,34.725840780428165,1
2020-09-24,スターバックスコーヒー旭川大雪通店,北海道,142.3850208292557,43.777560998694824,1
2020-09-24,スターバックスコーヒー御殿場萩原店,静岡県,138.9306711511281,35.31161016376375,1
2020-09-23,タリーズコーヒー グランデュオ蒲田店,東京都,139.71510782924437,35.562701998763906,1
2020-09-23,スターバックスコーヒーJR新橋駅 銀座口店,東京都,139.75810622926045,35.66631229876234,1
2020-09-20,喫茶室ルノアール 青山花茂店,東京都,139.70996601297023,35.663246180198655,1
2020-09-20,萬国珈琲 仙台茂庭店,宮城県,140.7862758415616,38.22302981190048,1
2020-09-18,井ノ口珈琲スタンド 金神社前店,none,136.75817241296502,35.41679428025672,1
2020-09-17,タリーズコーヒー RAYARD Hisaya-odori Park店,愛知県,136.90761482924378,35.17310399876972,1
2020-09-16,カフェ・ド・クリエ JRイン札幌北2条店,北海道,141.3538798131322,43.06423697914582,1
2020-09-16,珈琲所コメダ珈琲店 亀岡千代川店,京都府,135.5460048292437,35.042027998771786,1
2020-09-14,タリーズコーヒー東京ポートシティ竹芝店,東京都,139.76067682926052,35.65484699876254,1
2020-09-14,スターバックスコーヒーららぽーと愛知東郷3階店,愛知県,137.04604317005166,35.09839599724075,1
2020-09-14,倉式珈琲店 ららぽーと東郷店,愛知県,137.04604317005166,35.09839599724075,1
2020-09-13,珈琲所コメダ珈琲店 東京ドームシティミーツポート店,東京都,139.7535636582882,35.7031769950473,1
2020-09-12,ブルーボトルコーヒー みなとみらいカフェ,神奈川県,139.6294721158325,35.45789208024703,1
2020-09-10,銀座和館 椿屋珈琲,千葉県,139.97021354137843,35.86250107744574,1
2020-09-10,珈琲家 暖香 半田岩滑西店,愛知県,-1,-1,1
2020-09-09,CBD coffee,東京都,139.68277482924444,35.65867099876247,1
2020-09-09,KEY’S CAFÉ（キーズカフェ） EQUiA ときわ台店,東京都,139.6893682129719,35.758703180176234,1
2020-09-08,サンマルクカフェ ららぽーと愛知東郷店,愛知県,137.04604317005166,35.09839599724075,1
2020-09-08,スターバックスコーヒー射水歌の森運動公園店,富山県,137.10278056984123,36.712027201317845,1
2020-09-07,星乃珈琲店 銀座4丁目店,東京都,139.76577230562268,35.67174738019659,1
2020-09-07,スターバックスコーヒーTSUTAYA BOOKSTORE ららぽーと愛知東郷店,愛知県,137.04604317005166,35.09839599724075,1
2020-09-06,タリーズコーヒー &TEA さんすて岡山店,岡山県,133.9169065828139,34.6661200435732,1
2020-09-06,タリーズコーヒー &TEAエスパル仙台店,宮城県,140.88145469278362,38.25922139857405,1
2020-09-04,スターバックスコーヒー丸の内オアゾ店,東京都,139.76553882924446,35.68352999876216,1
2020-09-02,COFFEE HERE!,東京都,139.73337201583644,35.6562513802002,1
2020-09-01,カノン珈琲 豊田松坂屋店,愛知県,-1,-1,1
2020-08-31,赤い月珈琲 神谷町店,東京都,139.74305082924445,35.66095599876242,1
2020-08-30,ブルーボトルコーヒー 竹芝カフェ,東京都,139.76067682926052,35.65484699876254,1
2020-08-28,スターバックスコーヒー高崎大八木店,群馬県,139.0007738292614,36.360063998752615,1
2020-08-27,珈琲所コメダ珈琲店 グランエミオ所沢店,埼玉県,139.4724188292446,35.78641199876065,1
2020-08-27,珈琲所コメダ珈琲店 ダイワロイネットホテル横浜関内店,神奈川県,139.63303751296587,35.44329978025036,1
2020-08-26,珈琲所コメダ珈琲店 下北沢,東京都,139.6673934056226,35.662489680198505,1
2020-08-26,parfum coffee（パルファムコーヒー）,福島県,140.37930360453777,37.371570040909425,1
2020-08-21,珈琲屋らんぷ 掛川店,静岡県,137.97968181039303,34.78519548856028,1
2020-08-20,ドトールコーヒーショップEneJet常盤平店,千葉県,139.94650430562535,35.804129080165936,1
2020-08-19,UP COFFEE,埼玉県,139.63175795001496,35.89923484490688,1
2020-08-18,最強のバターコーヒー 神谷町店,東京都,139.74498361315258,35.66364518019835,1
2020-08-18,珈琲 雨待ち,山梨県,138.55710506850562,35.67860537980212,1
2020-08-15,珈琲音Atelier (カヒアン アトリエ),栃木県,139.6472958544534,36.26619073419136,1
2020-08-13,タリーズコーヒー八戸八日町店,青森県,141.49138013246917,40.51020942005353,1
2020-08-12,KEY’S CAFÉ（キーズカフェ）日本橋店,東京都,139.77448980562298,35.68825308019268,1
2020-08-10,ドトールコーヒーショップ 京橋駅北口店,大阪府,135.5337611447926,34.69779845384363,1
2020-08-08,千成屋珈琲 ラゾーナ川崎プラザ,神奈川県,139.6956686000638,35.53273768051951,1
2020-08-05,タリーズコーヒー 福岡空港店,福岡県,130.4466248292579,33.597472998795745,1
2020-08-04,上島珈琲店 大阪国際空港店,大阪府,135.44040439297137,34.790993658302234,1
2020-08-04,スターバックスコーヒー りんくうプレミアム・アウトレット シーサイド店,大阪府,-1,-1,1
2020-08-03,タリーズコーヒー友愛医療センター店,沖縄県,127.65336509385689,26.17080169640615,1
2020-08-01,.COFFEE （ドットコーヒー）,滋賀県,135.90114930560878,34.977910680364324,1
2020-07-31,OGAWA COFFEE LABORATORY（オガワコーヒー ラボラトリー）,東京都,139.645650305622,35.63295658020562,1
2020-07-30,カフェ・ド・クリエ高松シンボルタワー店,香川県,134.04498801581073,34.352719180525234,1
2020-07-30,スターバックスコーヒー CIRCLES 銀座店,東京都,139.76722640562258,35.67200438019641,1
2020-07-29,コナズ珈琲 姫路店,兵庫県,134.6795368056062,34.84387088039797,1
2020-07-29,スターバックスコーヒー東京駅八重洲北口 東京ギフトパレット店,東京都,139.7661295915223,35.681566592625686,1
2020-07-29,スターバックスコーヒー大阪空港国内線ターミナル南ゲートエリア店,大阪府,135.44237795759372,34.789309454037884,1
2020-07-28,スターバックスコーヒーMIYASHITA PARK店,東京都,139.70074407897576,35.66235599558979,1
2020-07-27,Tirol coffee,岐阜県,136.7589235448214,35.41865673601747,1
2020-07-26,神戸珈琲倶楽部 上小田井店,愛知県,136.88462290561344,35.219055780304615,1
2020-07-26,星乃珈琲店 横浜ハマボール店,神奈川県,139.6150505158325,35.46595928024512,1
2020-07-25,大和珈琲ゆめタウン廿日市店,広島県,132.3342054775471,34.34558226807143,1
2020-07-25,スターバックスコーヒー クロスゲート金沢店,石川県,136.64759382924552,36.580047998749635,1
2020-07-24,エクセルシオールカフェ大崎ニューシティ店,東京都,139.7289941179553,35.61975980597791,1
2020-07-24,フジオ珈琲 中津店,大阪府,135.49648382925935,34.71022499877704,1
2020-07-23,珈琲所コメダ珈琲店 神戸藤原台店,兵庫県,135.21828541546995,34.8356109977316,1
2020-07-22,サンマルクカフェ モラージュ佐賀店,佐賀県,130.31645451578947,33.252710080830965,1
2020-07-22,R COFFEE STAND,愛知県,137.16596592265404,34.95090951761853,1
2020-07-21,スターバックスコーヒー 経堂駅店,東京都,139.63623182926054,35.651453998762584,1
2020-07-21,スターバックスコーヒー 御殿場プレミアム・アウトレット店,静岡県,138.96487082924395,35.307064998767714,1
2020-07-21,スターバックスコーヒー エチカフィット銀座店,東京都,139.763273,35.672833,1
2020-07-19,無珈琲因,石川県,136.69760300269303,36.60996809383973,1
2020-07-18,ブルーボトルコーヒー 京都木屋町カフェ,京都府,135.76973082925966,35.00605899877233,1
2020-07-17,HOLLY’S COFFEE イオン洛南店,京都府,135.7361272129565,34.97542588036485,1
2020-07-17,ドトールコーヒーショップ とかちプラザ店,北海道,143.2004308131287,42.917226979153405,1
2020-07-16,タリーズコーヒー キテミテマツド店,千葉県,139.8981447287226,35.78227236777478,1
2020-07-13,タリーズコーヒー高松赤十字病院店,香川県,134.04351582925884,34.34095899878302,1
2020-07-13,スターバックスコーヒー直江津店,新潟県,138.2376168292625,37.170965998742105,1
2020-07-11,スターバックスコーヒーよみうりランドグッジョバ!!店,東京都,-1,-1,1
2020-07-10,KOMEDA is □ 東銀座店,東京都,139.76778260271612,35.66794161641139,1
2020-07-10,上高地あずさ珈琲 橿原店,奈良県,135.80668208267093,34.52091374045111,1
2020-07-10,タリーズコーヒー コミュニティフードホール大阪日本橋店,大阪府,135.5060158903212,34.662335111663936,1
2020-07-10,タリーズコーヒー 東京ガーデンシアター店,東京都,139.79317382926058,35.638436998762764,1
2020-07-10,THERMOS COFFEE TO GO OOTEMORI,東京都,139.7650794744292,35.685571121980544,1
2020-07-09,珈琲所コメダ珈琲店 鈴鹿中央通り店,三重県,136.5708078292595,34.87543199877439,1
2020-07-09,タリーズコーヒーりんくうプレミアム・アウトレット店,大阪府,135.2941188292429,34.40537699878196,1
2020-07-09,スターバックスコーヒー ジャズドリーム長島店,三重県,136.7263725984485,35.029398308955535,1
2020-07-09,スターバックスコーヒー新宿中央公園 SHUKNOVA店,東京都,139.68968882924452,35.69106599876204,1
2020-07-08,帆季珈琲テラス 太田川店,愛知県,136.8991739326582,35.01846164914544,1
2020-07-07,むさしの森珈琲 新宿中央公園店,東京都,139.68942465059817,35.69150199818047,1
2020-07-05,townsfolk coffee,石川県,136.65106682926168,36.568414998749795,1
2020-07-03,スターバックスコーヒー ビバスクエア京都 梅小路公園店,京都府,135.74336265059682,34.987959998196054,1
2020-07-03,スターバックスコーヒー豊田住吉店,愛知県,137.12163707897307,35.0364085956234,1
2020-07-02,中珈琲（あたるこーひー）大和店,神奈川県,-1,-1,1
2020-07-02,うのまち珈琲店 岡山クレド店,岡山県,133.9265602129503,34.662741380444395,1
2020-06-30,星乃珈琲店 ソコラ武蔵小金井クロス店,東京都,139.50524071297087,35.69912738019015,1
2020-06-30,カフェカルディーノ 池袋ショッピングパーク店,東京都,139.71214253885464,35.729928171313084,1
2020-06-29,タリーズコーヒー富士山三島東急ホテル店,静岡県,138.9105278292598,35.12573999877048,1
2020-06-26,喫茶室ルノアール 池袋西口店,東京都,139.7082832129715,35.73105978018271,1
2020-06-26,スターバックスコーヒー泉南りんくう公園店,大阪府,135.26229464459868,34.3794509962804,1
2020-06-25,星乃珈琲店 栃木店, 木県,139.73492482924536,36.38768499875221,1
2020-06-25,珈琲所コメダ珈琲店 吉祥寺西口店,東京都,139.5774513194591,35.70330569266261,1
2020-06-24,IMPREST CAFE by anea cafe hatchobori,東京都,139.77476590562264,35.67514288019581,1
2020-06-24,タリーズコーヒーNEWoMan横浜店,神奈川県,139.6208249909326,35.46623701248919,1
2020-06-24,スターバックスコーヒー岡山青江店,岡山県,133.9176828292592,34.63730899877821,1
2020-06-23,ブルーボトルコーヒー NEWoMan YOKOHAMA カフェスタンド,神奈川県,139.6208249909326,35.46623701248919,1
2020-06-23,星乃珈琲店 北千住店,東京都,139.8035828292607,35.749484998761176,1
2020-06-22,スターバックスコーヒー横浜市役所 ラクシス フロント店,神奈川県,-1,-1,1
2020-06-20,スターバックスコーヒー CIAL 桜木町 ANNEX店,神奈川県,139.62824131583238,35.451488480248514,1
2020-06-19,スターバックスコーヒーイオンモール日の出2階店,東京都,139.27485675497778,35.7348354353471,1
2020-06-19,キーズカフェ イーアス沖縄豊崎店,沖縄県,127.65050430084293,26.15781799392214,1
2020-06-18,スターバックスコーヒー海南nobinos店,和歌山県,135.75713875715186,35.04497498034749,1
2020-06-18,葉山珈琲メタセコイアGARDEN店,滋賀県,136.0372833822142,35.4836529169834,1
2020-06-18,珈琲所コメダ珈琲店 上野広小路店,東京都,139.77278750562334,35.708703080187995,1
2020-06-18,タリーズコーヒーCIAL横浜店,奈川県,139.6228454914052,35.46744297045974,1
2020-06-17,ドトール珈琲店 多摩センター店,東京都,139.42526182926048,35.62302999876299,1
2020-06-17,タリーズコーヒーOtemachi One店,東京都,139.76203265828818,35.68772699504817,1
2020-06-17,タリーズコーヒー有明ガーデン店,東京都,139.79221407897563,35.63835799559096,1
2020-06-17,スターバックスコーヒー 金沢百番街Rinto店,石川県,136.64808262924558,36.57930399874972,1
2020-06-17,スターバックスコーヒー ニュウマン横浜店,神奈川県,139.6208249909326,35.46623701248919,1
2020-06-15,カフェ・ド・クリエ イーアス沖縄豊崎店,沖縄県,127.65050430084293,26.15781799392214,1
2020-06-15,メゾン・ド・ヴェール 有明ガーデン店,東京都,139.79221407897563,35.63835799559096,1
2020-06-15,スターバックスコーヒー新大久保駅店,東京都,139.7000583729885,35.70147129719346,1
2020-06-15,THERMOS COFFEE TO GO 西新橋スクエア,東京都,139.75423221297012,35.66914238019716,1
2020-06-14,タリーズコーヒー新宿住友ビル店,東京都,139.69208721297065,35.691212880192076,1
2020-06-13,さかい珈琲 宇都宮ゆいの杜店,栃木県,139.98233224839774,36.56724436349583,1
2020-06-13,オールプレス・エスプレッソ 虎ノ門,東京都,139.7488555729654,35.66679690805271,1
2020-06-12,タリーズコーヒー with U 箕面キューズモール店,大阪府,135.49003242925946,34.83216879877511,1
2020-06-12,珈琲所コメダ珈琲店 ワイヤーズホテル品川シーサイド店,東京都,139.74677482924437,35.606803998763255,1
2020-06-11,スターバックスコーヒー大同生命札幌ビル ミレド2階店,北海道,141.35091482925455,43.064618998696645,1
2020-06-11,スターバックスコーヒー大同生命札幌ビル ミレド地下1階店,北海道,141.35091482925455,43.064618998696645,1
2020-06-10,タリーズコーヒー神田スクエア店,東京都,139.76266930321438,35.693213483062905,1
2020-06-10,スターバックスコーヒー防府店,山口県,131.54613521903536,34.05169930651432,1
2020-06-09,麴町珈琲 江ノ島店,神奈川県,139.47979982926003,35.31002999876763,1
2020-06-08,タリーズコーヒー セレクト U_PLACE川越駅西口店,埼玉県,139.48060790328336,35.90572258227983,1
2020-06-08,スターバックスコーヒー北仲ブリック＆ホワイト,神奈川県,139.6347418292442,35.45095299876552,1
2020-06-07,ブルーボトルコーヒー 広尾カフェ,東京都,139.7219087929693,35.65060626341677,1
2020-06-05,タリーズコーヒー コースカベイサイドストアーズBOOK ＆ CAFE店,神奈川県,139.66181488153777,35.28293699838696,1
2020-06-05,Rametto coffee room,福岡県,130.442469829258,33.54976399879656,1
2020-06-04,珈琲所コメダ珈琲店 ヴィアイン広島新幹線口店,広島県,132.474268829259,34.3997559987821,1
2020-06-04,タリーズコーヒー＆TEA 御殿場プレミアム・アウトレットヒルサイド店,静岡県,138.96552682926009,35.30574299876773,1
2020-06-03,サンマルクカフェ 沼津アントレ店,静岡県,138.85986082925984,35.10266199877085,1
2020-06-03,ドトール珈琲農園 新横浜店,神奈川県,139.61500482926027,35.51015699876466,1
2020-06-03,スターバックスコーヒー奈良猿沢池店,奈良県,135.82965382925929,34.681755998777476,1
2020-06-02,サンマルクカフェ 富山駅店,富山県,137.21342982926186,36.70119399874808,1
2020-06-02,タリーズコーヒー御殿場プレミアム・アウトレットウエスト店,静岡県,138.962921829244,35.3078969987677,1
2020-06-02,スターバックスコーヒーパセオ野間大池店,福岡県,130.40614982925794,33.55412299879657,1
2020-05-31,ドトールコーヒーショップ・パシフィコ横浜ノース店,神奈川県,139.6352099158326,35.45761058024707,1
2020-05-29,珈琲所コメダ珈琲店ららぽーと豊洲店,東京都,139.79291582924446,35.655289998762534,1
2020-05-29,タリーズコーヒー京成日暮里駅店,東京都,139.77035882926063,35.72875799876143,1
2020-05-29,スターバックスコーヒー蔦屋書店 和歌山市民図書館店,和歌山県,135.16678882925876,34.236615998784735,1
2020-05-28,ドトールコーヒーショップ 原宿竹下口店,東京都,139.70257982926051,35.6714879987623,1
2020-05-25,スターバックスコーヒー千歳烏山店,東京都,139.60110082926053,35.66779699876234,1
2020-05-24,ST.MORITZ COFFEE STAND,愛知県,136.8887433056126,35.172426280315975,1
2020-05-19,コナズ珈琲 守山店,愛知県,137.01925639907512,35.191986149475426,1
2020-05-18,タリーズコーヒー大垣書店 ジ アウトレット広島店,広島県,132.3956441158117,34.40988178051011,1
2020-05-18,スターバックスコーヒー ちはら台モール店,千葉県,140.18030330315952,35.52371468370003,1
2020-05-17,little岡山,岡山県,133.91725918080908,34.665401880934965,1
2020-05-14,スターバックスコーヒーtheGreen千葉ニュータウン店,千葉県,140.1340731583209,35.81321049504095,1
2020-05-12,スターバックスコーヒー イオンモール高崎 2階店,群馬県,139.00456091585156,36.390490080035,1
2020-05-12,宇都宮珈琲,栃木県,139.9039055362255,36.54227784528753,1
2020-05-11,二足歩行coffee roasters.,東京都,139.6695925334851,35.64170992159443,1
2020-05-08,サンマルクカフェ 富山駅店,富山県,137.21413982926182,36.70087399874811,1
2020-05-07,スターバックスコーヒーららテラス 武蔵小杉店,神奈川県,139.65979080562064,35.575164480219215,1
2020-05-07,スターバックスコーヒーアクアウォーク大垣店,岐阜県,136.61511121583075,35.36988168026799,1
2020-05-07,スターバックスコーヒー三井アウトレットパーク 横浜ベイサイド店,神奈川県,139.64399961583095,35.37979178026578,1
2020-05-06,カフェ・ド・クリエ ホピタル 横浜市立市民病院,神奈川県,139.60438282926023,35.46888399876528,1
2020-05-06,スターバックスコーヒー アーバンドック ららぽーと豊洲3 地下1階店,東京都,139.79368482926049,35.65475199876254,1
2020-05-02,Warm Heart Coffeeウォームハートコーヒー,千葉県,140.0973147692657,35.70756347448316,1
2020-04-28,GOOD SOUND COFFEE（グッド サウンド コーヒー）,東京都,139.41043560793824,35.703529989301614,1
2020-04-18,スターバックスコーヒーWITH HARAJUKU店,東京都,139.7031592131526,35.67058973019679,1
2020-04-17,スターバックスコーヒー北大路ビブレ店,京都府,135.7560444158341,35.044974980347476,1
2020-04-17,スターバックスコーヒー愛西店,愛知県,136.76507182924436,35.12105099877056,1
2020-04-16,スターバックスコーヒー イーアス沖縄豊崎店,沖縄県,127.64886430084285,26.157199993922188,1
2020-04-16,スターバックスコーヒー北仲ブリック＆ホワイト店,神奈川県,139.63472082924474,35.45093999876558,1
2020-04-15,スターバックスコーヒー横手店,秋田県,140.55689338883718,39.30934160769674,1
2020-04-14,三本珈琲店 羽田空港第2ターミナル 国際線店,東京都,139.78677271584417,35.55069048022497,1
2020-04-14,スターバックスコーヒー筑波大学附属病院店,茨城県,140.1006506505998,36.09234799817209,1
2020-04-12,珈琲館 ホテルビスタプレミオ大阪本町店,大阪府,135.5071658292599,34.683690998777415,1
2020-04-12,珈琲館 アトレ竹芝店,東京都,139.76260411315238,35.65596048020027,1
2020-04-11,スターバックスコーヒー スノーピークランドステーション白馬店,長野県,137.8557908292463,36.698369998748085,1
2020-04-10,麴町珈琲ユニモちはら台店,千葉県,140.17029165828967,35.528013995057655,1
2020-04-09,タリーズコーヒー羽田空港第2ターミナル店,東京都,139.7878670571619,35.55069048022499,1
2020-04-09,スターバックスコーヒー theGreen千葉ニュータウン店,千葉県,140.13220665829115,35.813331995040855,1
2020-04-08,コナズ珈琲 太田店,群馬県,139.39375925555882,36.283957405284475,1
2020-04-08,珈琲所コメダ珈琲店 イオンモール高知店,高知県,133.54110500122735,33.5765686845235,1
2020-04-08,スターバックスコーヒーTSUTAYA BOOKSTORE 霧島店,鹿児島県,130.75356582924042,31.73754099883119,1
2020-04-07,KIHACHI FOOD HALL Coffee Bakes 新宿西口店,東京都,139.6989375898919,35.690891127518135,1
2020-04-07,タリーズコーヒー 熊本空港店,熊本県,130.85665323539035,32.834778794365214,1
2020-04-07,タリーズコーヒー ペリエ西千葉店,千葉県,140.1027298292611,35.62257499876299,1
2020-04-04,コナズ珈琲 三島店,静岡県,138.91205581314136,35.108708680331674,1
2020-04-04,スターバックスコーヒーららテラス 武蔵小杉店,神奈川県,139.65965401315074,35.575164480219165,1
2020-04-03,ビリオン珈琲 伏見桃山店,京都府,135.76579782926018,34.933107998773465,1
2020-04-02,サンマルクカフェ ララガーデン川口店,埼玉県,-1,-1,1
2020-04-02,KEY’S CAFÉ（キーズカフェ） 刈谷銀座店,愛知県,136.99066482924425,34.98745999877261,1
2020-04-02,KEY’S CAFÉ（キーズカフェ）霞ヶ関南病院店,埼玉県,139.4189128292614,35.901948998758975,1
2020-04-02,タリーズコーヒーOBPクリスタルタワー店,大阪府,135.52826151313317,34.69213538043681,1
2020-04-02,タリーズコーヒー獨協医科大学病院店,栃木県,139.82421238352302,36.472264994808285,1
2020-04-02,タリーズコーヒー早稲田大学研究開発センター店,東京都,139.7214668292612,35.707158998761756,1
2020-04-01,伊都岐珈琲,広島県,132.30453582924335,34.31158999878351,1
2020-04-01,はせがわ珈琲焙煎所,三重県,136.7976637315801,34.50497538355568,1
2020-03-31,カフェ・ド・クリエ ホピタル 藤田医科大学病院岡崎医療センター,愛知県,137.14959555831894,34.917713495094844,1
2020-03-31,ドトールコーヒーショップ 土岐プレミアムアウトレット店,岐阜県,137.16349941583996,35.34052508027512,1
2020-03-31,スターバックスコーヒー三井アウトレットパーク 横浜ベイサイド店,神奈川県,139.64610803339525,35.38012633770351,1
2020-03-31,タリーズコーヒー 神戸ピアザ 店,兵庫県,135.18815874966464,34.6901479648876,1
2020-03-30,丸山珈琲 伊勢丹新宿プラドエピスリー店,東京都,139.70437301315303,35.69157398019187,1
2020-03-30,ESPRESSO STAND PLATS,北海道,141.76224482927137,43.20439999869623,1
2020-03-30,星乃珈琲店 鳥取トリニティーモール店,鳥取県,134.19969199996996,35.521060584618134,1
2020-03-30,タリーズコーヒー白金高輪駅店,東京都,139.7339361292611,35.644589698762694,1
2020-03-30,スターバックスコーヒー鶴ヶ島若葉店,埼玉県,139.41168682924533,35.95162199875826,1
2020-03-29,サンマルクカフェ 大阪肥後橋店,大阪府,135.49622370579786,34.68990888043717,1
2020-03-29,サンマルクカフェ プラーレ松戸店,千葉県,139.90198451315487,35.78366158017054,1
2020-03-28,珈琲所コメダ珈琲店 福岡室見店,福岡県,130.34255941311193,33.58062603073681,1
2020-03-27,ドトールコーヒーショップ 博文堂国立店,東京都,139.4449728292613,35.69794499876188,1
2020-03-27,スターバックスコーヒー各務原蘇原店,岐阜県,136.84859938355822,35.4133917222393,1
2020-03-26,むさしの森珈琲 仙台富沢店,宮城県,140.86142132072192,38.21303099654392,1
2020-03-25,タリーズコーヒーシャポー市川店,千葉県,139.9072046286714,35.728604879454934,1
2020-03-25,スターバックスコーヒーTSUTAYA BOOKSTORE 菊陽店,熊本県,130.81234288153476,32.86328599844067,1
2020-03-25,スターバックスコーヒー奈良 蔦屋書店,奈良県,135.80314660525045,34.68310478328081,1
2020-03-24,星乃珈琲店 秋田店,秋田県,-1,-1,1
2020-03-23,スターバックスコーヒーJR京都駅 新幹線改札内店,京都府,135.75977190674394,34.984663905403416,1
2020-03-23,スターバックスコーヒー丸亀新田店,香川県,133.78424890564523,34.274477890087766,1
2020-03-23,スターバックスコーヒー羽田空港 蔦屋書店,東京都,139.78767431584407,35.549895980225216,1
2020-03-23,スターバックスコーヒー羽田空港第2ターミナル国際線ゲートエリア店,東京都,139.79173965828977,35.54880999505635,1
2020-03-21,KEY’S CAFÉ（キーズカフェ） 福岡吉塚店,福岡県,130.4196678292425,33.602250998795675,1
2020-03-21,ドトールコーヒーショップ ビバモール東松山店,埼玉県,139.40377866090213,36.0310970401524,1
2020-03-21,スターバックスコーヒー京王聖蹟桜ヶ丘SC店,東京都,139.4465578292611,35.65167299876256,1
2020-03-20,猿田彦珈琲 The Bridge 原宿駅店,東京都,139.70222982926117,35.67014499876232,1
2020-03-20,珈琲所コメダ珈琲店 丸井草加店,埼玉県,139.8038078292613,35.828892998760026,1
2020-03-20,珈琲所コメダ珈琲店 木津川城山台店,京都府,135.83233481313417,34.735493380425396,1
2020-03-19,タリーズコーヒー 日比谷シャンテ店,東京都,139.75966671315263,35.6730433801962,1
2020-03-19,スターバックスコーヒー信州善光寺仲見世通り店,長野県,138.18710872926238,36.65877079874866,1
2020-03-18,珈琲所コメダ珈琲店 尾道平原店,広島県,133.17804401943076,34.413097871081135,1
2020-03-18,スターバックスコーヒー敷島公園店,群馬県,-1,-1,1
2020-03-17,カフェ・ド・クリエ 広島紙屋町シャレオ店,広島県,132.45553901582116,34.39535628051401,1
2020-03-16,スターバックス コーヒー 利府街道店,宮城県,140.97613141320744,38.32731197966268,1
2020-03-15,ドトール珈琲農園 明石魚住店,兵庫県,134.9067680057048,34.70571483614595,1
2020-03-14,Cafe Renoir 早稲田駅前店,東京都,139.71914470581814,35.70654028018829,1
2020-03-14,タリーズコーヒー 日比谷シャンテ店,東京都,139.75939312926118,35.67304339876226,1
2020-03-13,支留比亜珈琲店 蓮華黒野店,岐阜県,-1,-1,1
2020-03-13,スターバックス コーヒー 高輪ゲートウェイ駅店,東京都,139.74333475054758,35.63782237455435,1
2020-03-13,スターバックスコーヒーTSUTAYA BOOKSTORE 弘前ヒロロ店,青森県,140.47957031595092,40.59752387934455,1
2020-03-13,スターバックスコーヒー新宿御苑店,東京都,139.71102851315283,35.68370708019371,1
2020-03-12,高倉町珈琲 名古屋北店,愛知県,136.91834874190008,35.20020576814135,1
2020-03-12,ISLAND STONE COFFEE ROASTERS,栃木県,139.8196684131713,36.596490079991106,1
2020-03-12,スターバックスコーヒーよみうりランドHANA・BIYORI店,東京都,139.5174851454718,35.62931763545296,1
2020-03-12,スターバックスコーヒー京都信用金庫本店ビル店,京都府,135.76372782781007,35.00342148035798,1
2020-03-11,THE LOCAL COFFEE STAND FUKUOKA,福岡県,-1,-1,1
2020-03-11,スターバックスコーヒー 松坂屋 高槻店,大阪府,135.6178258292601,34.85076199877473,1
2020-03-11,スターバックスコーヒー上越高田城址公園店,新潟県,138.25832402785232,37.10846637988611,1
2020-03-10,スターバックスコーヒー沼津花園店,静岡県,138.869123842658,35.12105687718599,1
2020-03-09,コナズ珈琲 堺店,大阪府,135.4750251853738,34.5215126552668,1
2020-03-09,スターバックスコーヒー エトモ綱島店,神奈川県,139.63372882926095,35.53652699876427,1
2020-03-09,スターバックスコーヒー 一宮木曽川店,愛知県,136.7718287116608,35.33620467968985,1
2020-03-08,ミアヴァート珈琲,東京都,139.78325370581734,35.67452528019587,1
2020-03-08,むさしの森珈琲 長野若里店,長野県,138.18894131586597,36.628423179984296,1
2020-03-07,珈琲所コメダ珈琲店 BRANCH博多パピヨンガーデン店,福岡県,130.4216058242555,33.60316122397512,1
2020-03-07,BILTMORE COFFEE（ビルトモア コーヒー）,愛媛県,132.76900692925898,33.836288298791544,1
2020-03-06,珈琲所コメダ珈琲店 神戸元町店,兵庫県,135.18729170579786,34.6886459804377,1
2020-03-06,ドトールコーヒーショップ 熊本医療センター店,熊本県,130.7006249277679,32.804189880963825,1
2020-03-06,スターバックスコーヒー芦屋モンテメール店,兵庫県,135.3072529131341,34.7346211804258,1
2020-03-06,スターバックスコーヒーさんすて岡山店,岡山県,133.91735744708967,34.6655494463484,1
2020-03-06,スターバックスコーヒー 日立シーマークスクエア店,茨城県,140.6766375789822,36.61708359554251,1
2020-03-05,上高地あずさ珈琲 伊川谷店,兵庫県,135.00230950579746,34.665674980443534,1
2020-03-04,さかい珈琲 江津,島根県,-1,-1,1
2020-03-04,珈琲所コメダ珈琲店 大野インター店,福井県,136.5101265534884,35.98716925654876,1
2020-03-02,ALOHA Coffee,愛知県,136.98794182926065,35.26030299876844,1
2020-02-29,ゆくるコーヒー,埼玉県,139.3321685058275,36.17982598008109,1
2020-02-27,コナズ珈琲 小平店,東京都,139.4974328292612,35.723164998761526,1
2020-02-27,タリーズコーヒー ウィングキッチン金沢八景店,神奈川県,139.61999482926072,35.33106999876734,1
2020-02-27,珈琲所コメダ珈琲店 マーケットスクエアささしま店,愛知県,136.88438922781302,35.16262298031839,1
2020-02-27,珈琲所コメダ珈琲店 駒沢公園店,東京都,139.65925691315172,35.622840680207936,1
2020-02-27,スターバックスコーヒー都営神保町駅店,東京都,139.7575498292612,35.69557999876192,1
2020-02-26,RE：Coffee,神奈川県,139.4011018292608,35.43091399876588,1
2020-02-25,星乃珈琲店 佐世保大和店,長崎県,129.75176035420822,33.156920480859064,1
2020-02-25,珈琲所コメダ珈琲店 イオンモール羽生店,埼玉県,139.5399446158561,36.142677080089385,1
2020-02-25,珈琲所コメダ珈琲店 福岡六本松店,福岡県,130.37858682925852,33.578429998796096,1
2020-02-25,珈琲所コメダ珈琲店 江坂駅前店,大阪府,135.49611282925997,34.757956998776265,1
2020-02-25,珈琲所コメダ珈琲店 もりのみやキューズモールBASE店,大阪府,135.5292758292599,34.6806809987775,1
2020-02-25,ドトールコーヒーショップ ビバモール甲斐敷島店,山梨県,138.53414143350412,35.679391983966575,1
2020-02-25,葉山珈琲 古川書店,三重県,136.67244621312935,34.49293828048852,1
2020-02-23,森の家珈琲店,愛知県,136.92039520580752,35.17806458031475,1
2020-02-22,TAILORED CAFE 麻布十番店,東京都,139.74127790581707,35.65476728020037,1
2020-02-21,スターバックスコーヒーアリオ西新井店,東京都,139.785297727022,35.774557127425176,1
2020-02-20,MARY STAND （メアリースタンド）,東京都,139.66612130581734,35.661473080198924,1
2020-02-18,スターバックスコーヒー阪急サン広場地下通り店,大阪府,135.4984558292599,34.70367599877712,1
2020-02-17,むさしの森珈琲 和泉府中店,大阪府,135.43040431312912,34.4803188804916,1
2020-02-14,コナズ珈琲 御殿場店,静岡県,138.9243370131453,35.30627848028343,1
2020-02-13,コーヒーと雑貨 UNO,京都府,135.70451800580446,35.02106668035352,1
2020-02-13,Direct coffe,京都府,135.76560882926026,35.0074159987723,1
2020-02-10,スターバックスコーヒー梅田エスト店,大阪府,135.50080778686822,34.70460901379245,1
2020-02-09,GLITCH COFFEE @ 9h NAGOYA,愛知県,136.8845418766303,35.17464831427653,1
2020-02-08,KEY’S CAFÉ（キーズカフェ）西武鷺ノ宮駅店,東京都,139.63952211315367,35.722629280184634,1
2020-02-07,ドトールコーヒーショップ オービック御堂筋ビル店,大阪府,135.50001582925998,34.687647998777386,1
2020-02-06,ドトールコーヒーショップ コモレ四谷店,東京都,139.728713650599,35.68759899818051,1
2020-02-05,スターバックスコーヒー虎ノ門ヒルズ ビジネスタワー店,東京都,139.74924882926118,35.668022998762325,1
2020-02-01,NOOICE food and coffee,福岡県,130.39887870577655,33.58443568073591,1
2020-01-21,KEY’S CAFE 西武鷺ノ宮駅店,東京都,139.6384218292612,35.72262399876153,1
2020-01-21,タリーズコーヒー四条烏丸 京都三井ビル店,京都府,135.75953182926037,35.004005998772406,1
2020-01-18,珈琲所コメダ珈琲店 函館ベイエリア店,北海道,140.7175328292693,41.767901998701994,1
2020-01-15,スターバックスコーヒー焼津八楠店,静岡県,138.31140682926014,34.87779799877433,1
2020-01-13,入母屋珈琲,千葉県,140.15610891525995,35.723858880184395,1
2020-01-09,珈琲館 祖師ヶ谷大蔵店,東京都,139.608794393418,35.64371798021659,1
2020-01-09,珈琲館 茅ケ崎今宿店,神奈川県,139.37940382924458,35.3337679987673,1
2020-01-08,スターバックスコーヒー イオンモール広島府中 3階店,広島県,132.49826141547007,34.394341997744874,1
2020-01-06,支留比亜珈琲店 大府柊山店,愛知県,136.9529893595006,35.0176175110308,1
2020-01-06,スターバックスコーヒー 京王新宿三丁目ビル店,東京都,139.7049768292612,35.690305998762035,1
2020-01-05,LIT COFFEE&TEA STAND,東京都,139.75190082926113,35.650854998762576,1
2020-01-03,星乃珈琲店 洛北阪急スクエア店,京都府,135.77874581409213,35.04111716744931,1
2019-12-27,カフェ・ド・クリエ ホピタル さいたま市立病院店,埼玉県,139.6785558292454,35.89067499875913,1
2019-12-23,KEY’S CAFÉ（キーズカフェ） 秋葉原SEEKBASE店,東京都,139.77320411315316,35.7013397801896,1
2019-12-21,KIX COFFEE,大阪府,135.50416382925997,34.708871998777035,1
2019-12-20,スターバックスコーヒーJR京都駅 新幹線中央口店,京都府,135.75981691313893,34.98470348036264,1
2019-12-19,ドトールコーヒーショップ スーパービバホーム橿原店,奈良県,135.77180082925972,34.508235998780286,1
2019-12-19,スターバックスコーヒー安曇野豊科店,長野県,137.91699782926187,36.301260998753406,1
2019-12-19,港屋珈琲 伊賀店,三重県,136.12675381313477,34.77617188041527,1
2019-12-16,KEY’S CAFÉ（キーズカフェ） アクロスモール新鎌ヶ谷店,千葉県,140.00084891315478,35.78072838017118,1
2019-12-16,KEY’S CAFÉ（キーズカフェ）BIG HOPガーデンモール印西店,千葉県,140.16143882924518,35.803124998760374,1
2019-12-16,カヤマ珈琲店,三重県,136.51880682924394,34.7360549987766,1
2019-12-16,シアトルズベストコーヒー 芦屋ラポルテ店,兵庫県,135.30745337845127,34.7352736354471,1
2019-12-16,AMAZING COFFEE TOKYO SHIBUYA,東京都,139.69676267955808,35.66202633872957,1
2019-12-15,MORIHICO.RENGA1909,北海道,142.3636348292722,43.76269999869487,1
2019-12-14,Roasted COFFEE LABORATORY / HI-CACAO CHOCOLATE STAND NEWoMan新宿店,東京都,139.70139705881022,35.68907292377212,1
2019-12-12,ドトール珈琲農園 ニトリ伏見向島店,京都府,135.7793668292441,34.91743199877372,1
2019-12-12,ブルーボトルコーヒー 京都六角カフェ,京都府,135.76061182926026,35.00742599877231,1
2019-12-12,星乃珈琲店 行徳店,千葉県,139.9147648292612,35.68270899876212,1
2019-12-12,DIGMOG COFFEE（ディグモグ・コーヒー）,新潟県,138.24346282926297,37.115624998742824,1
2019-12-10,星乃珈琲店 笠岡店,岡山県,133.50453782925965,34.50228299878038,1
2019-12-10,珈琲所コメダ珈琲店 沖縄宜野湾宇地泊店,沖縄県,127.73112582923467,26.270573998962988,1
2019-12-09,タリーズコーヒーTokyo Food Bar 成田空港店,千葉県,140.38784282924516,35.76295799876096,1
2019-12-08,CARAVAN COFFEE STAND,神奈川県,139.64982182926076,35.442287998765686,1
2019-12-07,珈琲所コメダ珈琲店 イオン上磯店,北海道,140.71171942795544,41.82180977922669,1
2019-12-06,猿田彦珈琲 下北沢店,東京都,139.66710952926104,35.66217219876244,1
2019-12-06,珈琲所コメダ珈琲店 松山大街道店,愛媛県,132.7691578292589,33.83999899879154,1
2019-12-05,タリーズコーヒー東急プラザ渋谷店,東京都,139.69966482924508,35.65776699876248,1
2019-12-05,タリーズコーヒーゆめタウン高松店,香川県,134.0408200284663,34.31699739901113,1
2019-12-05,スターバックスコーヒーあまがさきキューズモール店,兵庫県,135.43068482924386,34.733136998776615,1
2019-12-05,スターバックスコーヒー別府公園店,大分県,131.4932708292582,33.2814089988014,1
2019-12-04,スターバックスコーヒー ヨリマチFUSHIMI店,愛知県,136.89688382159602,35.168289998450085,1
2019-12-03,ドトールコーヒースーパービバホーム本庄店,埼玉県,139.18653465829334,36.243663995016725,1
2019-12-03,星乃珈琲店 巣鴨店,東京都,139.73839982926125,35.73404499876142,1
2019-12-03,珈琲所コメダ珈琲店 高田馬場駅前店,東京都,139.70260182926114,35.71386099876169,1
2019-12-03,スターバックスコーヒーIWATAYA本店新館店,福岡県,130.39708432250058,33.589308516408764,1
2019-12-01,REC COFFEE 水道橋店,東京都,139.75083840581812,35.701697580189645,1
2019-12-01,UZAWA COFFEE,北海道,141.58108683679504,42.88314692988926,1
2019-11-30,一里ヶ浜珈琲,千葉県,140.10075882926103,35.623918998762996,1
2019-11-29,スターバックスコーヒー小牧川西店,愛知県,136.90701207897624,35.28563999560982,1
2019-11-29,スターバックスコーヒー広島三越店,広島県,-1,-1,1
2019-11-29,スターバックスコーヒー旭川北彩都店,北海道,142.3609928292722,43.76114499869488,1
2019-11-29,ジロー珈琲南町田グランベリーパーク店,東京都,139.47017007897725,35.51024499559779,1
2019-11-28,星乃珈琲店 KITTE博多店,福岡県,130.41724351580586,33.588809380734396,1
2019-11-28,珈琲館 フレスト松井山手店,京都府,135.72606126701598,34.83293838447449,1
2019-11-28,カフェ・ド・クリエ クインテッサホテル東京銀座店,東京都,139.7686654505683,35.67014389893482,1
2019-11-28,ドトールコーヒーショップ 飯田橋ラムラ店,東京都,139.74426071615872,35.70157286533975,1
2019-11-28,スターバックスコーヒー大田原美原店,栃木県,140.00199882924665,36.86700999874593,1
2019-11-26,星乃珈琲店 名古屋タワーズプラザ店,愛知県,136.882127822564,35.1718203489027,1
2019-11-26,&COFFEE MAISON KAYSER 溝口店,神奈川県,139.6107915158451,35.59899018021358,1
2019-11-26,高倉町珈琲 川越店,埼玉県,139.50096412873108,35.92094556772428,1
2019-11-24,ドトール珈琲農園 町田店,東京都,139.430134829261,35.55945899876394,1
2019-11-23,コナズ珈琲 江南店,愛知県,136.8561045140963,35.333639867332785,1
2019-11-22,スターバックスコーヒー TSUTAYA BOOKSTORE 弥生台店,神奈川県,139.50626182924478,35.42888999876584,1
2019-11-22,スターバックスコーヒー ブランチ大津京店,滋賀県,135.86279364293813,35.02932699381112,1
2019-11-22,タリーズコーヒー ワイプラザ新保店,福井県,136.2487468292617,36.08793999875634,1
2019-11-21,倉式珈琲店 アリオ橋本店,神奈川県,139.34758061584506,35.59102028021542,1
2019-11-21,タリーズコーヒー金山総合駅店,愛知県,136.9009319287146,35.1433899680225,1
2019-11-21,Goodman Roaster Kyoto,京都府,135.75552180675285,35.0023790673168,1
2019-11-21,スターバックスコーヒーみよし店,愛知県,137.07382982926046,35.09370599877096,1
2019-11-20,ドトールコーヒーショップ JR広島駅新幹線店,広島県,132.47487429277874,34.3985549986329,1
2019-11-20,スターバックスコーヒーLINKS UMEDA 2階店,大阪府,135.4940659158274,34.70418978043367,1
2019-11-20,スターバックスコーヒーLINKS UMEDA 8階店,大阪府,135.4940659158274,34.70418978043367,1
2019-11-19,麴町珈琲 西武所沢店,埼玉県,139.47143862873222,35.78652176777272,1
2019-11-19,珈琲所コメダ珈琲店 千葉富士見店,千葉県,140.11697901408772,35.60985376723017,1
2019-11-19,珈琲所コメダ珈琲店 三原皆実店,広島県,133.0676599140736,34.394841417725175,1
2019-11-17,むさしの森珈琲 岡山中仙道店,岡山県,133.88489582925993,34.648419998777996,1
2019-11-16,さかい珈琲 フォレストモール木津川店,京都府,-1,-1,1
2019-11-15,スターバックスコーヒー渋谷パルコ店,東京都,139.69676267955808,35.66202633872957,1
2019-11-14,REC COFFEE 浄水テラス店,福岡県,130.3961132286999,33.57767906869561,1
2019-11-14,高倉町珈琲 大宮店,埼玉県,139.63705220676374,35.90145496695499,1
2019-11-10,タリーズコーヒー 南町田グランベリーパーク店,東京都,139.47015665828965,35.510815995058614,1
2019-11-09,スターバックスコーヒー LINKS UMEDA 地下1階店,大阪府,135.4940659158274,34.70418978043367,1
2019-11-07,スターバックスコーヒー新三田桜のこみち公園店,兵庫県,135.20545604549662,34.908966994278664,1
2019-11-06,麴町珈琲 新木場店,東京都,139.82684082926102,35.645119998762674,1
2019-11-06,スターバックスコーヒー 南町田グランベリーパーク店,東京都,139.47132430090323,35.51006799273754,1
2019-11-06,スターバックスコーヒー クリスタ長堀 ウエスト店,大阪府,135.49762498420813,34.675175997036014,1
2019-11-06,ANNA’S by Landtmann,東京都,139.70232915776882,35.65840260821517,1
2019-11-03,丸山珈琲 エキュートエディション渋谷店,東京都,139.70232915776882,35.65840260821517,1
2019-11-03,Urth Caffé 渋谷スクランブルスクエア店,東京都,139.70232915776882,35.65840260821517,1
2019-11-01,タリーズコーヒー渋谷スクランブルスクエア店,東京都,139.70232915776882,35.65840260821517,1
2019-11-01,タリーズコーヒー金沢八日市店,石川県,136.60810081410241,36.549468766875925,1
2019-11-01,スターバックスコーヒーJR新橋駅 汐留改札内店,東京都,139.7583798140914,35.66631226720295,1
2019-10-31,GESHARY COFFEE 日比谷店,東京都,139.76005582926118,35.673957998762276,1
2019-10-31,FLATWHITE COFFEE FACTORY仙台空港店,宮城県,140.92954182926428,38.13813699873099,1
2019-10-31,REAL DRIP COFFEE No.12 by上島珈琲店,東京都,139.70232915776882,35.65840260821517,1
2019-10-31,珈琲館 グランデュオ蒲田店,東京都,139.71506282924497,35.56243799876388,1
2019-10-31,珈琲館 蔵 深谷花園店,埼玉県,139.22902692873046,36.12001926765713,1
2019-10-31,星乃珈琲店 平和台店,東京都,139.6528228292612,35.757965998760994,1
2019-10-31,星乃珈琲店 福岡ソラリア店,福岡県,130.39879430674938,33.58902156794136,1
2019-10-31,タリーズコーヒー＆TEA センター南店,神奈川県,139.57423651408635,35.54550146724651,1
2019-10-31,スターバックスコーヒー鳥栖プレミアム・アウトレット店,佐賀県,130.51190888153565,33.40452999842772,1
2019-10-29,シアトルズベスト大阪天満橋OMM店,大阪府,135.5175098292438,34.690081998777316,1
2019-10-29,シアトルズベストコーヒー奈良さくら通り店,奈良県,135.8269088292599,34.68305499877744,1
2019-10-29,カフェ・ド・クリエ イオンモール与野店,埼玉県,139.61289951585115,35.89085898014599,1
2019-10-29,星乃珈琲店 松山椿店,愛媛県,132.77273860831343,33.80771994516831,1
2019-10-29,ドトールコーヒーショップ 日本橋馬喰町店,東京都,139.78185082926117,35.692698998761955,1
2019-10-29,スターバックスコーヒー渋谷フクラス店,東京都,139.6999488292611,35.657625998762505,1
2019-10-28,珈琲豆処 夢珈 別府店,大分県,131.50088860675208,33.28608316808911,1
2019-10-27,COFFEE STYLE UCC 下北沢店,東京都,139.66625782924496,35.66116699876244,1
2019-10-25,タリーズコーヒー大垣市民病院店,岐阜県,136.62186882924462,35.35339999876701,1
2019-10-25,スターバックスコーヒー シモキタエキウエ店,東京都,139.66653971408826,35.66125606720543,1
2019-10-25,スターバックスコーヒー 南御堂ビルディング店,大阪府,135.49970982925993,34.680594998777465,1
2019-10-25,スターバックスコーヒー アミュプラザ鹿児島 本館2階店,鹿児島県,130.54220702869802,31.584573269695678,1
2019-10-25,スターバックスコーヒー大同病院店,愛知県,136.90659982926036,35.07480699877127,1
2019-10-25,珈琲所コメダ珈琲店 テラスモール松戸店,千葉県,139.93233765829123,35.817940995040686,1
2019-10-24,Cafe＆Bar80s,大阪府,135.60638610789917,34.63253185074448,1
2019-10-24,スターバックスコーヒー横浜ハンマーヘッド店,神奈川県,139.64132202926083,35.45656719876543,1
2019-10-24,高倉町珈琲 つくば店,茨城県,140.10787011408985,36.07945196704959,1
2019-10-22,コナズ珈琲 浜松店,静岡県,137.76342482926,34.74213299877649,1
2019-10-19,倉式珈琲店 ファボーレ富山店,富山県,137.1706138041873,36.66174499729677,1
2019-10-18,コナズ珈琲 カラフルタウン岐阜店,岐阜県,136.73079682926075,35.362256998766895,1
2019-10-18,スターバックスコーヒーTSUTAYA BOOKSTORE テラスモール松戸店,千葉県,139.9327980789787,35.81768499558177,1
2019-10-17,ドトールキッチンEnejet館林SS店,群馬県,139.54210088154016,36.25997099836847,1
2019-10-17,スターバックスコーヒー淡路町駅前店,東京都,139.76708782926121,35.69571199876196,1
2019-10-15,ZEBRA Coffee & Croissant Yokohama,神奈川県,139.64185722386657,35.45452427143307,1
2019-10-12,珈琲所コメダ珈琲店 エルティ草津店,滋賀県,135.9610888292442,35.02114999877213,1
2019-10-12,珈琲所コメダ珈琲店 マルナカ四万十店,高知県,132.92517882925787,32.98015799880694,1
2019-10-11,スターバックスコーヒー新田町ビル店,東京都,139.74601982926112,35.64624099876263,1
2019-10-11,スターバックスコーヒー上小田井mozoワンダーシティ 4階店,愛知県,136.88238007897604,35.224568995613076,1
2019-10-10,コンフォート スタンド（COMFORT STAND）,東京都,139.75691482926106,35.661498998762426,1
2019-10-09,アラキ珈琲,群馬県,139.09165280677163,36.39458036677548,1
2019-10-09,珈琲所コメダ珈琲店 ライフガーデン水巻店,福岡県,130.68890565828158,33.87141899516384,1
2019-10-09,珈琲所コメダ珈琲店 大阪メトロ今里北口店,大阪府,135.5429628292599,34.67165399877763,1
2019-10-07,タリーズコーヒー ららぽーと沼津店,静岡県,138.83961772871865,35.11834296803343,1
2019-10-04,エレファントコーヒー 朝倉街道店,福岡県,130.5313558292585,33.484770998797785,1
2019-10-04,カフェ・ド・クリエ JR岐阜駅前,岐阜県,136.75786991408938,35.41095006730117,1
2019-10-02,珈琲所コメダ珈琲店 ららぽーと沼津店,静岡県,138.83961772871865,35.11834296803343,1
2019-10-01,星乃珈琲店  ekie広島店,広島県,132.4759509816671,34.398751806293554,1
2019-10-01,青い森珈琲焙煎所,青森県,140.77547540592695,40.82557547931971,1
2019-10-01,COFFEEFACTORY START UP CAFE,茨城県,140.10812482926158,36.08509099875638,1
2019-10-01,コーヒー屋 パラディーゾ,山形県,-1,-1,1
2019-10-01,スタンダードコーヒー 青山,東京都,139.72414582926106,35.672551998762295,1
2019-09-30,BECK’S COFFEE SHOP(ベックスコーヒーショップ) 西日暮里店,東京都,139.76634282924516,35.732163998761386,1
2019-09-29,むさしの森珈琲 市原更級公園店,千葉県,140.0995468292609,35.50977199876464,1
2019-09-29,カレーと珈琲 シモンフッド,群馬県,138.78246182926185,36.21240999875462,1
2019-09-27,スターバックスコーヒー 道の駅しもつけ店,栃木県,139.88306582924596,36.396264998752116,1
2019-09-27,EVERY COFFEE 大阪肥後橋店,大阪府,135.49589882925991,34.689930998777356,1
2019-09-27,珈琲所コメダ珈琲店 練馬土支田店,東京都,139.6160197286215,35.76618648738364,1
2019-09-27,珈琲所コメダ珈琲店 寝屋川南店,大阪府,135.62425882926,34.75232599877634,1
2019-09-27,スターバックスコーヒーららぽーと沼津店,静岡県,138.83961772871865,35.11834296803343,1
2019-09-26,Beasty Coffee［cafe laboratory］,東京都,139.69184550675854,35.66602126704864,1
2019-09-26,コナズ珈琲 茅ヶ崎店,神奈川県,139.3876708292607,35.32761199876738,1
2019-09-26,むさしの森珈琲 札幌北野店,北海道,141.43518821415006,43.013087665466124,1
2019-09-26,猿田彦珈琲 誠品生活日本橋店,東京都,139.77227282926103,35.687909998762024,1
2019-09-25,LUSH LIFE COFFEE(ラッシュライフコーヒー),香川県,134.04824300675313,34.33163526759948,1
2019-09-25,エクセルシオール カフェ 神田北口店,東京都,139.77052460676418,35.69239556704313,1
2019-09-25,ドトールコーヒーショップ スーパービバホーム小田原国府津店,神奈川県,139.1974437628144,35.280397993547865,1
2019-09-24,タリーズコーヒー岩手医大病院店,岩手県,141.16234065831117,39.61509299486653,1
2019-09-24,スターバックスコーヒーJR難波駅前店,大阪府,135.4955504287168,34.66659926821946,1
2019-09-24,スターバックスコーヒー日テレプラザ店,東京都,139.7596768292612,35.6646449987624,1
2019-09-21,珈琲西武 西新宿店,東京都,139.69772182926116,35.694595998761926,1
2019-09-20,タリーズコーヒーKAIYODO 大丸心斎橋店,大阪府,135.50033982924384,34.67318599877763,1
2019-09-20,スターバックスコーヒー舞浜 イクスピアリ2F トレイダーズ・パッセージ店,千葉県,139.884426829245,35.63507899876284,1
2019-09-20,スターバックスコーヒー東別院店,愛知県,136.90281231217756,35.15132290283191,1
2019-09-20,スターバックスコーヒー コレド室町テラス店,東京都,139.7722463140916,35.687827667194426,1
2019-09-19,コーヒーとおやつの店 andMore,宮城県,141.0199659542179,38.31633419034421,1
2019-09-19,スターバックスコーヒー京急百貨店6階店,神奈川県,139.59630741409424,35.40906776730512,1
2019-09-19,スターバックスコーヒーリンクスクエア新宿店,東京都,139.7025028292611,35.68637499876206,1
2019-09-18,Hayama cafe,神奈川県,139.6341488292607,35.381152998766574,1
2019-09-18,上高地あずさ珈琲八尾店,大阪府,135.60662182925986,34.625879998778366,1
2019-09-18,スターバックスコーヒー ザ・ブラッサム博多プレミア店,福岡県,-1,-1,1
2019-09-17,GRANNY SMITH APPLE PIE & COFFEE 二子玉川店,東京都,139.62623782924504,35.61430599876312,1
2019-09-17,倉式珈琲店 イトーヨーカドー昭島店,東京都,139.35997611584747,35.714106180186505,1
2019-09-17,スターバックスコーヒー堺東中央線店,大阪府,135.4856032966229,34.58030849175834,1
2019-09-17,スターバックスコーヒー恵那店,岐阜県,137.41758280174042,35.446701987621225,1
2019-09-15,KEY COFFEE Club since1920 サクラマチクマモト店,熊本県,130.70308782924158,32.80052689881029,1
2019-09-14,星乃珈琲店 イオンモール高岡店,富山県,137.01180165829578,36.724731994991124,1
2019-09-13,カフェ・ベローチェ川口栄町三丁目店,埼玉県,139.7181338292613,35.80431699876038,1
2019-09-13,スターバックスコーヒー成田空港第2ターミナルサテライト店,千葉県,140.39098251584844,35.774518280172764,1
2019-09-13,スターバックスコーヒーTSUTAYA BOOKSTORE 宮交シティ店,宮崎県,131.41852507896206,31.89520999582326,1
2019-09-13,スターバックスコーヒー広島パルコ店,広島県,132.46239221407933,34.39218526773079,1
2019-09-10,上島珈琲店 東京理科大学野田キャンパス店,千葉県,139.90749082924535,35.91870499875871,1
2019-09-06,Hawaiian Ka’us CAFE,大阪府,135.50480662925986,34.658276598777825,1
2019-09-06,スターバックスコーヒーゆめタウン高松 東館3階店,香川県,134.04179358532943,34.31589299453784,1
2019-09-06,スターバックスコーヒーサクラマチ 熊本店,熊本県,130.70302932070356,32.800321996762165,1
2019-09-05,スターバックスコーヒー三条東新保店,新潟県,138.961989878738,37.618530967155195,1
2019-09-05,スターバックスコーヒー倉敷笹沖店,岡山県,133.76145512921266,34.570730536750204,1
2019-09-03,スターバックスコーヒー イクスピアリ2F トレイダーズ・パッセージ店,千葉県,139.8844650179375,35.6340559880013,1
2019-09-03,スターバックス リザーブ(R)ストア 銀座マロニエ通り,東京都,139.76737570676352,35.672196767046586,1
2019-09-02,九重珈琲 筑紫野店,福岡県,-1,-1,1
2019-08-29,スターバックスコーヒー甲府平和通り店,山梨県,138.56692782926106,35.63650899876282,1
2019-08-29,スターバックスコーヒー渋谷cocoti店,東京都,139.7020538292611,35.66198499876247,1
2019-08-28,串カツ田中 国立店,東京都,139.44806682926117,35.69724599876194,1
2019-08-28,珈琲所コメダ珈琲店 利府店,宮城県,140.9744336619679,38.3240562381868,1
2019-08-28,ドトールコーヒーショップ 千葉大学医学部附属病院店,千葉県,140.13102682924495,35.60361199876325,1
2019-08-28,スターバックスコーヒー福井春江店,福井県,136.22352988154,36.13418399837074,1
2019-08-24,むさしの森珈琲 沼津香貫店,静岡県,138.86773071408965,35.08548476743834,1
2019-08-24,むさしの森珈琲 三鷹牟礼店,東京都,139.58564182926114,35.68313399876212,1
2019-08-24,むさしの森珈琲 岡崎竜美丘ガーデンプレイス店,愛知県,137.17616982926017,34.9461729987733,1
2019-08-23,ドトールコーヒーショップ イオンモール苫小牧店,北海道,141.64300659640253,42.65650872466364,1
2019-08-22,TOCOMA coffee & meal,大分県,131.1851512292586,33.602258298795675,1
2019-08-21,スターバックスコーヒー上田中央店,長野県,138.25785921409306,36.407367366927666,1
2019-08-16,スターバックスコーヒー成田空港第2ターミナル到着ロビー北店,千葉県,-1,-1,1
2019-08-15,ブルーボトルコーヒー 銀座カフェ,東京都,139.76175281584642,35.66973168019711,1
2019-08-14,Roasted COFFEE LABORATORY 名古屋ラシック店,愛知県,136.90744271407968,35.16753806740004,1
2019-08-13,スターバックスコーヒー沖縄アブロうるま店,沖縄県,127.8543920228549,26.343524998787963,1
2019-08-10,帆季珈琲（ホキコーヒー）テラス 中部国際空港セントレア店,愛知県,136.8132203158304,34.85882198039416,1
2019-08-10,珈琲所コメダ珈琲店 長崎諫早店,長崎県,130.06169223178495,32.83279006375451,1
2019-08-09,セガフレード・ザネッティ・エスプレッソ ダブルツリーbyヒルトン沖縄北谷リゾート店,沖縄県,127.75370121403515,26.317412672483464,1
2019-08-07,珈琲所コメダ珈琲店 太田藤阿久店,群馬県,139.3538434154744,36.29456499769177,1
2019-08-05,上高地あずさ珈琲 姫路手柄店,兵庫県,134.677869518364,34.81762950589011,1
2019-08-03,シナボン・シアトルズベストコーヒー アミュプラザ博多店,福岡県,130.42025349070352,33.59041678519395,1
2019-08-02,ドトールコーヒーショップ 埼玉病院店,埼玉県,139.61837842872694,35.776875167782094,1
2019-08-02,スターバックスコーヒー イオンモール東浦 東浦中ドオリ店,愛知県,136.97198921583268,34.97875048036409,1
2019-08-02,スターバックスコーヒー新宿ミロード5階店,東京都,139.69933982924513,35.68935099876202,1
2019-08-01,コナズ珈琲 池田店,大阪府,135.42148635293177,34.84744737411323,1
2019-08-01,星乃珈琲店 イオンモール熱田店,愛知県,136.90671821583595,35.13718688032475,1
2019-08-01,TOCOMA coffee&meal,大分県,131.18538982925853,33.60210499879566,1
2019-07-31,珈琲所コメダ珈琲店 宮崎橘通店,宮崎県,131.42278182925665,31.9155229988275,1
2019-07-30,KEY’S CAFÉ（キーズカフェ） 東関東自動車道酒々井PA店,千葉県,140.28408482926125,35.709733998761784,1
2019-07-29,むさしの森珈琲 北九州青山店,福岡県,130.75246480417988,33.85867999738885,1
2019-07-29,タリーズコーヒー東京警察病院店,東京都,139.65881202871725,35.70912096780399,1
2019-07-26,カフェ・ド・クリエ ビバモール寝屋川店,大阪府,135.65007865059738,34.76635199820121,1
2019-07-25,Pharmacy Coffee Lab,愛知県,136.91180150675893,35.156234667248995,1
2019-07-25,ハニー珈琲西新プラリバ店,福岡県,130.35926882925864,33.583444998796004,1
2019-07-24,スターバックスコーヒー函館五稜郭駅前店,北海道,140.73463832878102,41.803912466242956,1
2019-07-24,スターバックスコーヒー小平天神店,東京都,139.4934418292612,35.73066099876143,1
2019-07-23,スターバックスコーヒー ペリエ千葉5階店,千葉県,140.11150711633002,35.61289877402667,1
2019-07-23,スターバックスコーヒー 一宮富士店,愛知県,136.81852282926062,35.30219999876782,1
2019-07-23,倉敷珈琲店 ファッションクルーズひたちなか店,茨城県,140.58509482924597,36.404911998751984,1
2019-07-22,スターバックスコーヒー那須ガーデンアウトレット店,栃木県,139.99086436072025,36.965574595572015,1
2019-07-21,ブルーボトルコーヒー京都六角ポップアップストア,京都府,135.7610843291012,35.00735739043303,1
2019-07-21,スターバックスコーヒー TSUTAYA伊勢丘店,広島県,133.4227932927789,34.50262899863097,1
2019-07-20,道後 白鷺珈琲,愛媛県,132.78455782925886,33.85069599879132,1
2019-07-18,ネスカフェスタンド 阪急 武庫之荘店,兵庫県,135.39239722925996,34.75166669877633,1
2019-07-18,ブルーボトルコーヒー 恵比寿カフェ,東京都,139.70942546551794,35.64708363458752,1
2019-07-18,【開店】KEY’S CAFÉ（キーズカフェ） アンビー熊本店,熊本県,130.78487382924166,32.880956998808806,1
2019-07-18,コナズ珈琲 幕張店,千葉県,140.01554765829047,35.66279199504965,1
2019-07-17,高倉町珈琲 新潟笹口店,新潟県,139.06892277873825,37.909659167068135,1
2019-07-17,タリーズコーヒー キュープラザ池袋店,東京都,139.71584082926128,35.73092299876142,1
2019-07-17,スターバックスコーヒー 荻窪タウンセブン店,東京都,139.61901222872217,35.70507446780441,1
2019-07-17,スターバックスコーヒー プリンチ 代官山T-SITE,東京都,139.6996435292611,35.64956849876262,1
2019-07-13,スターバックスコーヒーTSUTAYA 駅家店,広島県,133.31867111408133,34.54267186766505,1
2019-07-12,スターバックスコーヒー ブランチ札幌月寒店,北海道,141.40957882927108,43.029107998696745,1
2019-07-11,珈琲所コメダ珈琲店 沖縄北谷58号店,沖縄県,127.75541394185032,26.325278638821477,1
2019-07-11,KEY’S CAFÉ（キーズカフェ） イオン仙台中山店,宮城県,140.8259256524806,38.29821823846309,1
2019-07-10,さかい珈琲 大田店,島根県,132.5011838321042,35.20461781364671,1
2019-07-10,スターバックスコーヒー新宿2丁目店,東京都,139.70691882926118,35.68953199876205,1
2019-07-08,ネスカフェ スタンド せんげん台店,埼玉県,139.77418201251703,35.935886259907136,1
2019-07-07,LOCO MARINO COFFEE（ロコマリーノコーヒー）,静岡県,138.8559984158349,35.083816080337876,1
2019-07-06,スターバックスコーヒー東京駅エキュート京葉ストリート店,東京都,139.76494291584666,35.679912980194736,1
2019-07-05,倉式珈琲店 シエロ町田店,東京都,139.449667614088,35.54176946724544,1
2019-07-05,ドトールコーヒーショップ フジグラン東広島店,広島県,132.74710531582156,34.40822248051063,1
2019-07-05,タリーズコーヒー ステアーズオブザシー 金ヶ浜店,宮崎県,131.62146982925717,32.35912699881877,1
2019-07-04,すなば珈琲 新鳥取駅前店,鳥取県,134.22652382926083,35.495104998764866,1
2019-07-04,スターバックスコーヒー道の駅グランテラス筑西店,茨城県,139.993084829262,36.32285299875311,1
2019-07-01,タリーズコーヒー東京医科大学病院店,東京都,139.69159780418468,35.694035997325635,1
2019-06-29,コメダ珈琲店 箕面桜ケ丘店,大阪府,135.45535466408117,34.82454166754427,1
2019-06-29,コメダ珈琲店 讃岐こくぶんじ店,香川県,133.96065182925955,34.29454699878383,1
2019-06-27,コメダ珈琲店 讃岐こくぶんじ店,香川県,133.961109014083,34.29450566777359,1
2019-06-27,スターバックスコーヒー雷門店,東京都,139.79600140676794,35.71132716702744,1
2019-06-27,TOM’S COFFEE,神奈川県,139.66339610675516,35.58209706707991,1
2019-06-26,猿田彦珈琲 アトレ秋葉原1店,東京都,139.7715218292451,35.69846899876187,1
2019-06-26,猿田彦珈琲 池袋店,東京都,139.71050521409714,35.72662666717769,1
2019-06-26,ドトールコーヒーショップ シャポー市川店,千葉県,139.90757526079537,35.72882943520689,1
2019-06-25,さかい珈琲 大田店,島根県,132.50083741408275,35.20465946738495,1
2019-06-24,MAGAZINE COFFEE KYOTO,京都府,135.75752324948942,34.98582772124622,1
2019-06-24,スターバックスコーヒー流山おおたかの森運動公園店,千葉県,139.918965206762,35.86429966696871,1
2019-06-23,上島珈琲店 サンエー浦添西海岸PARCO CITY店,沖縄県,127.69794106642964,26.262191549410343,1
2019-06-22,タリーズコーヒー ゆめタウン光の森店,熊本県,130.78356504897474,32.86013839510767,1
2019-06-21,コメダ珈琲店シャポー市川店,千葉県,139.90757526079537,35.72882943520689,1
2019-06-21,タリーズコーヒー エディオン広島本店西館店,広島県,132.45632311408244,34.395210067723006,1
2019-06-21,スターバックスコーヒー シャポー市川店,千葉県,139.90757526079537,35.72882943520689,1
2019-06-20,スターバックスコーヒー浦添西海岸パルコシティ店,沖縄県,127.69715020577422,26.26170499828972,1
2019-06-17,カフェ・ド・クリエ 岡山北長瀬店,岡山県,133.88437361582655,34.652846180446815,1
2019-06-11,上高地あずさ珈琲 宝塚店,兵庫県,135.35503352925997,34.808137398775465,1
2019-06-09,タリーズコーヒー阪急梅田駅3F店,大阪府,135.4978095364785,34.70529158483078,1
2019-06-07,タリーズコーヒー渋谷ソラスタ店,東京都,139.69634382926105,35.65657599876248,1
2019-06-06,niko and … COFFEE(ニコアンドコーヒー)  京都寺町,京都府,135.7662561292603,35.00597929877231,1
2019-06-05,タリーズコーヒー阪急宝塚店,兵庫県,135.34083495955997,34.810504777961214,1
2019-06-03,倉式珈琲店 ボーノ相模大野店,神奈川県,139.43258116584366,35.53121298022947,1
2019-06-03,淡路坂珈琲 お茶の水店,東京都,139.76765082926113,35.69843499876189,1
2019-06-01,ドトールコーヒーショップ 東久留米東口店,東京都,139.53430982926122,35.760786998761006,1
2019-05-31,星乃珈琲店 フェスタ姫路店,兵庫県,134.69067131407564,34.82820236754692,1
2019-05-31,コメダ珈琲店 青森イトーヨーカドー店,青森県,140.74682261562734,40.800857579322425,1
2019-05-31,スターバックスコーヒー エディオンなんば店,大阪府,135.50123382925983,34.665807998777694,1
2019-05-30,コメダ珈琲店 北九州戸畑店,福岡県,130.82884140163972,33.89194151340287,1
2019-05-29,コメダ珈琲店 イオンモールかほく店,石川県,136.70084982924635,36.70906199874797,1
2019-05-29,星乃珈琲店 新堀川店,愛知県,136.9107354067605,35.14491516725824,1
2019-05-28,スターバックスコーヒー鹿児島マルヤガーデンズ店,鹿児島県,130.55672251405917,31.590920469103743,1
2019-05-27,カフェ・ド・クリエ 築地聖路加通り店,東京都,139.7733155566193,35.66836746876905,1
2019-05-27,タリーズコーヒー 多治見駅前店,岐阜県,137.11988782926068,35.33646119876725,1
2019-05-25,タリーズコーヒー小出店,新潟県,138.97635011409974,37.228613166646724,1
2019-05-24,スターバックスコーヒー川崎ルフロン店,神奈川県,139.69452701584373,35.52946948022988,1
2019-05-23,コメダ珈琲店 イオンモール盛岡南店,岩手県,141.12653411558284,39.68366400781823,1
2019-05-22,カフェ・ド・クリエ ホピタル 京都医療センター店,京都府,135.77363082926016,34.95382899877318,1
2019-05-20,むさしの森珈琲 北本店,埼玉県,139.53778951409333,36.02902946706588,1
2019-05-20,マックカフェ バイ バリスタ福井若杉店,福井県,136.1875920414054,36.05742414090766,1
2019-05-15,エクセルシオール カフェ 横浜中華街店,神奈川県,139.64750621409024,35.44408676729028,1
2019-05-11,KEY’S CAFÉ（キーズカフェ）七戸十和田店,青森県,141.15288566258695,40.71989738359094,1
2019-05-11,KEY’S CAFÉ（キーズカフェ）TSUTAYA砺波店,富山県,136.95812631409413,36.636038066844435,1
2019-05-10,スターバックスコーヒー学園都市キャンパススクェア店,兵庫県,135.05676965059718,34.682716998203155,1
2019-05-08,前田珈琲 マンガミュージアム店,京都府,135.75741381583333,35.01163108035585,1
2019-05-06,スターバックスコーヒー富岡店,群馬県,138.9001969658605,36.26290761655609,1
2019-05-01,珈琲屋 シエル,愛知県,136.71481682926057,35.22268199876896,1
2019-04-30,コメダ珈琲店 京都伏見稲荷店,京都府,135.77044982926026,34.967779998772926,1
2019-04-30,星乃珈琲店 五反田店,東京都,139.72611510676032,35.625857367067006,1
2019-04-30,星乃珈琲店 イオンモール橿原店,奈良県,135.7598101158237,34.504941180485254,1
2019-04-30,スターバックスコーヒー長岡七日町店,新潟県,138.806818678734,37.446005717215456,1
2019-04-30,スターバックスコーヒー大分トキハ本店,大分県,131.60756682925813,33.23668099880225,1
2019-04-27,タリーズコーヒー アトレ亀戸店,東京都,139.82407841539182,35.69783273666844,1
2019-04-27,タリーズコーヒー青森空港店,青森県,140.68800640794854,40.73826101899807,1
2019-04-26,タリーズコーヒー 川崎ルフロン店,神奈川県,139.69452701584373,35.52946948022988,1
2019-04-25,倉式珈琲店 ベルクスタウン草加谷塚店,埼玉県,139.7892446287252,35.808263267764474,1
2019-04-25,HONEY COFFEE 天神ショッパーズ福岡店,福岡県,130.39810784583932,33.5935641751526,1
2019-04-24,ドトールコーヒーショップ アスティ大垣店,岐阜県,136.61560101584044,35.36677608026893,1
2019-04-24,カフェ・ド・クリエ ホピタル 小牧市民病院店,愛知県,136.91689101408946,35.28734466735141,1
2019-04-24,カフェ・ド・クリエ イケディア池田店,大阪府,135.4245326252669,34.82153846653605,1
2019-04-22,星乃珈琲店 八戸城下店,青森県,141.4908858292675,40.523444998709564,1
2019-04-22,倉式珈琲店 イオンタウン郡山店,福島県,140.3882917141077,37.39139436659504,1
2019-04-22,カフェ・ド・クリエ リーブル イオンモール松本店,長野県,137.97794221410382,36.234039266986805,1
2019-04-21,星乃珈琲店 アクロス八尾店,大阪府,135.62036691582543,34.60461108045935,1
2019-04-21,高倉町珈琲 高岡店,富山県,136.993610175853,36.74575237872143,1
2019-04-21,タリーズコーヒー イトーヨーカドー大船店,神奈川県,139.5377943287226,35.35398516794565,1
2019-04-20,ROBERT’S COFFEE（ロバーツ コーヒー） 千歳烏山店,東京都,139.5998502140824,35.66839686720171,1
2019-04-19,星乃珈琲店 ららぽーと横浜店,神奈川県,139.56566312872366,35.51726306787629,1
2019-04-19,スターバックスコーヒー福岡空港国内線ターミナル3階店,福岡県,130.44574891580606,33.59660638073228,1
2019-04-19,スターバックスコーヒーTSUTAYA 南古谷店,埼玉県,139.51172371121564,35.90593552402062,1
2019-04-19,スターバックスコーヒー阪急西宮ガーデンズ店,兵庫県,135.35707601582823,34.7438238804234,1
2019-04-18,カフェ・ド・クリエ プラス 沖縄アウトレットモールあしびなー店,沖縄県,127.65647525349858,26.15889871586751,1
2019-04-18,スターバックスコーヒー イオンモール東久留米店,東京都,139.52706782926128,35.74506099876122,1
2019-04-18,スターバックスコーヒー 黒崎駅店,福岡県,130.7656942927779,33.86685599864304,1
2019-04-18,スターバックスコーヒー ルミネ池袋9階店,東京都,139.70884882926123,35.728758998761435,1
2019-04-18,スターバックスコーヒー本厚木ミロード店,神奈川県,139.36326882924484,35.43968099876574,1
2019-04-17,星乃珈琲店 イオンモール福岡伊都店,福岡県,130.25603401580554,33.5774037807377,1
2019-04-16,コメダ珈琲店上越妙高駅前店,新潟県,138.24562582924688,37.081107998743235,1
2019-04-16,スターバックスコーヒー ニッケコルトンプラザ ツムグテラス店,千葉県,139.93242872924515,35.71682599876161,1
2019-04-16,スターバックスコーヒー博多駅前ビジネスセンター店,福岡県,130.41716982925854,33.58922399879593,1
2019-04-15,カフェ・ド・クリエ イオンモール東浦,愛知県,136.97198921583268,34.97875048036409,1
2019-04-15,コメダ珈琲店 博多バスターミナル店,福岡県,130.41759721580598,33.5915196807338,1
2019-04-14,自家焙煎珈琲のお店 橙 (daidai),長崎県,129.93464411406956,33.025411668362956,1
2019-04-13,タリーズコーヒー サンシャイン60展望台店,東京都,139.71830046409153,35.72872579250503,1
2019-04-13,タリーズコーヒー サンシャイン水族館店,東京都,139.71912215829067,35.72871879504586,1
2019-04-13,Roasted COFFEE LABORATORY 青山店,東京都,139.70882220676498,35.662703667045214,1
2019-04-13,むさしの森珈琲 宇都宮八幡山公園店,栃木県,139.8862713141005,36.57457536687135,1
2019-04-13,むさしの森珈琲 高崎問屋町店,群馬県,139.0151209838255,36.34901731697502,1
2019-04-12,コメダ珈琲店 イオンモール名取店,宮城県,140.8936247158981,38.163726579690454,1
2019-04-12,スターバックスコーヒー TSUTAYA 瀬戸店,愛知県,137.05599982926057,35.20697099876926,1
2019-04-12,スターバックスコーヒー イオンモール名取店,宮城県,140.89392761589804,38.1638572796905,1
2019-04-11,タリーズコーヒー新潟中央インター店,新潟県,139.03869381411172,37.87693046644973,1
2019-04-10,タリーズコーヒー西小山駅店,東京都,139.6987501067583,35.61567416706621,1
2019-04-10,スターバックスコーヒー フレスポ佐久インター店,長野県,138.4806398292619,36.28407999875364,1
2019-04-08,スターバックスコーヒー北名古屋店,愛知県,136.8836548766144,35.24246049580858,1
2019-04-05,星乃珈琲店 高田馬場店,東京都,139.7052928292612,35.71326199876171,1
2019-04-05,スターバックスコーヒー 福島矢野目店,福島県,140.45213482926388,37.788724998734814,1
2019-04-05,スターバックスコーヒー 表参道ヒルズ店,東京都,139.70866231409786,35.667353967202466,1
2019-04-04,スターバックスコーヒー石巻バイパス店,宮城県,141.28686653475035,38.4399209966683,1
2019-04-04,スターバックスコーヒー諫早多良見店,長崎県,129.96898551407025,32.819357168462524,1
2019-04-03,THE FARM TOKYO,東京都,139.76913101409428,35.67985166719591,1
2019-04-03,タリーズコーヒー町田モデイ店,東京都,139.44302211584395,35.5431785802267,1
2019-04-02,麴町珈琲 東大店,東京都,139.76397182926132,35.71200799876169,1
2019-04-01,ドトールコーヒーショップ 関越病院店,埼玉県,139.38656682926143,35.94953699875829,1
2019-03-31,izumi-cafe イズミカフェ,愛知県,136.91530310675407,35.17742596724464,1
2019-03-31,MAMEBACO（マメバコ）,京都府,135.75897570675437,35.01750846730661,1
2019-03-30,Nanohana CoffeeRoaster,千葉県,140.11448882926092,35.52672099876446,1
2019-03-29,倉式珈琲店 エイスクエア草津店,滋賀県,135.95936182926033,35.02587914877202,1
2019-03-29,倉式珈琲店 イトーヨーカドー赤羽店,東京都,139.71705681584885,35.77717648017193,1
2019-03-29,スターバックスコーヒー福山多治米店,広島県,133.3768633800688,34.46713335566859,1
2019-03-29,スターバックスコーヒー松井山手欽明台店,京都府,135.71836782926005,34.834613998775026,1
2019-03-28,コナズ珈琲 東浦和店,埼玉県,139.6926762300962,35.87845909267306,1
2019-03-27,コナズ珈琲 福山店,広島県,-1,-1,1
2019-03-27,LATTE BEANS & ROASTERS etomo あざみ野店,神奈川県,139.55246172926104,35.567931898763824,1
2019-03-27,LATTE BEANS & ROASTERS 自由が丘本店,東京都,139.670962429261,35.60587309876328,1
2019-03-27,タリーズコーヒーウィング上大岡店,神奈川県,139.59439231584113,35.409067780258795,1
2019-03-27,スターバックスコーヒー八戸根城店,青森県,141.46489382926748,40.502955998709695,1
2019-03-26,ESPRESSO＆BAKERY(エスプレッソ＆ベーカリー）,大阪府,135.24209237572381,34.43607868056253,1
2019-03-26,むさしの森珈琲 太宰府向佐野店,福岡県,130.49534782925858,33.50749299879738,1
2019-03-25,カフェ・ド・クリエ 光明池駅店,大阪府,135.47496682925967,34.47493999878084,1
2019-03-25,シアトルズベストコーヒー別府駅店,大分県,131.50099485816864,33.27948270387739,1
2019-03-22,高倉町珈琲 前橋店,群馬県,139.0911651172026,36.38784722712688,1
2019-03-21,鴨谷珈琲店,秋田県,140.12876882925036,39.71705199871579,1
2019-03-21,BARREL COFFEE BAUM(バレルコーヒーバーム),新潟県,139.06123382043148,37.923174851021614,1
2019-03-21,ブルーボトルコーヒー 池袋カフェ,東京都,139.71359910676125,35.72765956701939,1
2019-03-21,タリーズコーヒー イーサイト上尾店,埼玉県,139.5862179158526,35.97341898012725,1
2019-03-20,町家カフェ 太郎茶屋鎌倉 大牟田店,福岡県,130.4291925613151,33.01491782281258,1
2019-03-20,町家カフェ 太郎茶屋鎌倉 尼崎店,兵庫県,135.42223182925994,34.721401998776884,1
2019-03-20,コメダ珈琲店 大野城乙金店,福岡県,130.49584613839778,33.54627894691193,1
2019-03-20,コメダ珈琲店 明石駅前店,兵庫県,134.9941726919406,34.647954543714896,1
2019-03-20,コメダ珈琲店 北九州三郎丸店,福岡県,130.8888568292589,33.86583299879108,1
2019-03-20,タリーズコーヒー名古屋空港店,愛知県,136.9174991158383,35.253749580296265,1
2019-03-18,星乃珈琲店 大山店,東京都,139.70283282926124,35.74895299876121,1
2019-03-18,ドトールコーヒーショップ 那覇空港店,沖縄県,127.64843691567948,26.206212483436893,1
2019-03-18,スターバックスコーヒー早稲田大学戸山キャンパス店,東京都,139.71646530605085,35.70583899852748,1
2019-03-15,alt.coffee roasters（オルト コーヒーロースターズ）,京都府,135.74726660675444,35.00986126731025,1
2019-03-15,コメダ珈琲店 呉市役所前店,広島県,132.56629482925936,34.24841899878456,1
2019-03-15,コメダ珈琲店 千葉東寺山店,千葉県,140.12750920676322,35.62573736706638,1
2019-03-15,タリーズコーヒー近鉄奈良店,奈良県,135.78302411582723,34.69510788043588,1
2019-03-15,スターバックスコーヒー沖縄本部町店,沖縄県,127.8828643060389,26.681947998753387,1
2019-03-15,BRYANT COFFEE（ブライアントコーヒー）,東京都,139.7496829152595,35.70359518018902,1
2019-03-15,SUMIDA COFFEE,東京都,139.8136183158471,35.69649788019071,1
2019-03-13,スターバックスコーヒー犬山梅坪店,愛知県,136.9514088519358,35.375161689292625,1
2019-03-13,スターバックスコーヒー京都BAL店,京都府,135.76937928657506,35.00689376674898,1
2019-03-12,コメダ珈琲店大崎古川店,宮城県,140.956089327333,38.58187414191124,1
2019-03-12,ドトールコーヒーショップ 清恵会病院店,大阪府,135.47451671408388,34.57101466764324,1
2019-03-12,スターバックスコーヒーTSUTAYA BOOKSTORE 八王子オーパ店,東京都,139.33756582926108,35.65502599876253,1
2019-03-11,スターバックスコーヒー那覇空港国内線ゲート内店,none,127.64949865824872,26.206471995859214,1
2019-03-11,スターバックスコーヒー柏崎穂波町店,新潟県,138.56088462926326,37.360684698739824,1
2019-03-10,MAX CAFE マックスカフェ大阪本町店,大阪府,135.50245072925986,34.680872898777494,1
2019-03-09,スターバックスコーヒー錦糸町パルコ店,東京都,139.8155334140914,35.69649786719527,1
2019-03-08,スターバックスコーヒー 葉山店,神奈川県,139.59606774456083,35.287214591490624,1
2019-03-08,スターバックスコーヒー クロスモール富田林店,大阪府,135.5984266582846,34.488108995122474,1
2019-03-06,スターバックスコーヒー エミオ練馬店,東京都,139.65225911935062,35.73785155143151,1
2019-03-05,スターバックスコーヒー飯能メッツァビレッジ店,埼玉県,139.3291268292614,35.87219499875939,1
2019-03-04,スターバックスコーヒー門司港駅店,福岡県,130.96109800424344,33.944773266105145,1
2019-03-02,むさしの森珈琲 奈良中登美ケ丘店,奈良県,135.74579127925992,34.722685748776776,1
2019-03-01,スターバックスコーヒー カインズ熊谷籠原店,埼玉県,139.3271201836403,36.17992199751012,1
2019-03-01,タリーズコーヒー ルクア イーレ 5F店,大阪府,135.4928073158272,34.70311428043394,1
2019-02-28,ドトールコーヒーショップ 札幌東橋店,北海道,141.3781968292711,43.06594599869663,1
2019-02-27,コナズ珈琲 津藤方店,三重県,136.51324381408224,34.6882418676015,1
2019-02-27,ドトールコーヒーショップ パシフィコ横浜店,神奈川県,139.63410050828938,35.46001754506168,1
2019-02-27,ドトールコーヒーショップ 青物横丁店,東京都,139.74243882926106,35.61021799876317,1
2019-02-26,タリーズコーヒー ルミネエスト新宿店,東京都,139.69896088001317,35.691323680288875,1
2019-02-26,コメダ珈琲店 水沢台町店,岩手県,141.15256057875067,39.13060391674774,1
2019-02-25,コナズ珈琲 水戸店,茨城県,140.41971212873648,36.35680416756573,1
2019-02-25,倉式珈琲店 ヨシヅヤ津島本店,愛知県,136.74649112872262,35.175379468009766,1
2019-02-22,ドトールコーヒーショップ 姫路みゆき通り店,兵庫県,134.69137610675946,34.82819186738794,1
2019-02-22,スターバックスコーヒー美濃加茂新池店,岐阜県,137.02444082926087,35.452330998765554,1
2019-02-21,STARBUCKS RESERVE(R) ROASTERY TOKYO,東京都,139.6926554996731,35.649085864073264,1
2019-02-21,スターバックスコーヒー岡山中仙道店,岡山県,133.88967982925982,34.64591599877802,1
2019-02-20,イワモトコーヒー,長崎県,129.79788182925805,33.13697199880404,1
2019-02-20,コメダ珈琲店 高松東店,香川県,134.08987632925948,34.336096998783084,1
2019-02-20,スターバックスコーヒー名古屋パルコ 西館店,愛知県,136.90722734253427,35.16351026868294,1
2019-02-18,シアトルズベストコーヒー天神昭和通り店,福岡県,130.39665382925858,33.59220099879584,1
2019-02-16,スターバックスコーヒー ビーンズ中山店,神奈川県,139.5395840729046,35.51456155680083,1
2019-02-15,スターバックスコーヒー京阪京橋駅片町口店,大阪府,135.53003882925992,34.69625499877725,1
2019-02-14,コナズ珈琲 成城店,東京都,139.5916091140904,35.65282276720412,1
2019-02-12,コメダ珈琲店 横手ハッピータウン店,秋田県,140.55330963326853,39.314597597800606,1
2019-02-08,Greenberry’s COFFEE FOOD HALL BLAST! OSAKA店,大阪府,135.4997579067548,34.6679734674532,1
2019-02-08,Greenberry’s COFFEE FOOD HALL BLAST! TOKYO店,東京都,139.69960279631252,35.68750538573928,1
2019-02-05,coffee and vintage nido,北海道,142.37406131415946,43.76156456541739,1
2019-02-05,スターバックスコーヒー つくば学園の森店,茨城県,140.07400182924556,36.088796998756294,1
2019-02-04,HAMAMOTO COFFEE ゆめタウン下松店,山口県,131.8606623158142,34.01860718061503,1
2019-02-01,コメダ珈琲店 横浜ランドマークプラザ店,神奈川県,139.63083805805283,35.45493109804036,1
2019-02-01,シアトルズベストコーヒーBiVi福岡店,福岡県,130.40260571407123,33.58509686809247,1
2019-02-01,タリーズコーヒー ウニクス野田店,千葉県,139.8495068292454,35.945500998758334,1
2019-02-01,coffee shop HONANO,福井県,136.18727782926146,35.93722299875846,1
2019-01-31,タリーズコーヒー &TEA 博多駅マイング店,福岡県,130.42032657437633,33.59023801443058,1
2019-01-31,ドトールコーヒーショップ 北野病院店,大阪府,135.50630582924387,34.705139998777064,1
2019-01-30,KEY’S CAFÉ（キーズカフェ）ポンテポル タ千住店,東京都,139.793117915848,35.742474080180045,1
2019-01-30,シアトルズベストコーヒー小倉魚町店,福岡県,130.87812151581176,33.88444808065191,1
2019-01-29,サンマルクカフェ 静岡伊勢丹前店,静岡県,138.38109482926023,34.975300998772845,1
2019-01-29,ドトールコーヒーショップ 蒲田アロマスクエア店,東京都,139.717632829261,35.56106299876389,1
2019-01-29,喫茶ニューポピー,愛知県,136.89236382926046,35.175686998769706,1
2019-01-26,むさしの森珈琲 松戸新田店,千葉県,139.92258782926132,35.79209799876054,1
2019-01-26,麹町珈琲 流山おおたかの森店,千葉県,139.92407054298064,35.87316299787299,1
2019-01-26,星乃珈琲店 倉敷中庄店,岡山県,133.80304882925984,34.629983998778336,1
2019-01-25,星乃珈琲店 熊谷店,埼玉県,139.4060928292617,36.13421599875566,1
2019-01-24,上高地あずさ珈琲 大和高田店,奈良県,135.74474424175958,34.52689910739376,1
2019-01-24,珈琲屋らんぷ 豊橋牛川店,愛知県,137.41432482926,34.78134999877589,1
2019-01-24,スターバックスコーヒー イオンモール綾川店,香川県,133.92881531581867,34.25166588055236,1
2019-01-22,スターバックスコーヒー川越伊勢原店,埼玉県,139.4271948292454,35.921815698758714,1
2019-01-17,WHITE GLASS COFFEE（ホワイト グラス コーヒー）,東京都,139.69974770676367,35.65591116705455,1
2019-01-17,むさしの森珈琲 流山おおたかの森店,千葉県,139.9320257067644,35.87426276696531,1
2019-01-17,コメダ珈琲店 新居浜店,愛媛県,133.28631134355416,33.95246708312923,1
2019-01-16,コメダ珈琲店 入間新光店,埼玉県,139.3521808292614,35.859009998759575,1
2019-01-16,スターバックスコーヒー KITTE丸の内店,東京都,139.7647796610859,35.6796189898344,1
2019-01-12,さかい珈琲Premium 函南店,静岡県,138.9380508292604,35.07729199877122,1
2019-01-11,LEAVES COFFEE ROASTERS,東京都,139.79767460676084,35.70269716703631,1
2019-01-10,福田珈琲店,兵庫県,134.88281780675376,34.71135806743598,1
2019-01-10,コメダ珈琲店 サンリブわさだ店,大分県,131.569883829242,33.18541299880317,1
2019-01-07,艮珈琲店（うしとらこーひーてん） ‏,青森県,141.1543185141005,41.399361865658655,1
2018-12-25,タリーズコーヒーいわき市医療センター店,福島県,140.86721709305633,37.04088366743733,1
2018-12-21,ドトールコーヒーショップ イオンタウン釜石店,岩手県,141.87982608544996,39.27157332407286,1
2018-12-19,ドトールコーヒーショップ 京都四条河原町店,京都府,135.76857717034898,35.004049998778356,1
2018-12-17,コメダ珈琲店 東雁来店,北海道,141.4313790541976,43.09674311718887,1
2018-12-15,星乃珈琲店 郡山店,福島県,140.36044682375314,37.410594992447024,1
2018-12-15,コメダ珈琲店 葛西南口店,東京都,139.8733323710858,35.66186786714821,1
2018-12-14,KEY’S CAFÉ（キーズカフェ）犬吠テラステラス店,千葉県,140.8659772268631,35.708075314259936,1
2018-12-14,SUBSTANCE,福島県,140.34917712229938,37.130814768661615,1
2018-12-14,ドトールコーヒーショップ ビビット南船橋店,千葉県,139.9909591800131,35.68734538028986,1
2018-12-13,むさしの森珈琲 札幌二十四軒店,北海道,141.3133129227231,43.07725927058393,1
2018-12-13,京都キョーワズ珈琲 BRANCH松井山手店,京都府,135.7260147098188,34.83437703167682,1
2018-12-12,星乃珈琲店 目白店,東京都,139.70500917035005,35.72196999876762,1
2018-12-12,スターバックスコーヒー羽田空港第1ターミナル THE HANEDA HOUSE5階店,東京都,139.78367866621144,35.54829841726034,1
2018-12-11,BALLOON COFFEE,東京都,139.6983531703499,35.66160199876846,1
2018-12-11,星乃珈琲店 伊勢崎店,群馬県,139.20081876781265,36.311593749346336,1
2018-12-11,星乃珈琲店 キャナルシティ博多店,福岡県,130.40961950791916,33.589585977461354,1
2018-12-11,ドトールコーヒーショップ 会津中央病院店,福島県,139.94294618005665,37.52193297990514,1
2018-12-10,倉式珈琲店 イオンモール富士宮店,静岡県,138.6097993793842,35.22047496280723,1
2018-12-10,コメダ珈琲店 倉吉店,鳥取県,133.84589147109128,35.450446967228196,1
2018-12-10,FLAP COFFEE （フラップコーヒー）,三重県,136.52619857998738,34.564872280565176,1
2018-12-07,タリーズコーヒー東福原店,鳥取県,133.3489262930369,35.446178768003996,1
2018-12-06,ブルーボトルコーヒー 神田万世橋カフェ,東京都,139.76975679578894,35.69715043600824,1
2018-12-06,コメダ珈琲店 アリオ八尾店,大阪府,135.603640879989,34.632843480547734,1
2018-12-06,星乃珈琲店 練馬西口店,東京都,139.65280107109692,35.73701776711817,1
2018-12-06,タリーズコーヒー with U 小田急百貨店町田店,東京都,139.44294243000977,35.54394978032334,1
2018-12-06,スターバックスコーヒー渋谷ストリーム店,東京都,139.7027071703338,35.65716999876854,1
2018-12-05,サンマルクカフェ 小田急マルシェ大和店,神奈川県,139.45949868000818,35.46934898034097,1
2018-12-03,喫茶室ルノアール 新宿中央東口店,東京都,139.70293247109217,35.69099066713782,1
2018-12-01,VELUDO(ヴェルード) COFFEE-KAN,東京都,139.70080767841668,35.66122446730532,1
2018-11-30,日乃屋カレー×ラバール店,鳥取県,133.24291088000865,35.500609780333626,1
2018-11-29,タリーズコーヒー東京商工会議所ビル店,東京都,139.7607371703338,35.678078998768264,1
2018-11-28,エクセルシオール カフェ 神谷町店,東京都,139.7445953784176,35.66251456730387,1
2018-11-28,スターバックスコーヒー藤枝高柳店,静岡県,138.26387317034875,34.850101998780794,1
2018-11-27,タリーズコーヒー 日本生命浜松町クレアタワー店,東京都,139.75509317033388,35.65646899876857,1
2018-11-27,スターバックスコーヒー ムスブ田町4階店,東京都,139.746856680012,35.644848980299834,1
2018-11-27,スターバックスコーヒー ムスブ田町2階店,東京都,139.746856680012,35.644848980299834,1
2018-11-23,倉式珈琲店 イオンタウン川西店,兵庫県,135.41660102744498,34.85598899655125,1
2018-11-23,タリーズコーヒー トナリエ大和高田店,奈良県,135.74354364692945,34.51869937927268,1
2018-11-23,コメダ珈琲店 長崎浜町店,長崎県,129.87765317034584,32.74438199881722,1
2018-11-23,スターバックスコーヒー熊本駅店,熊本県,130.68666367994817,32.79049498106109,1
2018-11-22,タリーズコーヒー住友不動産麻布十番ビル店,東京都,139.73972468001224,35.653963980297604,1
2018-11-22,倉式珈琲 相鉄ライフ三ツ境店,神奈川県,139.50289937841552,35.46792886737246,1
2018-11-22,珈琲家暖香 刈谷港店,愛知県,136.9851741845793,34.9786920227554,1
2018-11-21,Ralph’s Coffee Omotesando（ラルフズ コーヒー 表参道）,東京都,139.70669817034988,35.6679969987684,1
2018-11-21,コメダ珈琲店 狸小路2丁目店,北海道,141.3547141703491,43.05747897860695,1
2018-11-21,パン工房 KAWA 御所店・川珈琲店 御所,奈良県,135.73135447998516,34.47102658058956,1
2018-11-20,スターバックスコーヒー小田急アコルデ新百合ヶ丘北館店,神奈川県,139.50722419303867,35.60451606793885,1
2018-11-19,上高地あずさ珈琲 三田けやきプラザ店,兵庫県,135.18759894379806,34.90734639589599,1
2018-11-19,SCHOOL BUS COFFEE STOP KYOTO,京都府,135.76852117034895,35.015645998778204,1
2018-11-18,サンマルクカフェ 横浜ワールドポーターズ店,神奈川県,139.63631948000776,35.45433428034452,1
2018-11-15,コナズ珈琲 垂水店,兵庫県,135.07261782922703,34.66585799877771,1
2018-11-15,スターバックスコーヒーTSUTAYA 相鉄ライフ三ツ境店,神奈川県,139.50262042860797,35.46792886789555,1
2018-11-15,スターバックスコーヒーくみまちMALL新座店,埼玉県,139.54663387847728,35.80585241468926,1
2018-11-14,& coffee maison kayser ムスブ田町店,東京都,139.74675068001198,35.644811980299735,1
2018-11-14,珈琲屋らんぷ 中川二女子店,愛知県,136.87916551893719,35.14349369116318,1
2018-11-14,コメダ珈琲店 足利朝倉店,栃木県,139.44408234155722,36.32034835081226,1
2018-11-14,スターバックスコーヒー 江別 蔦屋書店,北海道,141.53851879064229,43.1149179926622,1
2018-11-14,スターバックスコーヒー TSUTAYA BOOKSTORE 東雲店,東京都,139.80276317033375,35.64209279876875,1
2018-11-14,スターバックスコーヒー TSUTAYA マークイズ 福岡ももち店,福岡県,130.3623863025732,33.59217340970775,1
2018-11-14,スターバックスコーヒー マークイズ福岡ももち店,福岡県,130.3623863025732,33.59217340970775,1
2018-11-12,コメダ珈琲店 イオン明石SC2番街店,兵庫県,134.93640377840316,34.67986676769731,1
2018-11-09,おおきにコーヒー 京阪 くずは駅中店,大阪府,135.67489417033266,34.86200699878059,1
2018-11-09,カフェ・ド・クリエ フレスポ鳥栖店,佐賀県,130.51672699302642,33.37613286888503,1
2018-11-09,シアトルズベストコーヒー大分駅前店,大分県,131.6057441703464,33.23417499880814,1
2018-11-09,タリーズコーヒー東京スクエアガーデン店,東京都,139.7666189799582,35.675956537965114,1
2018-11-08,越戸珈琲,栃木県,139.92409217035126,36.57009499875593,1
2018-11-07,スターバックスコーヒー鶴岡店,山形県,139.82901491224763,38.73605635393949,1
2018-11-03,さかい珈琲 小野店,兵庫県,134.93622545161688,34.857677897094476,1
2018-11-02,ほりかわ珈琲店,神奈川県,139.18630347099133,35.37966914105409,1
2018-11-02,タリーズコーヒー 帯広厚生病院店,北海道,143.17898868016738,42.92002497925533,1
2018-11-02,スターバックスコーヒーイオン釧路店,北海道,144.4025687801164,43.00910380195953,1
2018-11-01,タリーズコーヒー京都大学病院店,京都府,135.77723949294835,35.01974556139024,1
2018-10-31,コメダ珈琲店 ビエラ明舞店,兵庫県,135.0260964208449,34.65232443491405,1
2018-10-31,コメダ珈琲店 イオンモール津南店,三重県,136.5152749793398,34.67106144207654,1
2018-10-31,スターバックスコーヒー静岡草薙店,静岡県,138.43530167994524,34.996568374917835,1
2018-10-30,さかい珈琲 天理店,奈良県,135.83624190573153,34.595740948688075,1
2018-10-30,スターバックスコーヒーイオンモール津南店,三重県,136.5152749793398,34.67106144207654,1
2018-10-29,ドトールコーヒーショップ イオン北小金店,千葉県,139.93066102223466,35.83268191788618,1
2018-10-26,スターバックスコーヒー静岡中原店,静岡県,138.38725417034564,34.958223097908395,1
2018-10-25,タリーズコーヒー  草加ヴァリエ店,埼玉県,139.80300489301547,35.829562267860624,1
2018-10-25,スターバックスコーヒー吉祥寺パルコ店,東京都,139.57777757832184,35.703740523437595,1
2018-10-25,スターバックスコーヒーミント神戸店,兵庫県,135.1949387220869,34.694409181373636,1
2018-10-24,コメダ珈琲店 盛岡みたけ店,岩手県,141.12245656549928,39.74365564858491,1
2018-10-23,コメダ珈琲店 宇和島店,愛媛県,132.5548987709807,33.20517135671075,1
2018-10-22,カフェ・ド・クリエ 相模大野ステーションスクエア,神奈川県,139.43691008020863,35.531926540985516,1
2018-10-18,前川珈琲 光の森合志店,熊本県,130.78055697098944,32.869110474028,1
2018-10-17,タリーズコーヒー那覇空港店,沖縄県,127.64844227980053,26.206217296534604,1
2018-10-17,スターバックスコーヒーJR池袋駅 西口店,東京都,139.70824702743886,35.731084827422244,1
2018-10-16,スターバックスコーヒー桜新町店,東京都,139.64299617034703,35.63162499876893,1
2018-10-16,スターバックスコーヒー なんばスカイオ 10階店,大阪府,135.500927,34.66373,1
2018-10-12,スターバックスコーヒー仙台パルコ店,宮城県,140.8794632798896,38.26209519184417,1
2018-10-11,DRIP&DROP COFFEE SUPPLY 銀閣寺店,京都府,135.7916272395086,35.02753102555143,1
2018-10-11,ToBoRu Coffee（トボルコーヒー）,神奈川県,139.53545560962633,35.312359707850696,1
2018-10-10,コメダ珈琲店 大塚南口店,東京都,139.72750817034657,35.73047408744022,1
2018-10-10,コメダ珈琲店 佐倉王子台店,千葉県,140.18398717034657,35.72646408749505,1
2018-10-10,スターバックスコーヒーなんばスカイオ 3階店,大阪府,135.49956327993883,34.6636648928038,1
2018-10-07,MORIHICO. 藝術劇場,北海道,141.35515176852476,43.063106066952365,1
2018-10-06,ひかるコーヒー,東京都,139.68251267099654,35.72889532189981,1
2018-10-05,スターバックスコーヒー中部国際空港セントレアFLIGHT OF DREAMS店,愛知県,136.8165017672115,34.85510152147686,1
2018-10-05,N G S COFFEE,長崎県,129.87108877098058,32.753647979947566,1
2018-10-04,シアトルズベストコーヒーゆめタウン廿日市店,広島県,132.33331877993288,34.34619020972442,1
2018-10-04,星乃珈琲店 宮崎店,宮崎県,131.45407659070693,31.930757714884766,1
2018-10-02,タリーズコーヒー伊丹空港店,大阪府,135.44121603889806,34.79096777108022,1
2018-10-01,タリーズコーヒー大手町プレイス 3階店,東京都,139.76660182924294,35.6868540880307,1
2018-10-01,スターバックスコーヒー大阪高島屋 地階西ゾーン店,大阪府,135.49979717034532,34.66426510184103,1
2018-09-29,ドトールコーヒーショップ 茅場町店,東京都,139.7791041703465,35.679531088136834,1
2018-09-29,星乃珈琲店 ららぽーと名古屋みなとアクルス店,愛知県,136.88069867984413,35.109892368796366,1
2018-09-28,コメダ珈琲店 四条大宮店,京都府,135.74969067844958,35.00378406749153,1
2018-09-28,タリーズコーヒー西鉄福岡天神駅店,福岡県,130.39875297842926,33.590015768189275,1
2018-09-26,タリーズコーヒー ニューコースト新浦安店,千葉県,139.9206797800747,35.642923980300274,1
2018-09-26,ネスカフェ スタンド 大和田店,大阪府,135.6023100908315,34.742999940824994,1
2018-09-25,SANWA COFFEE WORKS(サンワコーヒーワークス)　ルクアイーレ店,大阪府,135.49397117033882,34.70271610132828,1
2018-09-25,タリーズコーヒー 大手町プレイス2階店,東京都,139.76660182924294,35.6868540880307,1
2018-09-25,スターバックスコーヒー エトモ祐天寺店,東京都,139.68913431563928,35.63764998020442,1
2018-09-21,スターバックスコーヒー館林朝日町店,群馬県,139.5403721703423,36.25195099876019,1
2018-09-21,スターバックスコーヒー明石魚住店,兵庫県,134.90665968011328,34.70508198052923,1
2018-09-20,コメダ珈琲店 鶴岡南店,山形県,139.84454995784907,38.71699426939935,1
2018-09-20,スターバックスコーヒーイオンモール甲府昭和3階店,山梨県,138.52630405781133,35.623020470315595,1
2018-09-20,スターバックスコーヒー名古屋スパイラルタワーズ店,愛知県,136.88550151403007,35.16814196739805,1
2018-09-20,町屋カフェ 太郎茶屋 鎌倉みよし店,愛知県,137.09429831402497,35.075700967435395,1
2018-09-19,タリーズコーヒー札幌HTB創世スクエア店,北海道,141.35309568028384,43.06290097924809,1
2018-09-19,スターバックスコーヒー名古屋みなと 蔦屋書店,愛知県,136.88191631566366,35.109100980331746,1
2018-09-19,スターバックスコーヒーららぽーと名古屋みなとアクルス店,愛知県,136.88069867984413,35.109892368796366,1
2018-09-18,珈琲屋 うず,東京都,139.6645503710258,35.66574392537252,1
2018-09-18,スターバックスコーヒー阪神甲子園駅前店,兵庫県,135.36194617033377,34.723632101049134,1
2018-09-18,スターバックスコーヒー大手町プレイス店,東京都,139.7663897685182,35.68683718639122,1
2018-09-18,スターバックスコーヒー日本橋高島屋Ｓ.Ｃ.店,東京都,139.77359860332263,35.681074271088924,1
2018-09-14,スターバックスコーヒー武生中央公園店,福井県,136.15873217036253,35.90052099876506,1
2018-09-14,スターバックスコーヒー イオンモールむさし村山１階店,東京都,139.38280808021142,35.74674568027595,1
2018-09-13,コメダ珈琲店 松山道後店,愛媛県,132.77044382925038,33.85261399879128,1
2018-09-12,B.Factory （ビーファクトリー）,愛媛県,132.7640431703456,33.83649711275931,1
2018-09-11,コメダ珈琲店 松原商店街店,神奈川県,139.60558020657908,35.457965936668906,1
2018-09-08,さかい珈琲 清水店,静岡県,138.48046777833943,35.03973645969117,1
2018-09-07,CAFE 水とコーヒー,青森県,140.2099836328996,40.7790309141629,1
2018-09-07,珈琲処ふなこし,埼玉県,139.75078887098394,35.97528330829363,1
2018-09-07,スターバックスコーヒーJR高松駅店,香川県,134.0446627798995,34.35077770948097,1
2018-09-06,スターバックスコーヒー春日井東野店,愛知県,136.984494679829,35.261244360593814,1
2018-09-06,スターバックスコーヒーnonowa西国分寺店,東京都,139.46544827827304,35.69981812365634,1
2018-09-05,スターバックスコーヒー近鉄草津店,滋賀県,139.7353009297556,35.607728839946425,1
2018-09-04,タリーズコーヒー＆TEA 京都タカシマヤ店,京都府,135.76794277827673,35.00315636167415,1
2018-09-01,ネスプレッソ ミニ 松屋銀座店,東京都,139.76450057983783,35.67227953816675,1
2018-08-31,星乃珈琲店 三木店,兵庫県,134.9700497685039,34.80556819938839,1
2018-08-31,ドトールコーヒーショップ 新小岩ルミエール店,東京都,139.85949017098872,35.71571532262495,1
2018-08-31,ドトールコーヒーショップ 札幌時計台通店,北海道,141.352185170356,43.06515397848425,1
2018-08-29,コメダ珈琲店 丸井大宮店,埼玉県,139.62135404302592,35.90700376783026,1
2018-08-29,コメダ珈琲店 福山松永店,広島県,133.2414686710724,34.44611076764762,1
2018-08-28,ドトールコーヒーショップ 関内大通り店,神奈川県,139.63761847033985,35.44831389128794,1
2018-08-27,101 TOKYO,東京都,139.71020717034006,35.64887108855571,1
2018-08-24,スターバックスコーヒー東山線千種駅店,愛知県,136.92927934039477,35.170581187651365,1
2018-08-23,スターバックスコーヒーMONA新浦安店,千葉県,139.91177502508899,35.64947638352437,1
2018-08-22,スターバックスコーヒー天神ソラリアプラザ地下1階店,福岡県,130.39827949289628,33.58908973749942,1
2018-08-22,スターバックスコーヒー福岡空港国内線ターミナル南ゲートエリア店,福岡県,130.4470436034392,33.596714141262666,1
2018-08-17,スターバックスコーヒー港北東急S.C.店,神奈川県,139.5713327220377,35.544430035276335,1
2018-08-13,くずは珈琲 by珈人,大阪府,135.67531597983933,34.861348482200675,1
2018-08-10,上島珈琲店 なんばマルイ店,大阪府,135.50056963898913,34.665571367712346,1
2018-08-08,タリーズコーヒーwith U 大丸福岡天神店,福岡県,130.39903497981402,33.58879534955135,1
2018-08-07,REC COFFEE meets RETHINK CAFE,福岡県,130.39815182923206,33.58733711599463,1
2018-08-07,コメダ珈琲店北九州沼新町店,福岡県,130.9455217928933,33.85172452372479,1
2018-08-03,スターバックコーヒーユーカリが丘店,千葉県,140.15545034039764,35.728003172483774,1
2018-08-02,コメダ珈琲店 河内長野本町店,大阪府,135.56920167033851,34.45368880464036,1
2018-08-02,カフェ レクセル 御堂筋淀屋橋店,大阪府,135.50066817033886,34.68952910150417,1
2018-08-02,珈琲屋らんぷ 北名古屋店,愛知県,136.88326223626302,35.24347287402982,1
2018-08-01,コメダ珈琲店 沖縄糸満店,沖縄県,127.67120002739064,26.14077102185107,1
2018-08-01,ドトールコーヒーショップ 雑色店,東京都,139.7145620698282,35.55032674484389,1
2018-08-01,スターバックスコーヒーあべのHoop店,大阪府,135.51312919181493,34.64521709379077,1
2018-07-31,ノーザンエイトコーヒー,兵庫県,135.20939747048973,34.855438225134264,1
2018-07-29,葉山珈琲 浜松店,静岡県,137.73433847983756,34.779448186599886,1
2018-07-29,コメダ珈琲店 新琴似一番通店,北海道,141.32102909188725,43.10613539575232,1
2018-07-29,コメダ珈琲店 苫小牧弥生店,北海道,141.58380397575718,42.62836763008293,1
2018-07-27,ドトールコーヒーショップ イオンモール天童店,山形県,140.36260140626158,38.34297724918714,1
2018-07-27,ドトールコーヒーショップ 津田沼南口店,千葉県,140.01841817032408,35.690651087984925,1
2018-07-26,KEY’S CAFÉ（キーズカフェ）namcoイオンモール大日店,大阪府,135.5781659154046,34.748703788153115,1
2018-07-26,コメダ珈琲店 和歌山大浦街道店,和歌山県,135.1585323403899,34.210457213293424,1
2018-07-26,スターバックスコーヒー京阪枚方市駅店,大阪府,135.6481927520674,34.8163567996493,1
2018-07-25,倉式珈琲店 山口中央店,山口県,131.4687733403886,34.174420214244,1
2018-07-25,カフェ・ド・クリエ プラス 天満屋バスセンター,岡山県,133.92840818309762,34.6617261850386,1
2018-07-25,コメダ珈琲店 香川三豊店,香川県,133.69703708019222,34.14007656734707,1
2018-07-25,コメダ珈琲店 七尾店,石川県,136.96639218072127,37.02982575467546,1
2018-07-25,スターバックスコーヒー青山ビルヂング店,東京都,139.72252759778294,35.672978228509585,1
2018-07-25,スターバックスコーヒーデンソー本社店,愛知県,137.0042229798419,34.996691874911335,1
2018-07-24,倉式珈琲店 ナチュラルガーデンマルイ国府店,鳥取県,134.25555105666248,35.48239850869761,1
2018-07-24,スターバックスコーヒー米沢春日店,山形県,140.10604859176476,37.92337441146789,1
2018-07-23,スターバックスコーヒー稲沢桜木宮前店,愛知県,136.77652817033956,35.25289509393742,1
2018-07-22,むさしの森珈琲 福井若杉店,福井県,136.18795358929327,36.05627175623701,1
2018-07-21,コメダ珈琲店 東岡山店,岡山県,133.98018114943957,34.67652319472951,1
2018-07-20,ドトールコーヒーショップ みらい長崎ココウォーク店,長崎県,129.86246507979808,32.76253859212347,1
2018-07-19,シアトルズベストコーヒー イオンモール熊本店,熊本県,130.74239824033063,32.7382615545554,1
2018-07-19,タリーズコーヒー キッズコミュ アリオ札幌店,北海道,141.36806661585803,43.07117017914561,1
2018-07-19,ドトールコーヒーショップ みらい長崎ココウォーク店,長崎県,129.86246507979808,32.76253859212347,1
2018-07-18,太郎茶屋 鎌倉 幸手店,埼玉県,139.72700107703494,36.071780116158244,1
2018-07-18,太郎茶屋 鎌倉 前橋店,群馬県,139.0939473917312,36.3759131992646,1
2018-07-18,星乃珈琲店 心斎橋ジャパンライフ店,大阪府,135.50092017033876,34.670021101764306,1
2018-07-18,ドトールコーヒーショップ セレオ西八王子店,東京都,139.31231159171622,35.65694203900766,1
2018-07-17,並木街珈琲 大分中島店,大分県,131.61036845750746,33.24600690663378,1
2018-07-17,ドトールコーヒーショップ 藤田保健衛生大学病院外来棟店,愛知県,136.99863117984358,35.070276470938104,1
2018-07-13,スターバックスコーヒー富士急ハイランド店,山梨県,138.775918279852,35.48460084843428,1
2018-07-12,コメダ珈琲店 宮崎日向店,宮崎県,131.62981921545045,32.41007774330234,1
2018-07-12,スターバックスコーヒーゆめタウン行橋店,福岡県,130.96725179167703,33.720355442688245,1
2018-07-10,スターバックスコーヒーいわき平堂ノ前店,福島県,140.88446994377492,37.05320895874108,1
2018-07-06,コメダ珈琲店 北九州勝山公園店,福岡県,130.87575117033782,33.883832112141185,1
2018-07-05,タリーズコーヒー富士市中央公園店,静岡県,138.6653145308759,35.1594954768477,1
