Date,ShopName,Prefecture,longitude,latitude,Open
2021-11-10,魚べい室蘭店,北海道,141.00892688824607,42.35310337288402,1
2021-11-10,六本⽊きんめ鮨,東京都,139.72862251569902,35.66211003862709,1
2021-11-09,串カツ田中 刈谷店,愛知県,137.00700121568747,34.99237747504731,1
2021-11-08,はま寿司 まち～クプラザ尻手店,神奈川県,139.68182491349202,35.52533717376221,1
2021-11-06,手巻き寿司 美華寿司,大阪府,135.50917788834957,34.516182460166505,1
2021-11-05,かっぱ寿司  横浜西口  エキニア店,神奈川県,139.61931381569562,35.46752124926936,1
2021-11-05,無添くら寿司 大宮バイパス店,埼玉県,139.61203018529656,35.888349696665124,1
2021-11-03,くら寿司 瑞江駅前店,東京都,139.89640011569958,35.69323643692006,1
2021-11-03,魚べい利府店,宮城県,140.97359162173217,38.32700815885538,1
2021-11-02,すしの藤つぼ,東京都,139.73821911569985,35.700994536494186,1
2021-11-01,鮨やハレの日,埼玉県,139.62353031570342,35.90577832523073,1
2021-11-01,回転寿司 沼津 すし之助 小田急新百合ヶ丘店,神奈川県,139.50873354291878,35.60485362288579,1
2021-11-01,鮨 利﨑 恵比寿,東京都,139.70533946679222,35.647795010329126,1
2021-11-01,瀬戸の祭寿し 住吉店,徳島県,134.57337682305553,34.07765642098795,1
2021-11-01,神田 鮨 まつもと,東京都,139.7690590156997,35.69134503702374,1
2021-11-01,難波 寿司 まつもと,大阪府,135.49949951568192,34.66678159254067,1
2021-11-01,美登利 昌 成城店,東京都,139.59756431569878,35.64086863979101,1
2021-11-01,鮨 新波,東京都,139.7353497130817,35.6845541465001,1
2021-11-01,築地孫右衛門 ミント神戸店,兵庫県,135.19500988210393,34.69454376263872,1
2021-10-30,鮨 佐とう,埼玉県,139.68960201570212,35.82741972954712,1
2021-10-27,スシロー To Go JR 高円寺駅店,東京都,139.64977706643083,35.70534550448135,1
2021-10-27,鮨・酒・肴 杉玉 十三,大阪府,135.47827311568292,34.71946498971986,1
2021-10-26,沼津港・海天寿司 一富士丸,静岡県,138.85599841568924,35.083820470109494,1
2021-10-25,百年いなり,東京都,139.80186922925205,35.74966868717146,1
2021-10-23,鮨 えび奈,京都府,135.76714941568787,34.995800974862796,1
2021-10-22,寿司一心 イーアス春日井店,愛知県,136.9815951219123,35.25899852456945,1
2021-10-21,鮨 銀座おのでら 弟 本店,東京都,139.6230637156983,35.61291984132192,1
2021-10-19,京樽・スシロー ペリエ検見川浜店,千葉県,140.0590540293743,35.6369021225206,1
2021-10-19,スシロー 五所川原店,青森県,140.4549354798974,40.80043772098774,1
2021-10-18,魚べい太田新田店,群馬県,139.3021292601494,36.3040191062178,1
2021-10-18,柏 寿司 みや川,千葉県,139.97025521570265,35.861515927669885,1
2021-10-18,魚屋直営すし食堂 魚まる,沖縄県,127.68250911555853,26.223090995747757,1
2021-10-18,鮨 神楽,東京都,-1,-1,1
2021-10-15,すし海道 壬生店,栃木県,139.82364756930158,36.46110920835084,1
2021-10-14,はま寿司 環八大鳥居店,東京都,139.73560095261348,35.55205701774744,1
2021-10-13,群馬いちもん金沢まいもん SMARK伊勢崎店,群馬県,139.23096321571123,36.33946460119714,1
2021-10-13,梅丘寿司の美登利 テイクアウト成城学園前駅店,東京都,139.59641121569877,35.63996143984063,1
2021-10-13,牡蠣とワイン立喰い すしまる ミント神戸店,兵庫県,135.19380431568248,34.69454094105482,1
2021-10-12,すしまるミント神戸店,兵庫県,135.19529020577446,34.69453796424808,1
2021-10-12,無添くら寿司 高松六条店,香川県,134.08609927187564,34.29540904344008,1
2021-10-12,スシロー 新宿東口店,東京都,139.69917081569963,35.690395137075875,1
2021-10-12,スシロー ビバモール美原南インター店,大阪府,135.5559036019937,34.54145396022962,1
2021-10-12,鮨・酒・肴 杉玉 蒲田駅西口,東京都,139.71153566369554,35.562200521231716,1
2021-10-12,はま寿司 秋葉原駅前店,東京都,139.77011661569978,35.69876233661677,1
2021-10-11,スシロー新宿東口店,東京都,139.69917081569963,35.69039513707588,1
2021-10-11,スシとツマミ シチフク,千葉県,139.909921715699,35.64863133936565,1
2021-10-07,廻転鮨 / 立喰鮨 銀座おのでら本店,東京都,139.70784531569922,35.66581193842393,1
2021-10-07,無添くら寿司 京橋店,大阪府,135.5277498628107,34.696035101006174,1
2021-10-06,寿司居酒屋や台ずし 水前寺町,熊本県,130.72468281565105,32.79331049046085,1
2021-10-06,京樽 ・スシロー 飯田橋メトロピア,東京都,139.74081988962513,35.70123474776679,1
2021-10-06,スシロー 向日町駅前店,京都府,135.70729949914238,34.954584436229915,1
2021-10-06,スシロー 越谷レイクタウン店,埼玉県,139.8081075772438,35.88458479271716,1
2021-10-05,神保町すしわさび,東京都,139.75783201569976,35.69339763691102,1
2021-10-04,スシサワ,大阪府,135.49996300213348,34.700501110081134,1
2021-10-03,鮨 ニシツグ,東京都,139.7079742412503,35.645778235467574,1
2021-09-30,回転寿司 喜楽 高槻大蔵司店,大阪府,135.59671401523659,34.86115208039363,1
2021-09-30,ブルペン,東京都,139.70688966813677,35.614109223047244,1
2021-09-30,鮨割烹 菫,東京都,139.35775241570005,35.713319135818026,1
2021-09-30,寿司居酒屋や台ずし 三条通町,奈良県,135.8236487292348,34.68209860159727,1
2021-09-29,無添くら寿司 横浜荏田店,神奈川県,139.55341982732654,35.55898695390258,1
2021-09-29,鮨・酒・肴 杉玉 天神店,福岡県,130.39420281566413,33.592451849266006,1
2021-09-29,鮨・酒・肴 杉玉 美野島店,福岡県,130.41680861566402,33.578638249985374,1
2021-09-29,はま寿司 本厚木駅前店,神奈川県,139.36210421536177,35.44072215099728,1
2021-09-28,京樽 ・スシロー イオンモール津田沼店,千葉県,140.02283311569963,35.690350137078326,1
2021-09-28,京樽 ・スシロー八柱店,千葉県,139.93811357817293,35.79198602558739,1
2021-09-28,京樽 ・スシロー京成臼井店,千葉県,140.18166399193652,35.73016898826082,1
2021-09-28,京樽 ・スシロー テラスモール松戸店,千葉県,139.93183071570178,35.817828530075005,1
2021-09-23,旬と （ヤマト）,兵庫県,135.23688871568302,34.71401599001172,1
2021-09-22,すし いわ,新潟県,139.05902591573994,37.91614021178572,1
2021-09-21,鮨・酒・肴 杉玉 両国,東京都,139.7916459156997,35.694595636845385,1
2021-09-21,無添くら寿司 リコパ鶴見店,神奈川県,139.68400341569657,35.50880624701541,1
2021-09-17,魚べい深谷店,埼玉県,139.3055252157085,36.18920050955184,1
2021-09-16,寿司京香,東京都,139.68907381569935,35.67908243769644,1
2021-09-16,鮨やもと,山梨県,138.56998308383817,35.65984748628577,1
2021-09-15,魚魚丸 岡崎駅南店,愛知県,137.1494806843587,34.92020921752391,1
2021-09-15,鮨いざかや 樹,兵庫県,135.0142298156819,34.661179492840716,1
2021-09-12,スシロー To Go 雑色店,東京都,139.71365542925167,35.550587089890264,1
2021-09-12,スシロー To Go JR戸塚駅店,神奈川県,139.53365382923553,35.40067299192897,1
2021-09-12,スシローお初天神通り店,大阪府,135.49864721568255,34.701799990666295,1
2021-09-09,寿司居酒屋や台ずし 国府宮駅前町,愛知県,136.80043471569206,35.25275316095775,1
2021-09-07,鮨・酒・肴 杉玉 京阪守口市駅,大阪府,135.56357908470744,34.735623524859534,1
2021-09-05,八重洲 鮨 海味,東京都,139.76878791569953,35.679930437649844,1
2021-09-03,金沢まいもん寿司 夙川グリーンプレイス店,兵庫県,135.31834108790744,34.7397461204536,1
2021-09-02,やわら寿し,埼玉県,139.58582111526258,35.815688980163195,1
2021-09-01,はま寿司 サザンスカイタワー八王子店,東京都,139.33545311569912,35.65471213903235,1
2021-09-01,くら寿司 札幌八軒店,北海道,141.30082047700475,43.096337675992146,1
2021-09-01,池袋 鮨 みや川,東京都,139.71074251570033,35.729429634933595,1
2021-09-01,すし食堂 ito,兵庫県,135.18991831568235,34.69240809116906,1
2021-08-30,鮨処 やまと,東京都,139.77330552925184,35.66787808828998,1
2021-08-29,寿司京香 参宮橋,東京都,139.68907381569937,35.67908243769644,1
2021-08-29,ちゃきちゃき,兵庫県,135.2405379837269,34.71131860136624,1
2021-08-28,肉寿司酒場 有 （ユウ）,大阪府,135.59558499720046,34.57186930000002,1
2021-08-26,無添くら寿司 名古屋本陣店,愛知県,136.86297531289134,35.177357365046824,1
2021-08-25,肉寿司酒場 有 ～nikuzushi yu～,大阪府,135.5955850128811,34.57186929761394,1
2021-08-25,回転寿司 すノ家 名取店,宮城県,140.87629561574482,38.17948719654337,1
2021-08-25,佐渡箱ちらし ときなり,新潟県,138.41472791574293,38.080023402310566,1
2021-08-25,鮨・酒・肴 杉玉 千葉駅東口,千葉県,140.11435991569837,35.610926141430966,1
2021-08-24,築地すし好 恵比寿店,東京都,139.7083688055564,35.646183339499956,1
2021-08-23,立ち食い鮨 謹賀 3ビル,大阪府,135.49709171568244,34.698830090825076,1
2021-08-20,スシロー To Go 十条銀座店,東京都,139.71902311570094,35.761773033157105,1
2021-08-20,スシロー To Go 大森店,東京都,139.72684932923576,35.58889578936814,1
2021-08-19,鮨 ともあき,兵庫県,135.19072421568256,34.69658609094538,1
2021-08-17,鮨 錬磨,富山県,137.212810829237,36.69994827401398,1
2021-08-14,くら寿司 豊中春日町店,大阪府,135.47150241568468,34.816878884493846,1
2021-08-14,はま寿司 川崎等々力店,神奈川県,139.6437346156978,35.58438274288402,1
2021-08-14,淡路島 回転すし 悦三郎,兵庫県,134.85155261567888,34.48659540216161,1
2021-08-13,すし 共友丸 （キョウユウマル）,兵庫県,-1,-1,1
2021-08-11,はま寿司 高松茜町店,香川県,134.02677463312645,34.34773011818509,1
2021-08-07,かっぱ寿司 モレラ岐阜店,岐阜県,136.67067680828487,35.45538977990285,1
2021-08-06,鮨革命 本店 梅田大阪駅前,大阪府,135.4958304146552,34.7054576952008,1
2021-08-06,すし銚子丸 テイクアウト専門店 落合店,東京都,139.68394561290046,35.71042773597664,1
2021-08-05,がってん寿司 藤沢店,神奈川県,139.4535361128943,35.3641704549016,1
2021-07-28,鮨 たかせ,奈良県,135.82141850554,34.67963249185311,1
2021-07-28,立喰い寿司 あきら 築地店,東京都,139.76996220555662,35.666549638383444,1
2021-07-27,鮨結う 翼（すしゆう つばさ）,東京都,139.70892220555638,35.6465505394797,1
2021-07-27,東京立ち寿司,東京都,139.48085301289981,35.67205883808157,1
2021-07-26,鮨まつ井,大阪府,135.49989982925086,34.701708701335626,1
2021-07-26,鮨 祥,東京都,139.72083510555683,35.66165123865199,1
2021-07-23,回転寿司 海鮮三崎港 エミオひばりが丘店,東京都,139.54511431290115,35.75164393371355,1
2021-07-23,スシロー 長津田みなみ台店,神奈川県,139.49628661569676,35.52654424604639,1
2021-07-23,スシロー 八重洲地下街店,東京都,139.76745092925188,35.67949128813138,1
2021-07-23,はま寿司 福岡拾六町店,福岡県,130.3174718292497,33.5642228162942,1
2021-07-21,回し寿司 活 活美登利 中目黒店,東京都,139.6983675055565,35.64299323967477,1
2021-07-20,さか芳 苦楽園店,兵庫県,135.32699440554092,34.750895788034946,1
2021-07-20,がってん寿司 佐久平店,長野県,138.46573541291045,36.27452720481128,1
2021-07-20,スシンジュク,東京都,139.70603651289997,35.69038063707665,1
2021-07-18,寿司・しゃぶしゃぶ ゆず庵 八幡西店,福岡県,130.72992431668098,33.84490212466054,1
2021-07-16,寿司虎 鹿屋店,鹿児島県,130.8892230128301,31.398678160281605,1
2021-07-15,佐渡廻転寿司 弁慶 万代シティ店,新潟県,139.0559638873108,37.916060950050564,1
2021-07-15,織り寿司 むさし Porta店,京都府,135.75661081568722,34.98673907535158,1
2021-07-15,はま寿司 玉出駅前店,大阪府,135.4890543128817,34.62346569485758,1
2021-07-14,スシロー To Go セントラルパーク店,愛知県,136.90734696019862,35.1723048946065,1
2021-07-14,玄米 京都ぎへえ 京都ポルタ店,京都府,135.75661081568722,34.98673907535158,1
2021-07-13,すしざんまいS 国分隼人店,鹿児島県,130.73776358152188,31.741804203538905,1
2021-07-13,くら寿司 ラソラ札幌店,北海道,141.38359965828948,43.055306354664225,1
2021-07-13,くら寿司 聖蹟桜ヶ丘駅前店,東京都,139.44570622923587,35.6518870885085,1
2021-07-13,スシロー 浅草六区店,東京都,139.79341851290047,35.71412883577364,1
2021-07-13,スシロー 砺波店,富山県,136.95714292923682,36.63439487493116,1
2021-07-12,回転寿司・骨付鳥 なぶら エミフルMASAKI店,愛媛県,132.71454792923385,33.787785413388704,1
2021-07-12,寿司とMAS,東京都,139.70578940555617,35.62145594085439,1
2021-07-10,Ryu kanazawa （リュウ カナザワ）,石川県,136.65341300557296,36.57657998795417,1
2021-07-09,はま寿司 横浜市ヶ尾店,none,139.54712536899632,35.543655453292146,1
2021-07-08,京出汁おいなり釣狐 祇園本店,京都府,135.7730949055453,35.002975474475754,1
2021-07-07,スシロー 倉敷玉島店,岡山県,133.68045645133517,34.55334288248736,1
2021-07-07,スシロー 高松郷東店,香川県,134.0163974044298,34.3479587595942,1
2021-07-07,鮨・酒・肴 杉玉 小倉,福岡県,130.8809426145483,33.885356612115366,1
2021-07-07,鮨・酒・肴 杉玉 阪急武庫之荘,兵庫県,135.39314130554126,34.75171188799138,1
2021-07-05,寿司居酒屋や台ずし 上前津町,愛知県,136.90602891289075,35.15839756607413,1
2021-07-05,寿司居酒屋や台ずし 阪神御影駅南口町,兵庫県,135.2562572055405,34.71420379000158,1
2021-07-04,京樽・スシロー 門前仲町店,東京都,139.79651742925194,35.67123108824416,1
2021-07-04,京樽・スシロー 西船橋店,千葉県,139.95889223127662,35.708226929355895,1
2021-07-04,京樽・スシロー 市ヶ谷店,東京都,139.7385954292359,35.691835787962674,1
2021-07-04,京樽・スシロー 行徳店,千葉県,139.91424452925196,35.68235018809225,1
2021-07-04,鮓ぱんち,東京都,139.73557350555663,35.65363353909159,1
2021-07-03,寿司・しゃぶしゃぶ ゆず庵 宇都宮インター店,栃木県,139.90449896248705,36.4965890397457,1
2021-07-02,すさみ鮨 霧,和歌山県,135.49732058796857,33.54978405011472,1
2021-06-30,すしや コトブキツカサ,大阪府,135.51230558885322,34.70767078911666,1
2021-06-30,沼津魚がし鮨 函南店,静岡県,138.92563918560313,35.07563328729491,1
2021-06-30,くら寿司 名古屋栄店,愛知県,136.91073480112075,35.16878557604609,1
2021-06-29,スシロー To Go 大山ハッピーロード店,東京都,139.70006812925197,35.74895878718114,1
2021-06-29,寿司居酒屋や台ずし 御器所町,愛知県,136.93387732925135,35.14940939532919,1
2021-06-28,はま寿司 関内セルテ店,神奈川県,-1,-1,1
2021-06-22,鮨・酒・肴 杉玉 祖師ヶ谷大蔵,東京都,139.60868928243295,35.64494046902362,1
2021-06-22,鮓 みずき,兵庫県,135.19313710554005,34.69572179099167,1
2021-06-21,寿司とワイン サンチャモニカ,東京都,139.67025511526853,35.64431328174608,1
2021-06-17,大衆赤酢寿司ぼんた,福井県,136.21863612925245,36.06130728288917,1
2021-06-16,ちよだ鮨 立石店,東京都,139.84941860555787,35.73775183447674,1
2021-06-16,鮨 権左衛門,愛知県,136.89552282925146,35.16794579507904,1
2021-06-16,寿司の大地,東京都,139.82610752923594,35.76115438701419,1
2021-06-14,寿司 虎視眈々（コシタンタン）,千葉県,140.1125208292519,35.60947608908735,1
2021-06-14,寿司わっしょい 西野店,北海道,141.28293691304327,43.07542869761549,1
2021-06-09,回転寿司まんぷく福田店,岡山県,133.9279964128816,34.61931319507959,1
2021-06-09,はま寿司 松井山手店,京都府,135.71685682925104,34.8353330995499,1
2021-06-08,スシロー 渋谷駅前店,東京都,139.69903381289947,35.65985953875029,1
2021-06-08,スシロー 方南町店,東京都,139.66016810653136,35.684394455042124,1
2021-06-05,スシロー渋谷駅前店,東京都,139.69903381289947,35.65985953875029,1
2021-06-01,寿し 匠海,愛知県,136.90187331296036,35.171508080316165,1
2021-05-30,鮨・酒・肴 杉玉 熊本駅前,熊本県,130.68678282925703,32.78926599881054,1
2021-05-27,寿司虎 串間本店,宮崎県,131.22682773204,31.46232353812365,1
2021-05-26,鮨 たがみ,福岡県,130.40482561292936,33.591745180733824,1
2021-05-26,立食寿司根室花まる FOOD＆TIME伊勢丹横浜店,神奈川県,-1,-1,1
2021-05-26,佐たけ,東京都,139.76339742926052,35.666431298762355,1
2021-05-24,無添くら寿司 ミッテン府中店,東京都,139.479365663786,35.67087627499671,1
2021-05-24,スシロー 八王子駅前店,東京都,-1,-1,1
2021-05-24,スシロー ロハル津田沼店,千葉県,140.0177420129707,35.69043158019215,1
2021-05-21,スシロー To Go 砂町銀座店,東京都,139.8280305292605,35.67943189876217,1
2021-05-19,無添くら寿司 高田馬場駅前店,東京都,-1,-1,1
2021-05-19,スシロー 京都西院店,京都府,135.7311414292436,35.00378079877239,1
2021-05-19,スシロー 所沢北原店,埼玉県,139.48046031174866,35.80977718070461,1
2021-05-19,寿司居酒屋や台ずし 石山駅前町,滋賀県,135.9002857056089,34.97902148036407,1
2021-05-19,鮨 うらおにかい,東京都,139.77732031583687,35.67422598019596,1
2021-05-15,マキモノ屋 ファクトリー店,北海道,141.36191707912928,43.063845286949544,1
2021-05-12,鮨アカデミー 西新宿店,東京都,139.6967372564394,35.695128571552665,1
2021-05-11,スシロー To Go 元住吉店,神奈川県,139.65181882924432,35.56537049876386,1
2021-05-10,鮨 重永,大阪府,135.49757222925925,34.697494898777215,1
2021-05-05,秀ちゃん寿司 / フライング秀ちゃん,福岡県,130.42363391292864,33.55955458074286,1
2021-05-04,はま寿司 中間店,福岡県,130.7154024855405,33.81887199995199,1
2021-05-02,すし正 いいな一番 松戸店,千葉県,139.92544072926066,35.786919998760624,1
2021-05-01,スシエビス 三宮店,兵庫県,135.19119782925932,34.69260299877726,1
2021-05-01,鮨うら山 栄離れ,愛知県,136.9042722056125,35.16681458031754,1
2021-04-29,はま寿司 喜連瓜破店,大阪府,135.55423337925916,34.60839774877862,1
2021-04-27,鮨処 こだか,千葉県,139.92605080586895,35.87355839056156,1
2021-04-27,寿司居酒屋や台ずし 三郷駅前町,愛知県,137.05226070353308,35.21547255196792,1
2021-04-26,立食い寿司根室花まるグランデュオ蒲田店,東京都,139.7158043654086,35.56252703230672,1
2021-04-26,秀ちゃん寿司 大橋店,福岡県,130.42363391292864,33.55955458074286,1
2021-04-26,鮨 忠次,埼玉県,139.60160381997832,36.0132820175448,1
2021-04-26,鮨ひばり,岐阜県,136.75399881296497,35.41075298025831,1
2021-04-25,鮨処 つぼ田,兵庫県,134.8346769056047,34.766843380417654,1
2021-04-21,スシロー To Go JR亀有駅店,東京都,139.8473860292446,35.76674419876089,1
2021-04-21,ほまれ寿司,福井県,136.2188172129784,36.06181068010738,1
2021-04-21,日本橋 粋 アトレ松戸店,千葉県,139.89940600685145,35.78423764682805,1
2021-04-21,くら寿司 道頓堀店,大阪府,135.50305382925922,34.6686539987777,1
2021-04-21,スシロー 梅田茶屋町店,大阪府,135.49894261295094,34.70580558043317,1
2021-04-21,華ちらし,東京都,139.78259238533354,35.54989029445097,1
2021-04-20,函まるずし 函館漁火通店,北海道,-1,-1,1
2021-04-20,鮨割烹 海の悠波,静岡県,139.06627138893128,35.095672464627555,1
2021-04-19,廻鮮江戸前すし 魚魚丸(ととまる) 浜松中田店,静岡県,137.7551588292433,34.73459099877662,1
2021-04-17,スシローTo Go 大和西大寺駅店 (テイクアウト専門店),奈良県,135.7806628158174,34.69374438043623,1
2021-04-16,佃 瀧三郎 すし さかな 錦糸町店,東京都,139.8146256861196,35.70269065155495,1
2021-04-15,すし拓,東京都,139.4484028292445,35.683374998762105,1
2021-04-14,坐忘-ざぼう-,京都府,135.23104432766425,35.61104968021075,1
2021-04-11,あじゅう田,東京都,139.6946122292443,35.66258009876245,1
2021-04-11,寿司トおでん にのや,東京都,139.76483752926052,35.677280598762216,1
2021-04-09,鮨 瑞穂,青森県,141.49436150572578,40.50785487935473,1
2021-04-07,スシロー 西宮鳴尾町店,兵庫県,135.36951500560352,34.71431028043085,1
2021-04-07,スシロー 那珂川店,福岡県,130.42568850558015,33.51503698075545,1
2021-04-07,鮨・酒・肴 杉玉 難波アムザ,大阪府,135.5032203129503,34.66659958044334,1
2021-04-07,鮨・酒・肴 杉玉 京都河原町,京都府,135.76868347516015,35.00362763303781,1
2021-04-05,寿司と日本料理 湖穂里,福島県,140.38683231874577,37.397541285188794,1
2021-04-04,立ち食い鮨 まさ,東京都,139.7277413562362,35.68884893130462,1
2021-04-02,新宿 鮨 栞庵 やましろ 肉の心,東京都,139.70174520562304,35.69583338019094,1
2021-04-02,魚べい キセラ川西店,兵庫県,135.4206093338193,34.83882006685332,1
2021-03-31,北陸金沢回転寿司 のとめぐり,石川県,136.6475138292456,36.580045998749625,1
2021-03-31,鮨 鴉巣,東京都,139.7576152563191,35.66401356818456,1
2021-03-30,江戸前寿司 三代目ふらり寿司 春日井店,愛知県,136.97182501296237,35.27054088029213,1
2021-03-30,鮨・酒・肴 杉玉 六本松,福岡県,130.37676786864907,33.576675390092696,1
2021-03-30,神楽坂 よこ田,東京都,139.73990385698698,35.701402978618724,1
2021-03-30,寿司居酒屋や台ずし 江南駅前町,愛知県,136.87098082926008,35.33548199876731,1
2021-03-27,若竹丸 藤沢店,神奈川県,139.47536629655744,35.38280744986192,1
2021-03-27,回転寿司 ととぎん イオンタウン茨木太田店,大阪府,135.57338975831598,34.83823224509987,1
2021-03-26,回転寿司やまと 柏大山台店,千葉県,139.96711521297442,35.882286680147864,1
2021-03-25,無添くら寿司 田無駅前店,東京都,139.53931230562375,35.72868708018328,1
2021-03-23,新横浜 肉寿司,神奈川県,139.61522998197165,35.5085568517586,1
2021-03-22,六本木 やましろ,東京都,139.73378291986424,35.66329893444914,1
2021-03-18,無添くら寿司 平塚見附店,神奈川県,139.34275432924392,35.32899679876739,1
2021-03-18,無添くら寿司 別府店,大分県,131.5043170006992,33.28583797405177,1
2021-03-17,すしざんまいS 鹿児島天文館店,鹿児島県,130.55448880554474,31.590768181346455,1
2021-03-17,スシロー ブランチ横浜南部市場店,神奈川県,139.63327268153785,35.382325198384954,1
2021-03-17,スシロー 新宿三丁目店,東京都,139.70564110562313,35.69189368019177,1
2021-03-17,はま寿司 大垣安井店,岐阜県,136.6275052332034,35.35451499710063,1
2021-03-17,はま寿司 川崎久地店,神奈川県,139.59859311296896,35.61243368021049,1
2021-03-17,はま寿司 川崎平店,神奈川県,139.57236906296882,35.59922358021356,1
2021-03-17,鮨・酒・肴 杉玉 西船橋,千葉県,139.9587385006722,35.70864869219222,1
2021-03-15,寿司 魚がし日本一 エキマルシェ新大阪Sotoe店,大阪府,135.50077022925944,34.73432899877665,1
2021-03-15,すし酒場うまる 御徒町店,東京都,139.77422682926056,35.706240998761814,1
2021-03-14,スシロー新宿三丁目店,東京都,139.70550431297073,35.69189368019177,1
2021-03-13,雛鮨 上野の森さくらテラス,東京都,139.77425251297103,35.71213518018709,1
2021-03-13,ゆず庵 南福島店,福島県,140.4649196158795,37.72759797976794,1
2021-03-13,すし寿,東京都,139.69673090562296,35.68926368019238,1
2021-03-11,スシロー 茅ヶ崎萩園店,神奈川県,139.37936914910242,35.34800416827621,1
2021-03-11,スシロー 鶴見駅西口店,神奈川県,139.67476082926038,35.5090106987647,1
2021-03-11,錦糸町 鮨 黒潮海閤,東京都,139.81429782924448,35.69499809876191,1
2021-03-10,スシロー To Go JR 神戸駅店,兵庫県,135.17798431295068,34.67954338043987,1
2021-03-10,無添くら寿司 町田ジョルナ店,東京都,139.4449750158343,35.542226380226914,1
2021-03-09,寿司居酒屋や台ずし 阪急茨⽊町,大阪府,135.57749942925943,34.81710269877534,1
2021-03-09,寿司居酒屋や台ずし 呉服町,福岡県,130.40907480558207,33.59859518073183,1
2021-03-08,寿司スタンドとらず JR吹田店,大阪府,135.5247214287131,34.7625099807343,1
2021-03-08,鮨徳,京都府,135.75857930560912,34.98893398036134,1
2021-03-07,和泉家 吉之助 自由ヶ丘販売所,東京都,139.6698621056214,35.61049858021089,1
2021-03-04,京橋 鮨 よこ田,東京都,139.7717923072016,35.67750189876222,1
2021-03-03,くら寿司 名古屋新栄店,愛知県,136.92148481296007,35.16164918031873,1
2021-03-02,寿司 藤五郎,新潟県,139.05863271301664,37.90907487973518,1
2021-03-02,八王子 鮨 よこ田,東京都,139.3354145056224,35.6576221801998,1
2021-03-01,すし銚子丸 テイクアウト専門店 荻窪店,東京都,139.62149861297092,35.70382898018903,1
2021-02-28,うまい一丸鮨 角館店,秋田県,140.57600211305308,39.59413397946938,1
2021-02-26,魚べい 伊丹昆陽店,兵庫県,135.39917082925942,34.77762399877594,1
2021-02-26,すし酒場 すさび湯,大阪府,135.5014740741006,34.70312150383766,1
2021-02-25,スシロー To Go JR我孫子駅店,千葉県,140.01050691297425,35.87251328015017,1
2021-02-25,新宿 鮨 ふくじゅ,東京都,139.6959379056232,35.69453838019109,1
2021-02-23,鮨・酒・肴 杉玉 笹塚,東京都,139.66846511980313,35.673173238514266,1
2021-02-22,鮨よしかわ 麻布十番店,東京都,139.73571570562223,35.65679908020004,1
2021-02-22,魚屋路 川崎柳町店,神奈川県,139.69017890561975,35.53136488022958,1
2021-02-21,マキモノ屋 北24条店,北海道,141.34239891313283,43.08995467914467,1
2021-02-20,寿司 梅田,大阪府,135.49776882924326,34.70757679877706,1
2021-02-16,立ち鮨 あじ平亭,東京都,139.71930600562047,35.56201058022236,1
2021-02-15,寿司の美登利 武蔵小山店,東京都,139.70511460562167,35.61867258020891,1
2021-02-15,金沢北陸直送 漁船丸 イオンモール津南店,三重県,136.51548254239717,34.671107076926,1
2021-02-15,川崎 鮨 Sublime,神奈川県,139.69997070561982,35.52897748023005,1
2021-02-15,鮨芥,大阪府,135.6139210056063,34.851909980396016,1
2021-02-15,難波 鮨 よこ田,大阪府,135.50182690560274,34.666785580443204,1
2021-02-12,スシロー 経堂店,東京都,-1,-1,1
2021-02-10,居酒屋すし 大将,千葉県,139.94804972924467,35.819008998760154,1
2021-02-08,寿司酒場フクハウチ,京都府,135.75658910560935,35.00387828035778,1
2021-02-04,難波 鮨 Sublime,大阪府,135.50182690560274,34.666785580443204,1
2021-02-03,くら寿司 赤羽駅東口店,東京都,139.7200743158391,35.77900698017159,1
2021-02-03,くら寿司 小岩駅前店,東京都,139.88098062926065,35.73252779876141,1
2021-02-03,スシロー 羽生店,埼玉県,139.5268907,36.1655113,1
2021-02-01,名駅 寿司 天,愛知県,136.88436960561245,35.172736780315994,1
2021-01-26,海鮮三崎港 イオンモール成田店,千葉県,140.31703811583944,35.79529608016792,1
2021-01-26,無添くら寿司 武蔵小杉店,神奈川県,139.66280950562057,35.57251948021993,1
2021-01-26,スシロー 宇部恩田店,山口県,131.26667311293613,33.94242558063598,1
2021-01-26,鮨・酒・肴 杉玉 蕨,埼玉県,139.69165992924468,35.82765539876004,1
2021-01-18,スシロー 広島井口明神店,広島県,132.38943000831375,34.374053595129936,1
2021-01-18,スシロー 郡山桑野店,福島県,140.3524982855616,37.40694686550514,1
2021-01-18,鮨 エンリケ,東京都,139.76846030562274,35.67408048019584,1
2021-01-13,鮨 令歩 （れぼ）,愛知県,136.90292770561263,35.17036558031647,1
2021-01-13,無添くら寿司 西新宿店,東京都,139.6984628292605,35.69443169876194,1
2021-01-13,無添くら寿司 渋谷駅前店,東京都,139.69740131583666,35.65984998019933,1
2021-01-13,無添くら寿司 上本町店,大阪府,135.51848410560257,34.66445898044389,1
2021-01-13,無添くら寿司 二俣川駅前店,神奈川県,139.53143282926024,35.46549999876534,1
2021-01-11,楽坐 青天家（ハレルヤ）,京都府,135.7625966236944,35.00545258338528,1
2021-01-08,はま寿司 蒲田駅西口店,東京都,139.71451400562057,35.56284518022209,1
2021-01-08,はま寿司 オーケーみなとみらい店,神奈川県,139.6311549276613,35.46325308024574,1
2021-01-06,ゆず庵 仙台富沢店,宮城県,140.8585158292477,38.213325998730156,1
2021-01-01,鮨・酒・肴 杉玉 西新,福岡県,130.35851451292913,33.58280598073632,1
2020-12-28,名駅 鮨 Sublabo,愛知県,136.88436960561245,35.172736780315994,1
2020-12-23,まぐろ人 上野広小路出張所,東京都,139.7732780252394,35.70777770971994,1
2020-12-19,ゆず庵 横浜青葉台店,神奈川県,139.5050174056203,35.55307088022437,1
2020-12-18,はま寿司42号御坊店,和歌山県,135.14971591293525,33.896076780648734,1
2020-12-17,スシロー 旭川4条通店,北海道,142.3515609179367,43.77156620367668,1
2020-12-17,スシロー 緑滝ノ水店,愛知県,136.97572391295864,35.089268080336524,1
2020-12-15,スシロー 札幌苗穂店,北海道,141.39205920237598,43.07873274639478,1
2020-12-15,はま寿司 小松島店,徳島県,134.61395526125474,33.976299356732255,1
2020-12-15,酒場リベリー スシる。,大阪府,135.50403612924327,34.703521898777076,1
2020-12-14,すし銚子丸 テイクアウト専門店 千歳烏山店,東京都,139.60162275915627,35.66667159072484,1
2020-12-11,鮨 令歩 （れぼ）,愛知県,136.90292770561263,35.17036558031647,1
2020-12-11,はま寿司 所沢トコトコスクエア店,埼玉県,139.46947502926062,35.78912859876061,1
2020-12-10,無添くら寿司 名古屋志段味店,愛知県,137.036378529441,35.254008654593385,1
2020-12-10,すしざんまいS 広島店,広島県,132.46455010559723,34.39266828051481,1
2020-12-09,鮨・酒・肴 杉玉 博多駅,福岡県,130.4218428055817,33.58883648073448,1
2020-12-09,寿司と串とわたくし,愛知県,136.9057815015588,35.16784849261336,1
2020-12-09,回る海鮮グルメ のん太鮨 岩国店,山口県,132.21632171215734,34.17163457454599,1
2020-12-09,回転寿し まつりや 菊水元町店,北海道,141.40872881313237,43.06850917914566,1
2020-12-07,神戸三宮 鮨 栞庵 やましろ,兵庫県,135.1912699292594,34.69345979877729,1
2020-12-07,輝鮨 分店 （キズシ）,埼玉県,139.6891270416297,35.82885537781654,1
2020-12-06,函館グルメ回転寿司 函太郎 新潟西区五十嵐店,新潟県,138.95637011301585,37.87252097974178,1
2020-12-05,寿司居酒屋や台ずし 錦二伏見町,愛知県,136.89859714600453,35.17129167631372,1
2020-12-05,寿司居酒屋や台ずし 松江駅前町,島根県,133.06106392926029,35.465388898765354,1
2020-12-05,寿司居酒屋や台ずし 東比恵町,福岡県,130.43160710558178,33.59006138073433,1
2020-12-05,寿司居酒屋や台ずし テレビ塔西町,愛知県,136.9066195292599,35.17152779876972,1
2020-12-04,鮨屋とんぼ 栄店,愛知県,136.9032856228974,35.1672886637802,1
2020-12-03,魚べい川口領家店,埼玉県,139.7448434056252,35.79643718016755,1
2020-12-03,鮨 さわ田,大阪府,135.51082131295001,34.646392780448465,1
2020-12-02,肉寿司・ミートチーズ THE MARKET K 難波心斎橋店,大阪府,135.5010072001757,34.66662279276181,1
2020-12-01,魚魚丸（ととまる）稲沢店,愛知県,136.784126477657,35.24890308029729,1
2020-12-01,寿司屋まつい,大阪府,135.5127302056033,34.70763048043278,1
2020-12-01,鮨まつもと 横浜店,神奈川県,139.62191260561858,35.469050480244434,1
2020-12-01,ゆず庵 四日市店,三重県,136.64210820831676,34.989991895090284,1
2020-12-01,鮨おにかい＋1,東京都,139.69713622926042,35.64409509876275,1
2020-11-30,鮨アカデミー新宿御苑前店,東京都,139.71146330562306,35.68817678019277,1
2020-11-28,すしざんまいＳ 神楽坂店,東京都,139.74081250562338,35.70094358018977,1
2020-11-28,寿司センター 札幌商店,北海道,141.3512378292545,43.062861498696634,1
2020-11-26,くら寿司 甲子園店,兵庫県,135.37151364054537,34.71271867263636,1
2020-11-26,スシロー 上尾駅前店,埼玉県,139.58606054968672,35.97410083437975,1
2020-11-26,魚べいビバモール東松山店,埼玉県,139.4031231401719,36.03103199741668,1
2020-11-25,鮨・酒・肴 杉玉 綾瀬,東京都,139.82050291583877,35.762137580175406,1
2020-11-25,鮨・酒・肴 杉玉 千歳烏山,東京都,139.5998500056227,35.6685271801973,1
2020-11-22,スシロー吉祥寺パルコ店,東京都,139.5776230129708,35.70366518018914,1
2020-11-21,ゆず庵 秋田新国道店,秋田県,140.1002772292659,39.73292639871565,1
2020-11-21,築地 孫右衛門,東京都,139.7699604009035,35.66548791269041,1
2020-11-20,中村商店 布施店,大阪府,135.56204090560266,34.66520658044362,1
2020-11-20,寿司居酒屋や台ずし 庄内通町,愛知県,136.89068860561306,35.2038986803083,1
2020-11-19,魚べい 足利花園町店,栃木県,139.4718556655395,36.33516333189746,1
2020-11-17,くら寿司 吉祥寺駅前店,東京都,139.58127350562336,35.703486980189055,1
2020-11-17,くら寿司 東金店,千葉県,140.3697303014373,35.55778984852218,1
2020-11-17,くら寿司 東村山店,東京都,139.4707706158388,35.769818780173914,1
2020-11-17,スシロー 入間上藤沢店,埼玉県,139.39826949552446,35.81115943166416,1
2020-11-17,すし 葵,愛知県,136.9146153584537,35.18669784257607,1
2020-11-17,島津,東京都,139.73352010562215,35.643184380203195,1
2020-11-16,まるがまる 横須賀本店,神奈川県,139.66981510561493,35.27958518028998,1
2020-11-15,金沢北陸直送 漁船丸 イオンモール長久手,愛知県,137.0500958292439,35.173127998769736,1
2020-11-12,魚べいマチノマ大森店,東京都,139.7257603129682,35.574507480219395,1
2020-11-12,はま寿司 東大宮店,埼玉県,139.63678921297597,35.94852078013282,1
2020-11-12,寿し 向月 BINO,愛知県,136.90592996690143,35.168810408745124,1
2020-11-11,町田 寿司 空,東京都,139.44558982926034,35.54505399876415,1
2020-11-11,鮨かわごえ 練磨,沖縄県,127.67201260545473,26.21481658343307,1
2020-11-10,スシロー 横手店,秋田県,140.5550838305231,39.3159239391774,1
2020-11-10,スシロー天王寺店,大阪府,135.51542371294983,34.6456098804487,1
2020-11-10,玄米のおすしテック,大阪府,135.49463671295143,34.728093780427535,1
2020-11-06,立喰い寿司 ひなと丸 新橋店,東京都,139.7573828292605,35.66490899876235,1
2020-11-06,大衆寿司酒場 魚◎ （ちくわ）,大阪府,135.49550691294974,34.63554168045131,1
2020-11-05,鮨 魯山,東京都,139.7655158292444,35.67094999876232,1
2020-11-05,鮨 一也,東京都,139.76113782926046,35.66900899876232,1
2020-11-02,運河亭 元町店,北海道,141.3836840677687,43.09528698520528,1
2020-11-01,鮨まつもと,東京都,139.70282860562318,35.69522398019093,1
2020-11-01,すし玲,東京都,139.71183780562262,35.66259208019852,1
2020-11-01,船橋 寿司 天,千葉県,139.98498481583732,35.70121388018971,1
2020-11-01,鮨 あら喜,東京都,139.6950889056214,35.61022268021097,1
2020-11-01,大宮 寿司 六花,埼玉県,139.6268931276702,35.90517188014265,1
2020-11-01,鮨てんび,愛知県,136.93096320561253,35.173826880315744,1
2020-10-31,花の舞 浜松駅構内Ekimachi,静岡県,137.7338508292593,34.703913998777075,1
2020-10-31,握りと串天ぷら 六,茨城県,140.11248661297844,36.08171048010299,1
2020-10-30,鮨小もり,東京都,139.55647730562342,35.7102381801876,1
2020-10-29,さかなや旬 笹塚店,東京都,139.6675415129703,35.673529380196136,1
2020-10-28,魚べい 東小金井店,東京都,139.52078562319002,35.701089293681015,1
2020-10-28,大起水産 街のみなとウイステ野田阪神店,大阪府,135.47529092925927,34.695324098777306,1
2020-10-27,鮨 白金 さえ㐂 / 鉄板焼 しろかね / CHEF’S ROOM PLATINUM,東京都,139.72999021296957,35.63931938020414,1
2020-10-27,寿司の美登利 阿佐ヶ谷店 (テイクアウト),東京都,139.63604582926055,35.70173499876186,1
2020-10-26,韻寛,東京都,139.72874382926062,35.68725899876202,1
2020-10-22,スシロー葛西駅前店,東京都,139.87103782926047,35.66407699876239,1
2020-10-22,魚べい堺鳳店,大阪府,135.46355387880993,34.54675903514454,1
2020-10-21,三代目ふらり寿司＆お台所ふらり 豊田 T-FACE店,愛知県,137.154886305611,35.08753668033694,1
2020-10-20,旬味旬彩 鮨まつ田,岩手県,141.62896256590693,39.01777747955226,1
2020-10-19,すし酒場 フジヤマ 上野店,東京都,139.77517405569267,35.71093651502944,1
2020-10-19,すし処みかづき,愛知県,136.89450480561254,35.16880898031702,1
2020-10-16,むすび寿司 ルミネ大宮店,埼玉県,139.62171931584146,35.90598798014249,1
2020-10-14,喜多郎寿し 兎我野町店,大阪府,135.50342290560337,34.700039780434594,1
2020-10-12,金沢北陸直送 漁船丸 岩倉店,愛知県,136.87276829398456,35.276023780734185,1
2020-10-12,江戸前鮨 人形町 粋 総本店,東京都,139.78319482926054,35.68493999876212,1
2020-10-12,スシロー 青森黒石店,青森県,140.5967235694755,40.635031418726115,1
2020-10-12,はま寿司 港北高田店,神奈川県,139.6205467591209,35.55088131957047,1
2020-10-12,寿司居酒屋や台ずし みずほ台駅西口町,埼玉県,139.5493047280413,35.83637543291837,1
2020-10-10,かっぱ寿司 上大岡ミオカ店,神奈川県,139.59502531296494,35.407780380258856,1
2020-10-10,おすしや （OSUSHIYA）,大阪府,135.51592482925923,34.67214699877764,1
2020-10-10,うまい鮨勘 ゆとろぎ八戸城下店,青森県,141.4952149862632,40.518738139986105,1
2020-10-08,佃 瀧三郎 すし うなぎ 立石店,東京都,139.8493956056241,35.73925258018089,1
2020-10-08,弐ノ蔵,北海道,141.3246647057844,43.053583279146515,1
2020-10-07,京寿司 鍛冶町店,福岡県,130.8816994055873,33.88332048065227,1
2020-10-05,鮨うら山 日本橋店,東京都,139.77395175765733,35.68174967798229,1
2020-10-05,恵比寿 鮨 ふじまさ,東京都,139.71045070562215,35.64518758020264,1
2020-10-02,寿司・ふぐ 紫雲英,滋賀県,135.96115871295729,35.019260980353955,1
2020-10-02,はま寿司 酒田店,山形県,139.85820110429927,38.91768722307913,1
2020-10-02,鮨・串てん専門店 磯野梅三郎,京都府,135.7297410056093,35.00082798035858,1
2020-09-30,來経,東京都,139.73934720562326,35.70014648018987,1
2020-09-29,スシロー はにんす宜野湾店,沖縄県,127.74760308083181,26.28606998789402,1
2020-09-29,スシロー綾川店,香川県,133.92090150306754,34.25175236274876,1
2020-09-29,東京寿司カレッジ 鮨 心,東京都,139.6978831056229,35.6890355801924,1
2020-09-28,さくら寿司,京都府,135.77949240560616,34.85234828039578,1
2020-09-28,寿司居酒屋や台ずし 東岸和田駅前町,大阪府,135.38545071294604,34.44839788050004,1
2020-09-27,淳ちゃん寿司,東京都,139.3215531129699,35.64583348020255,1
2020-09-26,すしおん（表参道・飯田橋 共通）,none,-1,-1,1
2020-09-25,MAGURO & DELI 魚屋 かどはち,東京都,139.7032244269185,35.64843169091747,1
2020-09-25,すし 宮川,東京都,139.75390230562246,35.65821818019967,1
2020-09-25,寿司つばさ,東京都,139.77395282924448,35.6976943987619,1
2020-09-24,鮨・酒・肴 杉玉 大宮東口,埼玉県,139.6240177276701,35.90807948014202,1
2020-09-24,御茶ノ水 鮨 ふくじゅ,東京都,139.76426203598567,35.6996286555941,1
2020-09-21,意気な寿し処 阿部 青山店,東京都,139.70799585158287,35.663983824955935,1
2020-09-18,立川 寿司 空,東京都,139.4115577056231,35.698765380190345,1
2020-09-17,はま寿司 蕨店,埼玉県,139.67539590562583,35.8284286801603,1
2020-09-17,すしざんまい 匠・極 北新地店,大阪府,135.49962620560314,34.69735148043547,1
2020-09-16,鮨・酒・肴 杉玉 海浜幕張,none,140.0424622056222,35.64845598020194,1
2020-09-16,鮨・酒・肴 杉玉 大船,神奈川県,139.53184380561612,35.352339980272426,1
2020-09-16,おみや寿司 かどはち,東京都,139.70209550562248,35.65831888019959,1
2020-09-15,スシロー心斎橋店,大阪府,135.50108160560296,34.67689898044056,1
2020-09-15,スシロー徳島西新浜店,徳島県,-1,-1,1
2020-09-13,魚べい尼崎浜田店,兵庫県,135.39662521987447,34.726351672498645,1
2020-09-11,スシロー心斎橋店,大阪府,135.50108160560296,34.67689898044056,1
2020-09-10,池袋 寿司 空,東京都,139.7124974184333,35.72878303504896,1
2020-09-09,がってん寿司旬亭 イーアスつくば店,茨城県,140.08364631297871,36.085457680101975,1
2020-09-09,すし酒場 さしす,大阪府,135.49747995864834,34.69889425857139,1
2020-09-09,五反田鮨 SUSHI TOKYO 81,東京都,139.72644788550338,35.62601166601545,1
2020-09-08,スシロー 川崎南幸町店,神奈川県,139.68660021296753,35.533463280229064,1
2020-09-07,くら寿司 仙台西多賀店,宮城県,140.85267371302314,38.22031047968084,1
2020-09-06,寿司居酒屋や台ずし 岩倉駅東口町,愛知県,136.8743900056148,35.27845188029021,1
2020-09-03,根室花まる JINGUMAE COMICHI店,東京都,139.7035518679396,35.67248956566561,1
2020-09-03,すし屋つかだ 南千住店,東京都,139.79849782926058,35.733566398761376,1
2020-09-02,祇園 寿司六,京都府,135.77365930560936,35.00427648035785,1
2020-09-01,海鮮・寿司 居酒屋 舞,東京都,139.75184671297026,35.66902438019733,1
2020-08-31,寿し松葉屋,石川県,136.6510768292456,36.559871998749955,1
2020-08-31,すし 銚子丸 初台店,東京都,139.68213890562293,35.68372698019374,1
2020-08-27,鮨 いくた,石川県,136.6534066056407,36.56010537999875,1
2020-08-26,魚べい 神戸中央区役所東店,兵庫県,135.19792220560333,34.69567958043583,1
2020-08-26,鮨・酒・肴 杉玉 鶴ヶ峰,神奈川県,139.5474298292443,35.47478699876518,1
2020-08-22,KON こんにゃく寿司とかき氷,東京都,139.67955981933386,35.67510956133639,1
2020-08-20,寿司 赤酢・別邸,大阪府,135.50000320560318,34.697093280435524,1
2020-08-18,はま寿司 飯能店,埼玉県,139.3270749056263,35.85034168015509,1
2020-08-18,すし酒場 さしす 2号店,大阪府,135.49768031295076,34.69893418043491,1
2020-08-12,魚がし日本一 伊丹エアポート店,大阪府,135.4423310904509,34.78959558779111,1
2020-08-12,スシロー 鶴見東寺尾店,神奈川県,-1,-1,1
2020-08-12,スシロー 茨城鹿嶋店,茨城県,140.63551331584318,35.98218878012518,1
2020-08-10,横浜すし好,神奈川県,139.62055421583258,35.46534608024527,1
2020-08-10,佃 瀧三郎すし 浅草店,東京都,139.7934564921808,35.7152898589715,1
2020-08-06,豆狸 アトレ浦和店,埼玉県,139.65751751297415,35.85829568015346,1
2020-08-04,鮨 まごのて,大阪府,135.52952820560273,34.66919188044251,1
2020-08-04,青山鮨かねさか,東京都,139.71525482926057,35.66954099876232,1
2020-08-04,鮨・酒・肴 杉玉 横須賀中央,神奈川県,139.66973640561466,35.27924588028994,1
2020-08-01,鉄板焼＆鮨 諫早竹彩,長崎県,130.04954151578184,32.847031780951035,1
2020-07-30,立喰い寿司 ひなと丸,東京都,139.75885282926058,35.66964599876235,1
2020-07-25,くら寿司 掛川城店,静岡県,138.0137160029481,34.7776345640517,1
2020-07-25,スシロー池袋駅東口店,東京都,139.71298740562386,35.73177288018258,1
2020-07-25,スシロー 府中西原町店,東京都,139.4592275959381,35.68297970695635,1
2020-07-25,魚べい福島黒岩店,福島県,140.4613305918431,37.72668242878325,1
2020-07-22,魚がし日本一 中野マルイ店,東京都,139.664785612971,35.7047002801889,1
2020-07-22,鮨・酒・肴 杉玉 浦安,千葉県,139.8920531056226,35.66569058019806,1
2020-07-22,鮨・酒・肴 杉玉 岸和田,大阪府,135.37717180559846,34.46054828049678,1
2020-07-20,3110NZ by LDH Kitchen,東京都,139.69718270562214,35.64739918020215,1
2020-07-20,無添くら寿司 なんば日本橋店,大阪府,135.50301670560253,34.66344248044413,1
2020-07-20,無添くら寿司 フレスポ住吉店,東京都,139.81095630562302,35.68838168019259,1
2020-07-20,神楽坂 鮨 田むら,東京都,139.73315382926052,35.69890099876187,1
2020-07-19,函館握り寿司 函太郎 札幌日生ビル店,北海道,141.34946348757845,43.06477350617328,1
2020-07-14,鮮魚・寿司 御領丸,兵庫県,135.16578682925928,34.67878499877753,1
2020-07-14,鮨 香輪,兵庫県,134.9959253056022,34.64684758044823,1
2020-07-14,お持ち帰り専門店 中村商店 都島店,大阪府,135.52434282925935,34.708634998777015,1
2020-07-14,ふかどん / 深廣漁業組合,兵庫県,135.3595690158181,34.72359718042861,1
2020-07-14,鮨小路京  エキュート日暮里店,東京都,139.77025282924458,35.728094998761456,1
2020-07-14,回転寿司 海鮮三崎港 アルカキット錦糸町店,東京都,139.81044141583743,35.697398980190485,1
2020-07-14,京樽 豊橋駅ビル・カルミア店,愛知県,137.38218851464185,34.7631932884338,1
2020-07-14,京樽 ミュープラット大曽根店,愛知県,136.9363933292599,35.19192669876942,1
2020-07-13,天然本まぐろ ありそ鮨し 伊丹空港店,大阪府,135.44077371291297,34.790618635309386,1
2020-07-13,天然本まぐろ ありそ鮨し グランスタ東京店,東京都,139.76658250615625,35.68131881538543,1
2020-07-12,横浜すし好,神奈川県,139.62155065828708,35.465693995061265,1
2020-07-10,スシロー 会津若松店,福島県,139.926442,37.484862,1
2020-07-09,鮨処はやし,福岡県,130.3739041486149,33.58275797297141,1
2020-07-07,鮨 崚,東京都,139.76450600562254,35.66634348019792,1
2020-07-06,魚がし日本一 エトモ溝ノ口店,神奈川県,139.6104935056211,35.59995588021339,1
2020-07-05,くら寿司 葛飾金町店,東京都,139.86155331526132,35.769919980173675,1
2020-07-05,くら寿司 姶良店,鹿児島県,130.63782654576417,31.732029224707738,1
2020-07-04,かっぱ寿司 イオンモール与野店,埼玉県,139.61289951584124,35.890858980146035,1
2020-07-01,京都WHAT’S おにくのおすし,大阪府,135.49868961581694,34.664555980443936,1
2020-07-01,鮨 浩也,東京都,-1,-1,1
2020-06-29,日本料理 寿司・うなぎ処 京丸,静岡県,138.9105278292598,35.12573999877048,1
2020-06-29,立ち寿司横丁 吉祥寺,東京都,139.57936540562332,35.70354478018918,1
2020-06-27,マグロ大使,愛知県,136.90615900064626,35.1706020762918,1
2020-06-23,鮨・酒・肴 杉玉 浦安,千葉県,139.8920531056226,35.66569058019806,1
2020-06-23,風和利・金澤いなり 福るみ,石川県,136.64530631585546,36.57844297999473,1
2020-06-23,はま寿司 羽村小作台店,東京都,139.29777311297235,35.780954980171174,1
2020-06-23,はま寿司 川崎下麻生店,神奈川県,139.50843346637254,35.57667306853983,1
2020-06-21,無添くら寿司 光が丘IMA店,東京都,139.6273745292607,35.758043598761006,1
2020-06-21,廻鮮寿し たいの鯛 神戸西店,兵庫県,135.0041752129502,34.66784738044301,1
2020-06-19,寿司処一心,宮城県,141.57449391303786,38.900373579570186,1
2020-06-19,鮨 びたろう,沖縄県,127.65050430084293,26.15781799392214,1
2020-06-18,京樽 自由が丘東急フードショースライス店,東京都,139.66931471296903,35.60781078021156,1
2020-06-18,回転寿司 根室花まる 大同生命札幌ビル miredo店,北海道,141.3514558154947,43.06476944833157,1
2020-06-18,寿司居酒屋や台ずし 常盤平駅南口町,千葉県,139.95016080562525,35.802722280166165,1
2020-06-17,スシロー 練馬関町店,東京都,-1,-1,1
2020-06-17,スシロー有楽町店,東京都,139.7626238129704,35.675359780195755,1
2020-06-16,街のみなと 神戸水道筋店,兵庫県,135.22247814988728,34.71209965378852,1
2020-06-15,すし酒場 フジヤマ 秋葉原 昭和通り店,東京都,139.77469182926055,35.69893499876188,1
2020-06-12,鮨と一品 いちかわ,大阪府,135.50228020560405,34.74063758042421,1
2020-06-11,ときすし なんばパークス店,大阪府,135.49973121581684,34.66143328044467,1
2020-06-10,街のみなと 寺田町店,大阪府,135.52389210560244,34.64886508044788,1
2020-06-10,スシロー 三ノ宮いくたロード店,兵庫県,-1,-1,1
2020-06-10,スシロー 難波アムザ店,大阪府,135.50335710560267,34.66659958044334,1
2020-06-09,鮨やまけん 新宿東口店,東京都,139.7018474624545,35.69461431675096,1
2020-06-08,無添くら寿司 D・plaza大分店,大分県,131.60517082925756,33.24599699880209,1
2020-06-05,回転寿司 力丸 神戸三宮センタープラザ店,兵庫県,135.19207486575667,34.69159167622192,1
2020-06-05,鮨 あお,東京都,139.71039712613353,35.66434728587801,1
2020-05-31,海鮮三崎港 エキア松原,埼玉県,139.7985109158403,35.84324898015681,1
2020-05-31,寿司赤酢 京都福,京都府,135.77062210560933,35.01013748035629,1
2020-05-30,寿司居酒屋や台ずし 末広温泉町,鳥取県,134.23049240561903,35.49505188023826,1
2020-05-29,テイクアウト寿司工房 浪漫,none,134.67354542925952,34.83415309877506,1
2020-05-27,関山 渋谷ヒカリエShinQs,東京都,139.70325561315255,35.659055080199565,1
2020-05-27,スシロー 枚方星ヶ丘店,大阪府,135.66421200560538,34.81140548040625,1
2020-05-27,魚べい 那珂店,茨城県,140.50195294119303,36.44882724412815,1
2020-05-24,大起水産 街のみなと メトロなかもず店,大阪府,135.50409064459942,34.55546799627153,1
2020-05-24,大起水産 街のみなと 阪神尼崎店,兵庫県,135.41052682925928,34.72062699877682,1
2020-05-24,大起水産 街のみなと 針中野店,大阪府,135.5324825410135,34.61753524114073,1
2020-05-24,街のみなと 南海金剛店,大阪府,135.55965020559935,34.494655280487805,1
2020-05-24,沼津魚がし鮨 流れ鮨 富士吉田店,山梨県,138.7830620216041,35.48068598777147,1
2020-05-24,沼津魚がし鮨 流れ鮨 三島店,静岡県,138.9074473129599,35.15214568032106,1
2020-05-18,寿司赤酢・心斎橋,大阪府,135.50191650560262,34.67007778044227,1
2020-05-17,無添くら寿司 名古屋明前町店,愛知県,136.92159682924373,35.11098899877072,1
2020-05-13,鮨・酒・肴 杉玉 茨木,大阪府,135.57625150560563,34.81797358040461,1
2020-05-13,寿司赤酢 赤坂,東京都,139.73534082926054,35.67466199876224,1
2020-05-12,寿司赤酢 神戸元町店,兵庫県,135.18703132925936,34.69365459877728,1
2020-05-08,きし鮓,京都府,135.7706681554434,34.99877693880129,1
2020-05-08,氷見きときと寿し富山駅店,富山県,137.21413982926182,36.70087399874811,1
2020-05-07,すし酒場 フジヤマ 有楽町店,東京都,139.75960682926055,35.6725869987623,1
2020-04-29,小僧寿し × かつてん 上柴店,埼玉県,139.29709550582757,36.17770188008149,1
2020-04-27,寿司居酒屋や台ずし 鳥栖町,佐賀県,130.51574082925842,33.37370999879973,1
2020-04-26,無添くら寿司 都城店,宮崎県,131.0829738688339,31.75662474050334,1
2020-04-23,はま寿司 船橋習志野台店,千葉県,140.0503238292451,35.7120679987617,1
2020-04-23,はま寿司 熊本東バイパス店,熊本県,130.75536740576217,32.81929998095919,1
2020-04-20,先斗町 すしさゝや 幸凛,京都府,135.77100040580402,35.00526038035765,1
2020-04-17,魚べい 石岡店,茨城県,140.29558521316312,36.19852678007685,1
2020-04-16,スシロー 那覇国際通り店,沖縄県,127.6825758016433,26.21440396539272,1
2020-04-16,スシロー 防府店,山口県,131.5642024156168,34.05564951620632,1
2020-04-16,スシロー浅草吾妻橋店,東京都,139.8005291131535,35.709539280187656,1
2020-04-15,すし遊館あさひLECT店,広島県,-1,-1,1
2020-04-14,無添くら寿司 川越的場店,埼玉県,139.4322436984333,35.91476650553688,1
2020-04-12,無添くら寿司 いわき平店,福島県,140.8986489388173,37.04715327034611,1
2020-04-10,鮨やまけん 新宿東口店,東京都,139.70116782926115,35.694615998761925,1
2020-04-07,いなり屋 一咲,福井県,136.19090975829175,35.939204795033746,1
2020-04-04,鮨 藤よし,福岡県,130.40671282925865,33.587184998795955,1
2020-04-04,寿司バル ELEVEN EEL,兵庫県,134.68973192127595,34.83044821457135,1
2020-04-01,和食レストラン銀のさら 茜部店,岐阜県,136.75182943955477,35.38816449045128,1
2020-04-01,寿司赤酢 道頓堀,大阪府,135.50543240579742,34.668866680442704,1
2020-04-01,鮨・酒・肴 杉玉 大森,東京都,139.7295275058156,35.58844468021602,1
2020-03-31,鮨 川澄,静岡県,138.4926666131394,35.01048548035607,1
2020-03-30,立ち寿司横丁 高円寺パル商店街,東京都,139.6494570449879,35.70508702192656,1
2020-03-30,無添くら寿司 岡山北店,岡山県,133.9061642778037,34.68125298043936,1
2020-03-29,魚べいAコープ中田店,神奈川県,139.51086091314738,35.41018058025829,1
2020-03-29,魚べい成増駅南口店,東京都,139.6318765146968,35.77704947080426,1
2020-03-27,きらく,兵庫県,135.19246282925997,34.69710899877724,1
2020-03-26,海鮮三崎港 新宿3丁目,東京都,139.7038852058178,35.690061980192226,1
2020-03-25,スシロー 沖縄住吉店,沖縄県,127.80726682925088,26.33780399896114,1
2020-03-25,スシロー アスナル金山店,愛知県,136.90105991314215,35.144143480323066,1
2020-03-25,スシロー 河原町蛸薬師通り店,京都府,135.7683639058042,35.005694980357234,1
2020-03-25,すし松 エキア プレミエ 和光市駅店,埼玉県,139.61157982926133,35.78831899876061,1
2020-03-25,回転寿司 ととぎん イオンスタイル海老江店,大阪府,135.47381451582737,34.69731468043542,1
2020-03-25,吾妻寿司 さんすて岡山店,岡山県,133.91723812780327,34.66555758044354,1
2020-03-25,回転寿司海鮮三崎港さんすて岡山店,岡山県,133.91723812780327,34.66555758044354,1
2020-03-24,寿司居酒屋や台ずし 鳩ヶ谷駅前町,埼玉県,139.7341233152629,35.8308859801596,1
2020-03-24,寿司居酒屋や台ずし 多治見駅前町,岐阜県,137.1218782051406,35.33477498027651,1
2020-03-24,寿司居酒屋や台ずし 丸亀駅富屋町,香川県,133.79534490579002,34.28952848054211,1
2020-03-24,寿司居酒屋や台ずし 中津駅南口町,大分県,131.1898734124349,33.59837298073177,1
2020-03-24,寿司居酒屋や台ずし 北坂戸駅東口町,埼玉県,139.3965942292614,35.97200039875799,1
2020-03-24,寿司居酒屋や台ずし JR灘駅前町,兵庫県,135.21639462926004,34.705475798777094,1
2020-03-23,肉の寿司 一縁,茨城県,-1,-1,1
2020-03-20,鮨光 （Sushi Hikari）,東京都,139.6721878142216,35.60458999609301,1
2020-03-18,鮨・酒・肴 杉玉 日吉,神奈川県,139.64521260581503,35.553256780224466,1
2020-03-16, 鮨 Out Of Bounds,東京都,139.70346010581716,35.66406318019822,1
2020-03-13,鮨 吉弥,大阪府,135.5121208057984,34.71182738043159,1
2020-03-09,無添くら寿司 町田店,東京都,139.45950121315005,35.542177880226966,1
2020-03-09,無添くら寿司 フレスポ東日暮里店,東京都,139.77796861315372,35.732192830182335,1
2020-03-08,大衆寿司酒場 こがね家 越谷レイクタウン店,埼玉県,139.8237004737616,35.87335129929712,1
2020-03-05,廻転寿司 CHOJIRO 洛北阪急スクエア店,京都府,135.77874581314018,35.04111718034839,1
2020-03-04,広島 裏袋 肉寿司,広島県,132.45989382925953,34.391907998782216,1
2020-03-04,鮨 rindo,兵庫県,135.191789005798,34.694254180436026,1
2020-03-01,鮨乃悠家,愛知県,136.91709382926055,35.169377998769825,1
2020-03-01,スシロー 立川駅北口店,東京都,139.4146066131531,35.69973478018989,1
2020-02-29,すし屋 田ざわ イオンレイクタウンkaze店,埼玉県,139.82276521585072,35.87774288014892,1
2020-02-28,鮨・酒・肴 杉玉 横浜西口,神奈川県,139.61710282926094,35.46307899876538,1
2020-02-27,寿司 藤やま,大阪府,135.49977111313294,34.68740358043789,1
2020-02-27,しゃぶしゃぶ・寿司食べ放題 湯本しゃぶ将軍 田なべ,福島県,140.8681421159351,36.98826138740262,1
2020-02-26,海鮮三崎港 ビーンズ新杉田店,神奈川県,139.61890682926077,35.38690599876647,1
2020-02-26,スシロー 福島旭町店,福島県,140.4770318631956,37.763776029761715,1
2020-02-25,鮨・酒・肴 杉玉 大和西大寺,奈良県,135.78309702669893,34.694200206028086,1
2020-02-21,大起水産 街のみなと 堺東店,大阪府,135.48399202780132,34.57542468046699,1
2020-02-18,寿司居酒屋や台ずし 福間駅西口町,福岡県,130.48307582924272,33.76387309879285,1
2020-02-18,寿司居酒屋や台ずし 東松山駅東口町,埼玉県,139.40138140582476,36.03731488011285,1
2020-02-14,魚べい ゆいの杜店,栃木県,139.9949511131708,36.56809642999701,1
2020-02-14,無添くら寿司 富士店,静岡県,138.67054580331214,35.166462030146675,1
2020-02-14,鮨屋 とんぼ 伏見店,愛知県,136.90105716772695,35.16967838317219,1
2020-02-14,にぎり長次郎 高槻市宮が谷店,大阪府,135.6167606990309,34.86905876755144,1
2020-02-09,無添くら寿司 松原店,大阪府,135.55097981313114,34.57988428046565,1
2020-02-07,はま寿司 練馬春日町店,東京都,139.6465339831695,35.75463108348769,1
2020-02-07,鮨 仙客,大阪府,135.49856382925992,34.69726299877724,1
2020-02-05,川崎 肉寿司,神奈川県,139.7003945417958,35.52904549656963,1
2020-02-05,スシロー 総社井手店,岡山県,133.7605210469001,34.671353655946845,1
2020-02-05,スシロー 金沢駅西,石川県,136.63273429278183,36.58979199859642,1
2020-02-03,御苑前 誠,東京都,139.71104882926113,35.68818099876206,1
2020-02-02,大起水産 街のみなと 住之江店,大阪府,135.48649682924378,34.60508399877868,1
2020-01-31,鮨 一輝 溝口店,神奈川県,139.6122701278218,35.5990378802135,1
2020-01-30,すし酒場 さしす,大阪府,135.49900681313346,34.698825680435085,1
2020-01-29,寿司居酒屋や台ずし JR岐阜駅前町,岐阜県,136.75794882926076,35.41177199876614,1
2020-01-29,寿司居酒屋や台ずし あびこ町,大阪府,135.51300790579614,34.59943978046065,1
2020-01-29,寿司居酒屋や台ずし 福工大駅前町,福岡県,130.44105110577883,33.700072480703255,1
2020-01-29,寿司居酒屋や台ずし 廿日市駅前町,広島県,132.33590810579148,34.357096380524126,1
2020-01-27,無添くら寿司 浅草ROX店,東京都,139.7922448278241,35.71292078018687,1
2020-01-23,大衆寿司酒場 わさび 神保町店,東京都,139.75456210581774,35.69600778019104,1
2020-01-23,寿司菜（スッシーナ）,東京都,139.78618327956875,35.64525102716351,1
2020-01-23,つきぢ神楽寿司 豊洲場外店,東京都,139.78618327956875,35.64525102716351,1
2020-01-23,つきじ鈴富 江戸前場下町店,東京都,139.78618327956875,35.64525102716351,1
2020-01-21,無添 くら寿司 戸田駅前店,埼玉県,139.66826324858226,35.818383098170976,1
2020-01-21,無添 くら寿司 各務原鵜沼店,岐阜県,136.93320182924475,35.401898998766264,1
2020-01-21,スシロー 多摩センター店,東京都,139.42507782926106,35.624878998763,1
2020-01-21,スシロー 南越谷店,埼玉県,139.78958282926138,35.876961998759334,1
2020-01-21,スシロー 御殿場店,静岡県,138.92580121314532,35.31031908028245,1
2020-01-21,はま寿司 足立東和店,東京都,139.8414614238907,35.76643382814979,1
2020-01-17,鮨 天ぷら 左馬(ひだりうま),山形県,140.3809078292646,38.36026799872859,1
2020-01-16,蟹鮨 加藤 ニセコ店,北海道,140.70620320597348,42.857748379156725,1
2020-01-14,牛肉寿司きんたん,東京都,139.75932951315275,35.669856380196975,1
2020-01-14,廻転とやま鮨 銀座,東京都,139.75932951315275,35.669856380196975,1
2020-01-14,鮨の匠,大阪府,135.49866982925994,34.696662998777235,1
2020-01-14,博多中洲 肉寿司,福岡県,130.40774482925858,33.59183499879584,1
2020-01-11,スシロー綱島店,神奈川県,139.63911382926102,35.53182199876438,1
2020-01-10,すし 此方彼方（こなたかなた）,北海道,141.35244682927112,43.04759899869668,1
2020-01-10,京樽 西葛西店,東京都,139.85905251315228,35.66447578019839,1
2019-12-31,ささしぐれ 築地玉寿司 東急プラザ渋谷店,東京都,139.69966482924508,35.65776699876248,1
2019-12-28,函館 立喰い寿司函太郎 LINKS UMEDA店,大阪府,135.4940659158274,34.70418978043367,1
2019-12-25,魚べい 春日井店,愛知県,136.95263620579055,35.2497589979685,1
2019-12-23,横浜 牡蠣とトロとご褒美と美海寿司,神奈川県,139.61435482926086,35.462943998765375,1
2019-12-22,京樽/すし三崎港 上野松坂屋店,東京都,139.77320760581796,35.70740428018807,1
2019-12-22,金沢まいもん寿司渋谷パルコ,東京都,139.69676267955808,35.66202633872957,1
2019-12-18,寿司居酒屋や台ずし 小田原お堀端通り町,神奈川県,139.15737282926065,35.25430699876849,1
2019-12-18,寿司居酒屋や台ずし 豊田駅北口町,東京都,139.3805158292611,35.66114999876242,1
2019-12-18,寿司居酒屋や台ずし 徳力公団駅前町,福岡県,130.8666298292589,33.83024799879166,1
2019-12-17,さんきゅう水産 若江岩田店,大阪府,135.60654982924382,34.66323799877779,1
2019-12-15,酒 揚げ 魚すし 大漁 国際通りのれん街店,沖縄県,127.68806682925069,26.216580998964556,1
2019-12-15,築地のはなれ 鮨 しづめ,東京都,139.7725628292612,35.66969999876231,1
2019-12-14,蟹鮨 加藤 札幌 狸小路店,北海道,141.3563909,43.0577186,1
2019-12-11,すし三崎港 EQUiA PREMIE 和光店,埼玉県,139.6100715158489,35.78828368016951,1
2019-12-11,SUSHIRO 天神橋5丁目店,大阪府,135.51084382925995,34.70737499877705,1
2019-12-11,無添くら寿司 泉南店,大阪府,135.25997482925945,34.36307699878267,1
2019-12-11,無添くら寿司 八王子みなみ野店,東京都,139.32857682926118,35.63165499876287,1
2019-12-08,はま寿司 京都洛西店,京都府,135.68277682924418,34.9722839987729,1
2019-12-06,立喰い寿し 寿し常 アトレ上野パークアベニュー店,東京都,-1,-1,1
2019-12-06,廻り寿し 渋谷 寿し常 渋谷パルコ店,東京都,139.69676267955808,35.66202633872957,1
2019-12-05,魚べい小牧店,愛知県,136.9058108292446,35.286628998768,1
2019-12-05,一口いなり むろや クリスタ長堀店,⼤阪府,135.50266582924382,34.67516199877756,1
2019-12-05,立ち食い寿司 ぷら寿,⼤阪府,135.50266582924382,34.67516199877756,1
2019-12-04,寿司 あおい,神奈川県,139.5132640169425,35.54335737017036,1
2019-12-04,ながり鮨 錬,兵庫県,135.18978382925994,34.692578998777314,1
2019-12-03,鮨・酒・肴 杉玉 お初天神,大阪府,135.50008182925987,34.70077499877718,1
2019-12-02,鮨 凛,福岡県,130.4247308292586,33.58677499879596,1
2019-12-02,無添くら寿司 十条店,東京都,139.71967982926117,35.76004999876102,1
2019-12-02,無添くら寿司 南巽店,大阪府,135.5514115453257,34.63855516541909,1
2019-12-01,鮨 だいわ,大阪府,135.50232971313255,34.67149008044197,1
2019-11-29,にぎり長次郎 守山上志段味店,愛知県,137.0356742057905,35.25522299796835,1
2019-11-29,寿司居酒屋や台ずし 新高島平駅前町,東京都,139.65350520509708,35.790838980168935,1
2019-11-29,日本橋粋 南町田グランベリーパーク店,東京都,139.47017007897725,35.51024499559779,1
2019-11-27,魚べい 八尾光町店,大阪府,135.60384782925985,34.63376299877824,1
2019-11-27,鮨処 濱,神奈川県,139.63569582926084,35.44849799876556,1
2019-11-27,上大岡 肉寿司,神奈川県,139.59502531409004,35.40778036730523,1
2019-11-25,鮨 以とう 一貫,東京都,139.69908051408714,35.656409267211195,1
2019-11-23,寿司酒場 わさび 新百合ヶ丘店,神奈川県,139.50852460676398,35.60167956707501,1
2019-11-22,寿司あおい 青葉台店,神奈川県,139.51334960676363,35.54346306710065,1
2019-11-22,おおきに迎賓館 ふく吉,京都府,135.74979620675984,35.02481656730561,1
2019-11-21,はま寿司 フォレストモール木津川店,京都府,135.83360911582767,34.71638128043058,1
2019-11-20,スシロー 新狭山店,埼玉県,139.41426582926135,35.86806099875951,1
2019-11-19,かっぱ寿司 イオンモール下妻店,茨城県,139.98797831585705,36.18954478007877,1
2019-11-19,SUSHIRO 秋葉原駅前店,東京都,139.77161372926113,35.698737698761946,1
2019-11-18,天神今泉 肉寿司,福岡県,130.40019640674893,33.58679476793881,1
2019-11-15,魚の山金 イオンモール富津店,千葉県,139.84327378000467,35.330466380374205,1
2019-11-14,すし酒場 フジヤマ 秋葉原店,東京都,139.77490360704763,35.69776526346093,1
2019-11-14,すし遊洛 調布パルコ店,東京都,139.542897620129,35.65278787282407,1
2019-11-14,寿司と居酒屋魚民 浅草駅前店,東京都,139.79705982926114,35.711135998761726,1
2019-11-14,浦正鮨 別邸,兵庫県,134.98082281408904,34.67352856760399,1
2019-11-14,新 握一番 イオンタウン四日市泊店,三重県,136.59911881583218,34.93899468037406,1
2019-11-12,鮨・酒・肴 杉玉 伏見桃山,京都府,135.76280122926025,34.932902798773476,1
2019-11-12,すし道場 はなれ 栄店,愛知県,136.9038788292605,35.165925998769865,1
2019-11-09,無添 くら寿司 伊勢原店,神奈川県,139.28856582926076,35.394853998766344,1
2019-11-08,すし 松栄 渋谷スクランブルスクエア店,東京都,139.70232915776882,35.65840260821517,1
2019-11-06,スシロー 吉野ヶ里店,佐賀県,130.41384862023463,33.332179985872465,1
2019-11-06,SUSHIRO 川口駅前店,埼玉県,139.71947582926134,35.803355998760395,1
2019-11-06,秋葉原 肉寿司,東京都,139.7734838292612,35.700317998761825,1
2019-11-05,寿司 赤酢,大阪府,135.49762582925993,34.69633299877722,1
2019-11-05,無添くら寿司 相模原古淵店,神奈川県,139.41199272926102,35.55514459876404,1
2019-11-04,鮨 WASABI（すし わさび）,広島県,132.46190530674892,34.3938959675711,1
2019-11-02,華彩 HANAIRO,東京都,139.70232915776882,35.65840260821517,1
2019-11-01,寿司酒場 まぐろ人 国分寺店,東京都,139.48106830676028,35.7017479670357,1
2019-11-01,京寿司 箱崎店,福岡県,130.41909982925864,33.62422299879528,1
2019-10-31,すし三崎港 ビーンズ亀有店,東京都,139.84737820677262,35.766570767010826,1
2019-10-31,京樽 神戸大丸店,兵庫県,135.18835801582702,34.688580780437626,1
2019-10-31,寿司居酒屋や台ずし 馬橋駅西口町,千葉県,139.9159442061763,35.81301396698838,1
2019-10-28,無添くら寿司 アクロスプラザ市原更級店,千葉県,140.10082182926098,35.51054899876468,1
2019-10-28,スシロー 川越インター店,埼玉県,139.46580461408973,35.89984706711017,1
2019-10-28,はま寿司 小樽築港店,北海道,141.01649780420672,43.185420997183755,1
2019-10-25,新地 鮓 ゆうじろう,大阪府,135.49611882925996,34.695930998777214,1
2019-10-25,すし銚子丸 雅 テラスモール松戸店,千葉県,139.93233765829123,35.817940995040686,1
2019-10-24,無添くら寿司 アクロスプラザ市原更級店,千葉県,140.0990223152541,35.509915980234624,1
2019-10-21,無添 くら寿司 国分寺恋ヶ窪店,東京都,139.46741241408915,35.7087914671886,1
2019-10-19,回転寿司やまと 袖ヶ浦駅前店,千葉県,139.95513998421038,35.4325649970075,1
2019-10-18,小僧寿し 鹿骨店,東京都,139.88867001408582,35.71052956718941,1
2019-10-16,肉寿司 水戸駅北口,茨城県,140.47492539265423,36.372287987719815,1
2019-10-15,鮨 柿ざき,千葉県,139.92722682926117,35.721378998761566,1
2019-10-11,すしあおき,宮崎県,-1,-1,1
2019-10-10,追っかけ鮨 地魚料理 松輪,神奈川県,139.60892282926102,35.59877799876338,1
2019-10-07,鮨かすみ,東京都,139.698908829261,35.61362699876313,1
2019-10-05,海鮮丼佐政 ららぽーと沼津店,静岡県,138.83961772871865,35.11834296803343,1
2019-10-04,CHOJIRO 高槻阪急店,大阪府,135.6180692131364,34.85339748039563,1
2019-10-04,若竹丸 島原店,長崎県,130.3635518292577,32.79991699881032,1
2019-10-01,魚喜 ekie店,広島県,132.4759509816671,34.398751806293554,1
2019-10-01,弥栄,東京都,139.71667382926105,35.645853998762654,1
2019-10-01,三代目 だるま鮨,東京都,139.71631941315192,35.63457298020511,1
2019-10-01,寿司処 龍宮亭 札幌駅前店,北海道,141.3541528292712,43.06874599869658,1
2019-09-30,和食寿司 藤宮,愛知県,136.90472149694327,34.94859678959337,1
2019-09-30,にぎり寿司 海鮮料理 播磨水産 稲美百丁場店,兵庫県,134.9225191393897,34.73004899093583,1
2019-09-30,大天寿司,兵庫県,135.30690166408655,34.73626176758156,1
2019-09-26,すし屋のおおたに,青森県,140.47046982926767,40.60096199870901,1
2019-09-26,鮨のだり半 南口店,東京都,139.70249582926118,35.6865059987621,1
2019-09-25,スシロー イオン上飯田店,愛知県,136.92889582924445,35.20190099876931,1
2019-09-25,スシロー 北谷店,沖縄県,127.75579582925083,26.32443199896152,1
2019-09-25,スシロー 山口神田店,山口県,131.45410182924329,34.172125998785866,1
2019-09-25,スシロー 石岡店,茨城県,140.28926462728205,36.189823381139554,1
2019-09-25,寿司居酒屋や台ずし 松山三番町,愛媛県,132.7698613152095,33.838658980664505,1
2019-09-25,寿司居酒屋や台ずし 四条畷駅前町,大阪府,135.63748531523305,34.731433980426516,1
2019-09-24,無添くら寿司 富士宮店,静岡県,138.62097611409212,35.233338767373105,1
2019-09-18,鮨・酒・肴 杉玉 京橋,大阪府,135.52886682925993,34.69550499877723,1
2019-09-18,鮨あかつき,東京都,139.6979308067597,35.695658767035646,1
2019-09-16,天草牛深丸さくら町店,熊本県,130.70308782924158,32.80052689881029,1
2019-09-15,寿司 じじや サクラマチクマモト店,熊本県,130.70308782924158,32.80052689881029,1
2019-09-13,のれん寿司,広島県,132.47073771582149,34.39684798051367,1
2019-09-13,スシマス イオン藤井寺SC店,大阪府,135.59292351408408,34.57394926765048,1
2019-09-12,すし屋銀蔵 市ヶ谷店,東京都,139.73495082926118,35.69034499876201,1
2019-09-11,はま寿司 横浜岡津店,神奈川県,139.52659482926072,35.4260419987659,1
2019-09-11,SUSHIRO 立川駅南口店,東京都,139.41433782926114,35.69662399876195,1
2019-09-11,寿し若,石川県,136.6430955463808,36.57606109024858,1
2019-09-10,九州寿司 寿司虎 Aburi Sushi TORA,東京都,139.62847155829013,35.611308995052724,1
2019-09-08,魚錠 星が丘テラス店,愛知県,136.98507272781302,35.160898880318925,1
2019-09-07,はま寿司 江別店,北海道,141.53088682925517,43.09826499869651,1
2019-09-05,東海道写楽 浜松将監町店,静岡県,137.7587742287227,34.71481186819641,1
2019-09-03,寿司居酒屋や台ずし 夜店公園町,長崎県,129.72226100675132,33.167572968143176,1
2019-08-31,スシロー 石岡店,茨城県,140.28919671409346,36.189845367005184,1
2019-08-28,寿司酒場 まぐろ人 蒲田西口店,東京都,139.71415932926098,35.562211898763906,1
2019-08-28,寿司酒場 まぐろ人 桜上水店,東京都,139.63207480677113,35.66687636704793,1
2019-08-28,鮓 湊,東京都,139.7362618292611,35.67449899876223,1
2019-08-27,寿司居酒屋や台ずし 夜店公園町,長崎県,129.72226100675132,33.167572968143176,1
2019-08-23,鮨 龍いち,東京都,139.76147882926108,35.6697029987623,1
2019-08-23,鮨井,愛知県,136.89095882926048,35.178739998769665,1
2019-08-22,スシローMINANO分倍河原店,東京都,139.4688901287237,35.666989917822,1
2019-08-21,寿司屋,東京都,139.7225399067631,35.625738867063575,1
2019-08-17,鮓 玄治,奈良県,135.8212348292599,34.68070799877748,1
2019-08-12,廻る元祖寿司 新阪急ホテル店,大阪府,135.49697182925988,34.70517699877708,1
2019-08-08,ちょこっと寿し別邸,北海道,141.35383882927113,43.05485899869668,1
2019-08-08,はま寿司 西条周布店,愛媛県,133.07723782925902,33.9198389987902,1
2019-08-07,スシロー 川崎ゼロゲート店,神奈川県,139.69747282926093,35.52923299876434,1
2019-08-06,長崎 肉寿司,長崎県,129.87987282925758,32.743431998811396,1
2019-08-05,喜多郎寿し 十三店,大阪府,135.48126042925998,34.72050279877685,1
2019-08-02,にぎり長次郎 北神戸店,兵庫県,135.22001824345398,34.85507586381747,1
2019-08-01,スシロー 萩土原店,山口県,131.40686610675928,34.405236467572465,1
2019-07-30,寿司酒場 まぐろ人 八王子店,東京都,139.3428418292611,35.65730299876253,1
2019-07-30,寿司居酒屋や台ずし 鳥取駅前町,鳥取県,134.2266600909567,35.49469148148192,1
2019-07-30,魚市場すし 丸忠 イオンモール東浦店,愛知県,136.97198921583268,34.97875048036409,1
2019-07-26,魚べい松阪店,三重県,136.52042601408283,34.58150386764168,1
2019-07-24,すし三崎港 そごう千葉店,千葉県,140.1132904049341,35.61130811612219,1
2019-07-23,すし松風,神奈川県,139.62191912317553,35.469026760256455,1
2019-07-21,無添くら寿司 名古屋有松店,愛知県,136.9653185957974,35.0452676837446,1
2019-07-21,無添くら寿司 佐野高萩店,栃木県,139.59039765829374,36.30087999501363,1
2019-07-21,無添くら寿司 福岡高木店,福岡県,130.43549382925855,33.56159999879639,1
2019-07-20,すし龍,東京都,139.7022388292612,35.660482998762454,1
2019-07-17,寿司居酒屋や台ずし 平塚駅北口町,神奈川県,139.35126482926069,35.329382998767386,1
2019-07-17,スシロー 昭島店,東京都,139.38326771409254,35.69512456718656,1
2019-07-17,鮨・酒・肴 杉玉 神戸北野坂,兵庫県,135.19237982925986,34.69546699877726,1
2019-07-15,金沢まいもん寿司 三軒茶屋,東京都,139.67012782926108,35.64272199876274,1
2019-07-15,寿司酒場 まぐろ人 豪徳寺店,東京都,139.6462888292611,35.65296499876255,1
2019-07-12,すし銚子丸 雅 習志野店,千葉県,140.0582742927806,35.70107199861023,1
2019-07-08,銀座 壮石 新,東京都,-1,-1,1
2019-07-05,かつ乃屋 浦添西海岸パルコシティ店,沖縄県,127.69794106642964,26.262191549410343,1
2019-07-05,まぐろ問屋 三浦三崎港 恵み サンエー浦添西海岸PARCO CITY店,沖縄県,127.69794106642964,26.262191549410343,1
2019-07-04,いなりのこん,none,130.39237250674722,33.59087186794254,1
2019-07-03,や台ずし 東久留米駅東口町,東京都,139.53366782926128,35.761495998760985,1
2019-07-03,スシロー イオン市川妙典店,千葉県,139.9271892064999,35.69230167790666,1
2019-07-03,回転寿司 うわじ丸 茨木西店,大阪府,135.53128031407962,34.836035067538894,1
2019-07-01,鮨 村上,愛知県,136.91685482926042,35.1690169987698,1
2019-06-28,寿司居酒屋や台ずし 尾張一宮駅東口町,愛知県,136.7993285067618,35.30197976719707,1
2019-06-25,無添くら寿司 山形南館店,山形県,140.30610182926446,38.236524998729905,1
2019-06-25,京樽 市川駅 ビル店,千葉県,139.90776456041402,35.72922338582782,1
2019-06-25,すし三崎港 市川駅ビル店,千葉県,139.90776456041402,35.72922338582782,1
2019-06-25,みとのみなと 水戸駅ビル,茨城県,140.4737310158605,36.37107508003919,1
2019-06-25,魚べい各務原店,岐阜県,136.8184908292608,35.39216599876643,1
2019-06-25,たの平亭,東京都,139.71781660676353,35.56219626709121,1
2019-06-24,甲陽園 すし佳,兵庫県,135.33000280675196,34.76216036741286,1
2019-06-21,青山 鮨 ふく江,東京都,139.70509582926107,35.66078699876244,1
2019-06-19,すし松 三芳PA（上り線）店,埼玉県,139.5047693140919,35.84290916713892,1
2019-06-18,すしざんまい匠 赤坂店,東京都,139.7360588292612,35.67674399876225,1
2019-06-17,寿司と串揚げ わが蔵,大阪府,135.4998247067597,34.69175916744866,1
2019-06-09,おにくのおすし 浅草店,東京都,139.7937613221828,35.71454076195671,1
2019-06-05,まるはな屋 本店,東京都,139.7939682067624,35.795435867000435,1
2019-06-03,無添くら寿司 新守山店,愛知県,136.94466098504085,35.20714416395627,1
2019-06-03,無添くら寿司 八女インター店,福岡県,130.51695382924203,33.2165619988026,1
2019-06-03,にぎり長次郎 明石二見店,兵庫県,134.88224271408234,34.71128966758895,1
2019-06-02,すしと炉端のお店 火花,埼玉県,139.62568720675478,35.90511116695771,1
2019-06-01,築地すし好 成田空港第二ターミナル店,千葉県,140.3868623158485,35.77394498017284,1
2019-06-01,鮭バル 三宮,兵庫県,135.1909128292599,34.69298099877728,1
2019-06-01,鮨 やまけん,東京都,139.7669538067626,35.66921686704315,1
2019-05-27,かいだんのうえ,東京都,139.80280682926121,35.75059999876113,1
2019-05-26,無添くら寿司 イトーヨーカドー大井町店,東京都,139.7337145140982,35.60717066722641,1
2019-05-26,無添くら寿司 八戸湊高台店,青森県,141.53313788154765,40.50557299831049,1
2019-05-26,海鮮三崎港 原宿竹下通り,東京都,139.70581882926112,35.6703289987623,1
2019-05-24,鮨 坂本,東京都,139.71230090675945,35.67673696704408,1
2019-05-23,立食い鮨 醍,東京都,139.75869210676444,35.696569367036,1
2019-05-22,はま寿司 天理店,奈良県,135.82306531408034,34.59527556764006,1
2019-05-22,はま寿司 相模原光が丘店,神奈川県,139.37767252872774,35.5590170178632,1
2019-05-22,はま寿司 春日井大和通店,愛知県,136.9524476664711,35.23379132192859,1
2019-05-18,寿司処 ゆかり～Yukari～,東京都,139.70353782926117,35.697609998761884,1
2019-05-16,大江戸イオン鎌ヶ谷店,千葉県,139.99893381584866,35.77843028017173,1
2019-05-15,雛鮨 六本木（ひなずし ろっぽんぎ）,東京都,139.73168482926116,35.662538998762415,1
2019-05-14,海座 栗東大宝西店,滋賀県,135.9719828072543,35.04316545835055,1
2019-05-10,KINKA sushi bar izakaya 三軒茶屋,東京都,139.66789682926103,35.64279799876273,1
2019-05-06,鮨 功 （いさお）,愛知県,136.90351630675767,35.172217167244824,1
2019-05-02,鮨 在,東京都,139.72064382926112,35.650466998762624,1
2019-05-02,へいらっしゃい,東京都,139.70202182926118,35.694889998761965,1
2019-04-27,寿司居酒屋や台ずし 獨協大学前駅東口町,埼玉県,139.80308782926136,35.844210998759806,1
2019-04-26,スシロー コノミ川崎ルフロン店,神奈川県,139.69452701584373,35.52946948022988,1
2019-04-26,魚べい津高茶屋店,三重県,136.50646131582678,34.664944080443746,1
2019-04-26,すし銚子丸 雅 アリオ亀有店,東京都,139.84977841584842,35.76445608017487,1
2019-04-24,寿し 一花星（いちばんぼし）,東京都,139.68598882926105,35.6293459987629,1
2019-04-24,寿司処 龍宮亭,北海道,140.75163960680763,41.78903166543133,1
2019-04-22,すし松 石神井公園店,東京都,139.6051538292612,35.74355199876125,1
2019-04-21,無添くら寿司 アクロスプラザ八尾店,大阪府,135.62036691582543,34.60461108045935,1
2019-04-21,無添くら寿司 久留米上津店,福岡県,130.51953182925817,33.28705499880129,1
2019-04-19,おすしと和食 はた中,石川県,136.65128620619058,36.577797966711486,1
2019-04-19,承知の助byがってん寿司 けやきウォーク前橋店,群馬県,139.07589521586078,36.37913908003745,1
2019-04-18,はま寿司 春日井大和通店,愛知県,136.9525288292606,35.23421899876881,1
2019-04-18,はま寿司 若松ひびきの店,福岡県,130.70468309041328,33.89330197835483,1
2019-04-17,炙庵 とやま鮨,富山県,137.21361142926244,36.69951219874809,1
2019-04-17,スシロー 富山中川原店,富山県,137.24661091409934,36.67439506683639,1
2019-04-17,スシロー国分寺店,東京都,139.48127682926113,35.70081399876185,1
2019-04-16,シラカチ・鮨,沖縄県,127.86812988152593,26.511948998633457,1
2019-04-12,魚河岸 庄五郎,岩手県,141.88926155465768,39.27441929804438,1
2019-04-12,すし銚子丸 雅 イオンスタイル幕張ベイパーク店,千葉県,140.04862323205512,35.6469389971132,1
2019-04-11,鮨邸 田,東京都,139.71446060676521,35.64525386704972,1
2019-04-11,鮨 藤わら,京都府,135.77034482926035,35.005556998772306,1
2019-04-04,すし屋銀蔵 浜松町ハマサイト店,東京都,139.75905841408502,35.656791667205624,1
2019-04-03,鮨・酒・肴 杉玉 高槻店,大阪府,135.61930082926006,34.849661998774806,1
2019-04-03,大衆すしスタンド かね吉,岡山県,133.92430482925985,34.662386998777805,1
2019-03-30,寿司居酒屋や台ずし 薬研堀町,広島県,132.46419082925954,34.39084599878222,1
2019-03-30,寿司居酒屋や台ずし 浦賀駅前町,神奈川県,139.71298431524696,35.25052698029699,1
2019-03-30,寿司居酒屋や台ずし 岡崎駅西口町,愛知県,137.155591729207,34.92566669877355,1
2019-03-27,スシロー 名古屋茶屋が坂店,愛知県,136.96021411409177,35.183068067390046,1
2019-03-27,スシロー 三島梅名店,静岡県,138.92693732926043,35.093602298770975,1
2019-03-27,京樽 重吉 あざみ野東急フードショースライス店,神奈川県,139.5522667582899,35.56822219505519,1
2019-03-19,にぎり処 貫太のすし,岡山県,133.9203734067482,34.65965336745959,1
2019-03-16,匠のがってん寿司 錦糸町PARCO店,東京都,139.8136183158471,35.69649788019071,1
2019-03-15,魚屋 鮨しん,京都府,135.75789882926026,35.00295299877239,1
2019-03-13,魚がし日本一 グランフロント大阪店,大阪府,135.4926629158274,34.70395858043359,1
2019-03-11,スシロー 名古屋茶屋が坂店,愛知県,136.96033680675538,35.18306796724084,1
2019-03-11,スシロー三島梅名店,静岡県,138.92700182926046,35.09365499877096,1
2019-03-11,築地日本海 日本橋室町店,東京都,139.77266560676,35.68958156703872,1
2019-03-08,無添くら寿司 新世界通天閣店,大阪府,135.5054028292599,34.65187299877791,1
2019-03-07,寿司 正茶春 （まさはる）,沖縄県,124.156917529249,24.339328699018914,1
2019-03-06,スシロー アクロスプラザ笠懸店,群馬県,139.30242477203544,36.391568996470596,1
2019-03-06,海鮮三崎港 ららぽーと柏の葉店,千葉県,139.9506808940749,35.89387154390581,1
2019-03-05,鮨 須賀,東京都,139.70385560676309,35.65694726704829,1
2019-03-02,SUSHI SQUARE,東京都,139.81276382926117,35.69622299876192,1
2019-02-27,立ち食い寿司＆牡蠣・ワイン すしまる 天王寺MIO店,大阪府,135.5118032798349,34.64710754368996,1
2019-02-27,寿司魚がし日本一近鉄難波駅店,大阪府,135.49671723212134,34.66740899714825,1
2019-02-27,スシロー 羽村SAKURA MALL店,東京都,139.314711314094,35.77148776716805,1
2019-02-26,金沢まいもん寿司 名古屋PARCO店,愛知県,136.90722734253427,35.16351026868294,1
2019-02-26,にぎり長次郎 京都アバンティ店,京都府,135.76005111408614,34.98369726747205,1
2019-02-21,廻転寿司 CHOJIRO 京都アバンティ店,京都府,135.76005111408614,34.98369726747205,1
2019-02-19,魚べい市原白金通り店,千葉県,140.10632282926093,35.5300969987644,1
2019-02-19,鮨よつえだ,東京都,139.77856482926117,35.70721499876174,1
2019-02-18,寿司居酒屋や台ずし犬山駅西口町,愛知県,136.9419083152505,35.380738980265484,1
2019-02-18,寿司居酒屋や台ずし 島田駅北口町,静岡県,138.17230531523563,34.83255398040087,1
2019-02-18,寿司居酒屋や台ずし 車道町,愛知県,136.92582431524497,35.174214980315575,1
2019-02-18,寿司居酒屋や台ずし 立場町,神奈川県,139.4983558292608,35.415154998766056,1
2019-02-18,寿司居酒屋や台ずし 千葉中央町,千葉県,140.12167490677047,35.60902336706708,1
2019-02-15,すし松 西荻窪店,東京都,139.5998608292611,35.70417999876183,1
2019-02-15,北新地 鮨 葵,大阪府,135.49820782925994,34.69782299877724,1
2019-02-15,鮨 さわ田,愛知県,136.8802519140898,35.16869176740142,1
2019-02-15,寿司居酒屋や台ずし 横川町,広島県,132.45131131522467,34.41143898050973,1
2019-02-10,西,東京都,139.7124358292611,35.688756998762045,1
2019-02-07,京樽 ビーンズ中山,神奈川県,139.53912682926097,35.51438599876464,1
2019-02-07,はま寿司 松戸新田駅北店,千葉県,139.92057031526184,35.79223398016857,1
2019-02-06,寿し居酒屋 大江戸 花の舞 菊名西口店,神奈川県,139.63087410676238,35.51049466710707,1
2019-02-04,鮓 有無,東京都,139.72175182926117,35.65922899876246,1
2019-02-04,無添くら寿司 仙台水の森店,宮城県,140.85367482924843,38.29570499872925,1
2019-02-04,無添くら寿司 小倉徳力店,福岡県,130.86481908057021,33.82680248771573,1
2019-02-04,鮨 恵しん,神奈川県,139.63526982926084,35.448416998765595,1
2019-02-03,金沢まいもん寿司 白山インター店,石川県,136.58699982926217,36.54704799875012,1
2019-02-01,スシロー 遠賀岡垣店,福岡県,130.641586,33.849174,1
2019-02-01,麻布すし旬,東京都,139.73599730676224,35.65326816705852,1
2019-01-31,肉ずしと酒肴 じゅげむ 刈谷駅前店,愛知県,137.00738082926028,34.991832998772516,1
2019-01-30,和鮨処 勝,北海道,141.35422811414554,43.054821665467024,1
2019-01-23,スシロー千葉中央店,none,140.11945761406707,35.60966476722505,1
2019-01-16,鮨 乃すけ,埼玉県,139.65612182926137,35.860519998759585,1
2019-01-11,寿し×海鮮酒場 酔灯屋,香川県,134.04618882477024,34.348848970962074,1
2019-01-04,上野肉寿司,東京都,139.77337748815307,35.70978699875565,1
2018-12-24,大衆寿司 豊洲,大阪府,135.4999731703482,34.699739998783166,1
2018-12-18,がってん寿司 鹿沼店,栃木県,139.7759836800333,36.552796980098236,1
2018-12-18,大須回転寿司 三陸屋,愛知県,136.89975377108206,35.159374067345084,1
2018-12-18,寿司居酒屋や台ずし 九条ナインモール町,大阪府,135.47468531523157,34.674476980441284,1
2018-12-18,寿司居酒屋や台ずし 武蔵藤沢駅前町,埼玉県,139.40966731526257,35.82182398016173,1
2018-12-18,寿司居酒屋や台ずし 尾頭橋町,愛知県,136.8914483152441,35.143171980323295,1
2018-12-18,寿司居酒屋や台ずし 蒔田町,神奈川県,139.60757531525203,35.429575980253674,1
2018-12-17,無添くら寿司 五所川原店,青森県,140.46241453679656,40.79995799388264,1
2018-12-17,無添くら寿司 倉敷連島店,岡山県,133.74434851186803,34.55600303840114,1
2018-12-14,酒 揚 魚すし 大漁 赤羽,東京都,139.7203757483982,35.78044759799232,1
2018-12-13,にぎり長次郎 松井山手店,京都府,135.7260147098188,34.83437703167682,1
2018-12-13,スシロー イトーヨーカドー武蔵小金井店,東京都,139.5044120784216,35.70049546728879,1
2018-12-11,寿司 しくら,北海道,141.3522974784824,43.05589926556804,1
2018-12-09,西麻布 幻（まぼろし）,東京都,139.72268817034978,35.65810199876854,1
2018-12-07,函館市場 イオンモール大日店,大阪府,135.57926562209448,34.74870377845868,1
2018-12-06,鮨 すが弥,東京都,139.74195717034993,35.655305998768604,1
2018-12-03,海鮮三崎港 イオンモール水戸内原,茨城県,140.35712458002916,36.374744180136084,1
2018-12-03,魚べい苗穂店,北海道,141.39401494312273,43.07818686621742,1
2018-12-03,はま寿司 泉佐野鶴原店,大阪府,135.34742833489278,34.423326235882826,1
2018-12-03,はま寿司 鶴見中央店,神奈川県,139.6843019413739,35.51153235701137,1
2018-12-03,大漁ずし 長岡店,新潟県,138.85295097109818,37.45067306651746,1
2018-11-30,書架（shoka）,奈良県,135.83887885969105,34.68419921914609,1
2018-11-29,beeat sushi burrito Tokyo,東京都,139.77201717034993,35.7032249987679,1
2018-11-29,築地日本海 新宿西口店,東京都,139.69898617034997,35.69249499876804,1
2018-11-28,鮨 みつ川 六本木ヒルズ店,東京都,139.72699838001233,35.66042818029622,1
2018-11-28,杉玉 武蔵境,東京都,139.5441575710882,35.703173967134234,1
2018-11-27,金澤回転寿司輝らり 八王子オーパ店,東京都,139.33761766945972,35.65452994148568,1
2018-11-26,無添くら寿司 横浜新山下店,神奈川県,139.65179668000738,35.44241198034733,1
2018-11-25,魚がし鎌形 柏高島屋ステーションモール店,千葉県,139.97056510608306,35.86283918287125,1
2018-11-24,KAIDO 海堂 六本木,東京都,139.72765027108915,35.66494706714493,1
2018-11-22,SUSHIRO BIGBOX高田馬場店,東京都,139.7037148930079,35.71294626789961,1
2018-11-22,スシロー名張店,三重県,136.098909999905,34.6158200001407,1
2018-11-22,海鮮三崎港 南砂町ショッピングセンターSUNAMO,東京都,139.83481359304346,35.66509096791917,1
2018-11-22,すし三崎港 横浜そごう,神奈川県,139.62276458000795,35.46562458034173,1
2018-11-22,すし屋 銀蔵 相鉄ライフ三ツ境店,神奈川県,139.50289937841552,35.46792886737246,1
2018-11-22,金沢まいもん寿司 マークイズ福岡ももち店,福岡県,130.3623863025732,33.59217340970775,1
2018-11-21,にぎり長次郎 日進竹の山店,愛知県,137.03494094350597,35.15582925518188,1
2018-11-21,海鮮れすとらん 魚輝水産 高槻店,大阪府,135.65512517840799,34.864065467623206,1
2018-11-20,無添くら寿司 横浜新山下店,神奈川県,139.65177468000732,35.44246998034746,1
2018-11-19,魚べい三田ウッディタウン店,兵庫県,135.18759894379806,34.90734639589599,1
2018-11-16,寿司居酒屋や台ずし 四日市駅前町,三重県,136.62108617034892,34.96762299877893,1
2018-11-16,寿司居酒屋や台ずし ふじみ野駅東口町,埼玉県,139.52485417035018,35.861722998765615,1
2018-11-16,寿司居酒屋や台ずし 久喜駅西口町,埼玉県,139.67540567109646,36.06612536699279,1
2018-11-16,寿司居酒屋や台ずし 草津駅西口町,滋賀県,135.95992087109428,35.02328256740519,1
2018-11-16,寿司居酒屋や台ずし YRP野比駅前町,神奈川県,139.68440517034924,35.21112799877518,1
2018-11-14,魚がし日本一 ムスブ田町店,東京都,139.74675068001198,35.644811980299735,1
2018-11-12,無添くら寿司 今里店,大阪府,135.54127767998992,34.67147798053775,1
2018-11-07,築地青空三代目 丸の内,東京都,139.76086729304242,35.67732716791289,1
2018-11-06,吉祥寺 肉寿司,none,139.582008471095,35.70407236712584,1
2018-11-03,すし松 川口店,埼玉県,139.7177921620671,35.80356465572169,1
2018-11-01,寿司茶屋ととまさ,東京都,139.7762732709936,35.69864052356974,1
2018-11-01,肉乃寿司 タテガミ 岐阜横丁店,岐阜県,136.75728327831902,35.41234013941903,1
2018-10-30,回転寿司 新竹 大正泉尾店,大阪府,-1,-1,1
2018-10-29,鮨よしかわ,東京都,139.71062917034646,35.647861088569556,1
2018-10-28,大起水産まぐろダイニング エビスタ西宮店,兵庫県,135.33646187994032,34.73684248888465,1
2018-10-24,海鮮三崎港 アリオ蘇我店,千葉県,140.12054547985423,35.58749914281061,1
2018-10-24,京樽/すし三崎港 京王府中ショッピングセンター,東京都,139.4801108929756,35.67223582548091,1
2018-10-24,無添くら寿司 直方店,福岡県,130.74553658946118,33.73558145932133,1
2018-10-24,はま寿司 岩国店,山口県,132.20182691521794,34.160920580576445,1
2018-10-23,鮨心 はやかわ,東京都,139.6970831703465,35.64628408859105,1
2018-10-19,魚べい 苫小牧店,北海道,141.61381926898142,42.63999343148569,1
2018-10-15,鮨 まさ志,東京都,139.57952817034652,35.70442308779659,1
2018-10-12,鮨処西鶴 有楽町店,東京都,139.7594871703386,35.67236808823476,1
2018-10-11,鮨 まつやま,大阪府,135.4859131444362,34.695891339826105,1
2018-10-10,回転寿司 海鮮三崎港 イオン板橋ショッピングセンター店,東京都,139.65868077996012,35.77021003279077,1
2018-10-10,無添くら寿司 由利本荘店,秋田県,140.03022407835093,39.392485311858245,1
2018-10-09,寿司居酒屋 や台ずし 大津駅前町2号店,滋賀県,135.86643927107195,35.00322796740929,1
2018-10-09,寿司居酒屋 や台ずし 岐阜金園町,岐阜県,136.760432265802,35.41733157460271,1
2018-10-06,おにくのおすし 京都祇園店,京都府,135.77283647099412,35.006268961348795,1
2018-10-04,スシロー 下関椋野店,山口県,130.94189047831824,33.97754701648786,1
2018-10-03,立ち寿司横丁 中野サンモール,東京都,139.66558167099626,35.70796112305314,1
2018-10-02,寿し処すみれ,大阪府,135.50142017034526,34.6964661014116,1
2018-10-01,神田明神下みやび 笹一葉,東京都,139.7682875709966,35.70133162341754,1
2018-09-27,寿司居酒屋や台ずし 大国町,大阪府,135.49820200667676,34.65493926746338,1
2018-09-27,高槻 肉寿司,大阪府,135.6209871066788,34.85001376737474,1
2018-09-27,金の魚魚丸 ららぽーと名古屋店,愛知県,136.88069867984413,35.109892368796366,1
2018-09-22,寿司の美登利日本橋店,東京都,139.77359860332263,35.681074271088924,1
2018-09-21,杉玉 阿佐ヶ谷店,東京都,139.635870643334,35.70429499676202,1
2018-09-20,寿司居酒屋や台ずし 古賀駅西口町,福岡県,130.46558182924957,33.73222499879338,1
2018-09-20,スシロー奈良三条大路店,奈良県,135.79080842865164,34.683874968208606,1
2018-09-20,無添くら寿司 一宮森本店,愛知県,136.81675831569484,35.28701698028802,1
2018-09-20,魚べい帯広柏林台店,北海道,143.16563049928018,42.92909888834569,1
2018-09-20,はま寿司 武蔵村山店,東京都,139.39123391403035,35.74601256717224,1
2018-09-19,はま寿司 武蔵野八幡町店,東京都,139.5540946644687,35.71660716907726,1
2018-09-18,すし居酒屋 両国 さかなや道場 徳島駅前店,徳島県,134.55131517034906,34.073182109660955,1
2018-09-17,熟成鮨 万,東京都,139.71368507116935,35.656408767149784,1
2018-09-14,旬魚彩鮨 水仙,広島県,132.45343688018394,34.39286338061005,1
2018-09-13,スシロー 松戸五香店,千葉県,139.96112571403538,35.794116867149434,1
2018-09-13,鮨 みうら亭,千葉県,140.10725910671195,35.61063856706481,1
2018-09-12,無添くら寿司 越谷下間久里店,埼玉県,139.79024917034806,35.926044084757876,1
2018-09-11,無添くら寿司 城南片江店,福岡県,130.3667493155311,33.54650845165778,1
2018-09-10,鮨 ふじわら,東京都,139.67753717034864,35.66420808834621,1
2018-09-08,SUSHI TOKYO TEN、,東京都,139.70198634039272,35.65729017441912,1
2018-09-07,KINKA sushi bar izakaya 六本木,東京都,139.72795247098432,35.66470202543641,1
2018-09-06,九州直送 熟成鮨 わだのや,東京都,139.70574087850153,35.64863882400229,1
2018-09-05,鮨 広島 あじろや,広島県,132.47349047981137,34.39845900694786,1
2018-09-03,無添くら寿司 横浜青葉台店,神奈川県,139.51249648502898,35.55291599794132,1
2018-09-01,魚よし,熊本県,130.69597217033535,32.795171126165364,1
2018-08-30,寿司居酒屋や台ずし 鶴巻温泉駅北口町,神奈川県,139.2784624066977,35.38155896712064,1
2018-08-30,SUSHIRO 荻窪店,東京都,-1,-1,1
2018-08-30,スシロー 三次十日市店,広島県,132.8441086786378,34.803246618162234,1
2018-08-20,海鮮三崎港 プレナ幕張店,千葉県,140.03985569290472,35.647769027132576,1
2018-08-10,鮨 水月,東京都,139.72662757828326,35.660549125814605,1
2018-08-09,すし三崎港 代官山ピーコックストア店,東京都,139.70257080033343,35.649254994517996,1
2018-08-08,寿司酒場 つかさ,埼玉県,139.8000799709576,35.81340531724396,1
2018-08-08,すすきの鮨 一二三,北海道,141.3533579710013,43.054132385229956,1
2018-08-08,自由が丘 鮨 りんか,東京都,139.67073487096022,35.60890092849874,1
2018-08-07,スシロー イオン飯田アップルロード店,長野県,137.8162954013712,35.500741607699304,1
2018-08-07,はま寿司 東海大学前店,神奈川県,139.27240377827525,35.366937241900075,1
2018-08-06,無添くら寿司 モザイクモール港北店,神奈川県,139.57567097985344,35.55497584458982,1
2018-08-02,懐石・鮨 川梅（かわうめ）,大阪府,135.49570557700662,34.69981909086865,1
2018-07-31,津田沼 肉寿司,千葉県,140.02258416968212,35.69297523703183,1
2018-07-30,寿司居酒屋や台ずし 豊島園駅前町,東京都,139.64912347095492,35.74221302116833,1
2018-07-30,寿司居酒屋や台ずし 狭山ヶ丘駅西口町,埼玉県,139.41551717034028,35.810142086349046,1
2018-07-30,銀座 鮨 み冨,東京都,139.76535257095253,35.669860325149756,1
2018-07-26,SUSHIRO 大森駅前店,東京都,139.72800527702475,35.587582942806236,1
2018-07-24,はなの舞 新宮中央駅前店,福岡県,130.4488385595847,33.71150123263801,1
2018-07-22,無添くら寿司 静岡インター通り店,静岡県,138.37935088328555,34.95876134880449,1
2018-07-22,無添くら寿司 原町店,大阪府,135.56513754169185,34.45771770379566,1
2018-07-22,無添くら寿司 岸田堂店,大阪府,135.55977471548616,34.65324689326543,1
2018-07-20,鮨 天海,神奈川県,139.61791947033979,35.46371209107862,1
2018-07-19,スシロー あすみが丘店,千葉県,140.26619279051945,35.5212055891469,1
2018-07-19,スシロー 宇部妻崎開作店,山口県,131.2077792916822,33.97671272924849,1
2018-07-17,無添くら寿司 延岡店,宮崎県,131.67729991055143,32.5494693931318,1
2018-07-15,maki-san,大阪府,135.50099998214947,34.67033740516072,1
2018-07-13,海鮮三崎港 八王子店,東京都,139.33721136968143,35.657509238976644,1
2018-07-11,スシロー香芝店,奈良県,135.70027637700383,34.55944719837322,1
2018-07-11,スシロー須賀川店,福島県,140.36591857706142,37.30757204677236,1
2018-07-11,立ち寿司横丁 新宿西口,東京都,139.697924269682,35.68875323726348,1
2018-07-10,恵比寿 鮨 おぎ乃,東京都,139.707663669681,35.64757793952098,1
2018-07-10,寿司 銀明翠 博多,福岡県,130.4168570769847,33.59155374940752,1
2018-07-09,鮨 松久,東京都,139.707663669681,35.64757793952098,1
2018-07-07,鮨 つむぎ,沖縄県,127.68687996951337,26.21824449603208,1
2018-07-06,小花,東京都,139.71544794830524,35.64373928862582,1
2018-07-04,海鮮三崎港 渋谷東口店,東京都,139.70437756968113,35.65658783902708,1
2018-07-02,すしざんまい 仙台一番町店,宮城県,140.8706151703436,38.26357105173145,1
2018-06-27,寿司・天ぷら すし天,千葉県,140.11338618210306,35.61232385168987,1
2018-06-27,京樽・すし三崎港 ペリエ千葉店,千葉県,140.11338618210306,35.61232385168987,1
2018-06-26,はま寿司 新百合ヶ丘駅前,神奈川県,139.50574379171508,35.60357334193103,1
2018-06-24,伊勢佐木町 肉寿司,神奈川県,139.6307376798512,35.44423335063692,1
2018-06-22,寿司居酒屋や台ずし 阪神西宮えびす町２号店,兵庫県,135.33736386966248,34.73507318897977,1
2018-06-22,寿司居酒屋や台ずし 岸和田駅前町,大阪府,135.3767031703386,34.46110410454204,1
2018-06-22,寿司居酒屋や台ずし 伊勢市駅前町,三重県,136.70980417033851,34.49024210415551,1
2018-06-22,寿司居酒屋や台ずし 五香駅西口町,千葉県,139.96418317034025,35.79690608653049,1
2018-06-21,海鮮三崎港 トレッサ横浜店　,神奈川県,139.64342587985283,35.52461724624899,1
2018-06-21,魚さばき回転寿司大まる 田無芝久保店,東京都,139.52229207702777,35.73038013497889,1
2018-06-21,板前寿司 上野店,東京都,139.7712964152596,35.70851558018796,1
2018-06-20,大衆すし酒場 じんべえ太郎,埼玉県,139.64545847703067,35.871419477222226,1
2018-06-19,はま寿司 新城店,愛知県,137.48416397708968,34.90110908907367,1
2018-06-19,はま寿司 熊本佐土原店,熊本県,130.77924567979844,32.79315549056229,1
2018-06-18,無添くら寿司 茨木宇野辺店,大阪府,135.5550918954359,34.801723307860534,1
2018-06-16,源太すし イオンモール小名浜店,福島県,140.9022801599041,36.94685302152403,1
2018-06-11,まぐろと酒 とらえもん 新宿東口店,東京都,139.70167376968192,35.69121693712832,1
2018-06-11,立ち喰い寿し＆串天ぷら すしつね 御徒町店,京都府,139.7739201703402,35.707978087747954,1
2018-06-11,鮨 おおが,大阪府,135.47236017033865,34.57630310301216,1
2018-06-07,築地すし好 品川グランパサージュ店,東京都,139.74026317034003,35.62604708886733,1
2018-06-07,スシロー 東村山店,東京都,139.4848414710983,35.77253608266322,1
2018-06-06,すし屋 銀蔵 グリナード永山店,東京都,139.44713152109517,35.629106840533,1
2018-06-04,無添 くら寿司 広島五日市店,広島県,132.35927417033844,34.38079010560601,1
2018-06-02,鮨 つぼみ,東京都,139.69242317034008,35.6467140885852,1
2018-06-01,スシロー栃木箱森町店,栃木県,139.72476348280912,36.394239068538326,1
2018-05-31,立喰い寿司 魚がし日本一 梅田阪神店,大阪府,135.49678867983582,34.700899390810754,1
2018-05-29,権八 NORI-TEMAKI 原宿,none,139.7031657130027,35.66910698019703,1
2018-05-28,寿司居酒屋や台ずし 古江駅町,広島県,132.4107762770002,34.38368230773343,1
2018-05-28,寿司居酒屋や台ずし 藤が丘駅前町,愛知県,137.0224714770166,35.18175996490519,1
2018-05-28,寿司居酒屋や台ずし 秋田町,徳島県,134.54960726964907,34.06565272456529,1
2018-05-28,鮨 唐島,福岡県,130.38762472732526,33.58084260140871,1
2018-05-28,無添 くら寿司 燕三条店,新潟県,138.94037900412593,37.63597200109579,1
2018-05-27,すしざんまい 京都河原町店,京都府,135.76892682924986,35.00653699877234,1
2018-05-27,スシロー 河口湖BELL店,山梨県,138.7637721276669,35.49020088023918,1
2018-05-27,スシロー 伊那店,長野県,137.96781162767485,35.84818948015577,1
2018-05-16,新橋 かんてら,東京都,139.75591382925066,35.666319998762354,1
2018-05-09,魚寿司 大塚のれん街,東京都,139.7295503056701,35.73277858018229,1
2018-05-09,寿司居酒屋や台ずし 指扇駅前町,埼玉県,139.5655744130084,35.91681208013989,1
2018-05-08,築地日本海 桜新町店,東京都,139.64383061300194,35.63186558020591,1
2018-05-07,寿司 鈴若,大阪府,135.5075077276486,34.64425168044901,1
2018-05-06,都々井,東京都,139.7241172237412,35.62475902610948,1
2018-05-06,鮨処こうよう,千葉県,140.1042718488171,35.80853389750883,1
2018-05-06,魚べい千葉ニュータウン店,千葉県,140.15749420953972,35.806819372172356,1
2018-05-02,中野 肉寿司,東京都,139.66574010566939,35.708456780187895,1
2018-05-01,寿司dining 龍,静岡県,138.38084240565357,34.9744259803653,1
2018-04-27,親方 前田保衛,東京都,139.7707665055179,35.66525108019796,1
2018-04-26,よりぬき魚類 鮨処 虎秀,東京都,139.70020731567988,35.66372098019838,1
2018-04-26,SEN鮮ぐるめ亭 ジョイナス テラス 二俣川店,神奈川県,139.5316738275458,35.46357938024553,1
2018-04-26,長八 富山駅前店,富山県,137.21147031570314,36.69977997996938,1
2018-04-23,総本家 平宗 ミナーラ店,奈良県,135.80000341565855,34.68518688043845,1
2018-04-18,スシロー 浦和中尾店,埼玉県,139.67856772755505,35.875500180149544,1
2018-04-18,スシロー春日部店,埼玉県,139.7549713156872,35.98738298012401,1
2018-04-18,魚べい岐阜正木店,岐阜県,136.74236431567542,35.453625980247914,1
2018-04-18,がんこ伊丹空港店,大阪府,135.43879425096114,34.79136335772505,1
2018-04-16,すしBar Yuuki,広島県,132.46502631283434,34.39301068051452,1
2018-04-15,小江戸ずし,埼玉県,139.48232950552344,35.91077488014153,1
2018-04-14,きづなすし 秋葉原店,東京都,139.7713814128627,35.69780558019049,1
2018-04-13,すし屋 銀蔵 nonowa武蔵小金井店,東京都,139.50247631568072,35.701066980189815,1
2018-04-12,熊本下通り 肉寿司,熊本県,130.70894700545665,32.80130808096453,1
2018-04-10,すし 太,東京都,139.71476920551729,35.634250380205145,1
2018-04-09,すし いちかん,東京都,139.6997672055175,35.65422808020069,1
2018-04-05,花火寿司 ミーツ国分寺店,東京都,139.47805831568076,35.70070998018975,1
2018-04-04,SUSHIRO上野店,東京都,139.77488071286302,35.7099348801877,1
2018-04-04,スシロー高浜店,愛知県,136.99907413838628,34.930097960033656,1
2018-04-04,スシロー白岡店,埼玉県,139.6540961055256,36.01317708011824,1
2018-04-01,秀徳 恵 2号店,東京都,139.771027605518,35.66460108019816,1
2018-03-29,鮨 花おか,東京都,139.70295917498575,35.65484216324742,1
2018-03-29,おにくのおすし 三条堺町店,京都府,135.76250977034914,35.008179998778274,1
2018-03-29,鮨 天地人,北海道,141.35117771137308,43.055574027504065,1
2018-03-28,すし辰 ekie店,広島県,132.4734851153973,34.39845900685257,1
2018-03-27,鮨なんば（スシナンバ）,東京都,139.75859710152247,35.673604082677954,1
2018-03-26,鮨 岡田,千葉県,140.12140800531145,35.61123968021061,1
2018-03-26,鮨弁慶 海 銀座店,東京都,139.76779710531272,35.67020878019676,1
2018-03-25,大阪梅田 花火寿司,大阪府,135.4983039645773,34.704646695272714,1
2018-03-24,鮨将いし松,長崎県,129.72271666981803,33.1685941809493,1
2018-03-20,無添 くら寿司 ABLOうるま店,沖縄県,127.85178155671575,26.34221328337662,1
2018-03-20,すし銚子丸 大網白里店,千葉県,140.29022060901713,35.51962243934219,1
2018-03-19,金沢まいもん寿司 京都駅ポルタ店,京都府,135.75822297034605,34.986724598778636,1
2018-03-19,スシローコノミ FOOD&TIME ISETAN YOKOHAMA,神奈川県,139.5864154574336,35.46667041733024,1
2018-03-19,紀州新宮流勝手丼 鮮の実,大阪府,135.51285528007557,34.585075380560035,1
2018-03-19,築地魚力 浦和店,埼玉県,139.6559229566691,35.85941452778616,1
2018-03-19,はま寿司 葛城東室店,奈良県,135.6988865532766,34.497076243460654,1
2018-03-17,池袋東口 肉寿司,東京都,139.71166887995528,35.731452034920004,1
2018-03-16,天草HERO鮨 牛深丸,熊本県,130.6856824153564,32.7896526906479,1
2018-03-16,海鮮市場寿司 とっぴ～ ヴィーナスフォート店,東京都,139.77842361541343,35.62533224064271,1
2018-03-14,板前寿司 新橋店,東京都,139.753993215328,35.66546893844356,1
2018-03-13,はま寿司 南船橋店,千葉県,139.95939255969884,35.6869811433625,1
2018-03-13,はま寿司 座間ひばりが丘店,神奈川県,139.39425055858794,35.4841233324331,1
2018-03-12,無添 くら寿司 鹿児島卸本町店,鹿児島県,130.484360380378,31.5136228044053,1
2018-03-09,や台ずし 西条駅酒蔵通町,広島県,132.74449186965853,34.43076770522986,1
2018-03-09,や台ずし 堀詰帯屋町,高知県,133.5393686696409,33.56030245103446,1
2018-03-09,寿司居酒屋や台ずし 能登川駅西口町,滋賀県,136.16483517701653,35.18173466490662,1
2018-03-09,寿司居酒屋や台ずし 岡山あくら通町,岡山県,133.9210950696631,34.66013279299288,1
2018-03-09,寿司居酒屋 や台ずし 帯屋町,高知県,133.54183226964088,33.56144405097532,1
2018-03-09,寿司居酒屋や台ずし 袋井駅前町　,静岡県,137.92599216966468,34.7423510885896,1
2018-03-09,寿司居酒屋や台ずし 黄金町,神奈川県,139.62122667981888,35.44043475084405,1
2018-03-09,寿司居酒屋 や台ずし 御器所町,愛知県,136.93418986967333,35.1493619666603,1
2018-03-08,魚べい神栖店,茨城県,140.6371268029241,35.917521732026415,1
2018-03-08,天満 肉寿司,大阪府,135.5130826053907,34.707044880432846,1
2018-03-07,柏 肉寿司,千葉県,139.97325546973624,35.86084118024997,1
2018-03-06,中津 鮨 多田,大阪府,135.4953286053406,34.7111521804318,1
2018-03-05,はま寿司 下妻店,茨城県,139.94048040902277,36.18215142544768,1
2018-03-01,京樽 すし三崎港 グランエミオ所沢,埼玉県,139.4717176155001,35.78620903181439,1
2018-03-01,鮨 佐和,東京都,139.7028456696593,35.69519548028793,1
2018-03-01,寿司 さか本,東京都,139.7363351696588,35.67634598029231,1
2018-02-25,池袋西口 肉寿司,東京都,139.70787972549556,35.73288841426774,1
2018-02-22,回転寿司 海鮮三崎港 アリオ葛西店,東京都,139.8793599154973,35.65246873915576,1
2018-02-16,豆狸・福俵 アトレ川崎店,神奈川県,139.694742515495,35.53114094579569,1
2018-02-16,魚力海鮮寿司 アトレ川崎店,神奈川県,139.694742515495,35.53114094579569,1
2018-02-14,まきたて屋 江の島店,神奈川県,139.48568791549067,35.311103757788544,1
2018-02-13,酒・肴・天ぷら 鮨かど,愛知県,136.88533981548773,35.170243365432704,1
2018-02-13,無添くら寿司 下関山の田店,山口県,130.92428711546498,33.98385592877785,1
2018-02-12,個室割烹 寿司北大路 品川店,東京都,139.73842321549685,35.62667144056918,1
2018-02-10,築地すし好-Iki-粋 アトレ川崎店,神奈川県,139.69541841549506,35.53131124578627,1
2018-02-09,豆狸 シャポー船橋店,千葉県,139.9830513154984,35.70143483647057,1
2018-02-08,回転寿司すしえもん小栗店,愛媛県,132.75703611546206,33.82690733701796,1
2018-02-06,回し寿司 活 シャポー船橋店,千葉県,139.9830513154984,35.70143483647057,1
2018-02-03,すし処 和ま,大分県,131.49930261545165,33.278596265547606,1
2018-02-03,はっこく,東京都,139.76056861549796,35.67051133816672,1
2018-01-31,はま寿司 松戸小金原店,千葉県,139.94298801550073,35.82024532994238,1
2018-01-31,寿司居酒屋 や台ずし  新瑞橋町,愛知県,136.93538941549522,35.11757796828406,1
2018-01-24,はま寿司 南大沢駅前店,東京都,139.378545615505,35.61416274125407,1
2018-01-24,スシローたつの店,兵庫県,134.54967891549015,34.85902888222917,1
2018-01-24,スシロー天白焼山店,愛知県,136.99100651549574,35.144680966817155,1
2018-01-24,スシロー相模原中央店,神奈川県,139.36306061550428,35.57324954349345,1
2018-01-22,無添くら寿司 小倉三萩野店,福岡県,130.8836279154714,33.87638223442388,1
2018-01-22,無添くら寿司 盛岡高松店,岩手県,141.13001761559167,39.72369870541835,1
2018-01-20,や台ずし 八幡駅前町,福岡県,130.79256181547123,33.86793273486741,1
2018-01-09,赤坂 すし秀,東京都,139.7353732155062,35.67356913799907,1
2018-01-05,あくつ,山梨県,138.569443715506,35.66264243859807,1
2017-12-26,すしやの膳さん,東京都,139.5271360155058,35.6558983389677,1
2017-12-25,寿司居酒屋や台ずし 大和八木駅南口町,奈良県,135.7894182154835,34.51248040078263,1
2017-12-25,寿司居酒屋や台ずし 初石駅前町,千葉県,139.91495961551024,35.88422362641925,1
2017-12-20,すし処 河原,福岡県,130.38621285737062,33.59070772993905,1
2017-12-15,寿司居酒屋や台ずし 大垣町2号店,岐阜県,136.6155854799318,35.36503535495143,1
2017-12-13,スシロー長野若宮店,長野県,138.22601407995745,36.64729878408879,1
2017-12-13,スシロー志段味店,愛知県,137.03357017992954,35.25475526094608,1
2017-12-13,はま寿司 三鷹野崎店,東京都,139.543024279938,35.68557623743764,1
2017-12-13,穴子家,東京都,139.70001477993944,35.74679733407726,1
2017-12-12,魚べい仙台鶴ケ谷店,宮城県,140.9122775155602,38.286976190297246,1
2017-12-07,学芸大学前 肉寿司,東京都,139.68278127993705,35.629175840528845,1
2017-12-07,本厚木 肉寿司,神奈川県,139.36248377993337,35.44148385078671,1
2017-12-07,魚べい龍ケ崎店,茨城県,140.20158577994303,35.93193502388574,1
2017-12-06,スシロー 盛岡高松店,岩手県,141.12738608002266,39.72469100545932,1
2017-12-05,はま寿司 東新小岩店,東京都,139.85488007993882,35.726401135197364,1
2017-12-01,鮨えびす,大阪府,135.54140900533037,34.66198789279786,1
2017-11-26,魚べいアクロスプラザ富沢西店,宮城県,140.85336437990185,38.21249929472641,1
2017-11-26,はま寿司スーパービバホーム豊洲店,東京都,139.79599567984653,35.65690353900973,1
2017-11-23,魚べい岐阜県庁前店,岐阜県,136.72618687996155,35.3963404803583,1
2017-11-23,スシロー本八幡北口店,千葉県,139.9246096799696,35.72165018028184,1
2017-11-23,スシロー鴨川店,千葉県,140.0939364799549,35.103920880429236,1
2017-11-23,スシロー日立諏訪店,茨城県,140.63375567998975,36.56523858009566,1
2017-11-23,魚屋の台所 下の一色 プライムツリー赤池店,愛知県,137.01991487983545,35.118913368308284,1
2017-11-22,堂山 焼肉寿司,大阪府,135.50005217994544,34.703846480529464,1
2017-11-16,すし屋銀蔵 武蔵中原店,神奈川県,139.6388379799571,35.58133108031458,1
2017-11-15,sushi BAR SAMURAI,愛知県,136.90771881551524,35.174913880315565,1
2017-11-13,寿司BAR A’ZASU(アザス),神奈川県,139.38806957995394,35.45389658034453,1
2017-11-13,みなと寿司 ポートアイランド店,兵庫県,135.20881677993546,34.66894028053844,1
2017-11-08,魚べい瑞穂店,東京都,139.35601077996122,35.76357168027231,1
2017-11-06,無添くら寿司 博多中洲店,福岡県,130.40380367969638,33.593782549291774,1
2017-11-04,海鮮いなり寿司 魚丸いなり,神奈川県,139.39647507995352,35.43203258034983,1
2017-11-03,金沢まいもん寿司 上野,東京都,139.77091657996007,35.706762780285324,1
2017-11-01,回転寿司 すしえもん イオンモール神戸南店,兵庫県,135.17210117993542,34.6658039805392,1
2017-10-31,大衆酒場 スシスミビ,東京都,139.67028737995855,35.64347298030005,1
2017-10-30,はま寿司 広島楽々園店,広島県,132.35078737992848,34.36129458061845,1
2017-10-30,寿司居酒屋や台ずし 新所沢駅東口町,埼玉県,139.4534859799624,35.807507880262264,1
2017-10-30,寿司居酒屋や台ずし 瓦町駅前町,香川県,134.05125407034458,34.33973889878899,1
2017-10-30,や台ずし 鶴間駅西口町,神奈川県,139.4480922799549,35.49026628033608,1
2017-10-30,浜松肉寿司,静岡県,137.72795477993645,34.70696928052857,1
2017-10-29,はま寿司 佐世保中里店,長崎県,129.6884204799021,33.20784018093773,1
2017-10-26,魚べい クロスモール新発寒店,北海道,141.2704416157214,43.10698217914384,1
2017-10-26,スシロー 関マーゴ店,岐阜県,136.89576237995462,35.48089498033824,1
2017-10-23,無添 くら寿司 千葉蘇我店,千葉県,140.12363077995698,35.58076808031467,1
2017-10-23,はま寿司 恵庭店,北海道,141.5662665801461,42.89183567925686,1
2017-10-23,はま寿司 421号東員,三重県,136.5901966799454,35.09207638043211,1
2017-10-17,無添くら寿司 半田店,愛知県,136.90551817994086,34.8936070804814,1
2017-10-16,回転寿司 玄海丸 橋本店,福岡県,130.3207503799099,33.554003280838835,1
2017-10-13,寿司居酒屋 や台ずし 京成立石町,東京都,139.8473824153543,35.73764443448322,1
2017-10-12,金沢回転寿司 輝らり 高崎オーパ店,群馬県,139.00895137997486,36.323117980147316,1
2017-10-12,ちょこっと寿し 国際通り牧志店,沖縄県,127.68937327976053,26.21756878351304,1
2017-10-11,スシロー大分中戸次店,大分県,131.65227517990084,33.155151280953135,1
2017-10-11,つきじ喜代村 すしざんまい 神戸三宮店,兵庫県,135.188970079936,34.69285628053223,1
2017-10-10,回転寿司根室花まる キラリス函館店,北海道,140.72636408011522,41.77292987933231,1
2017-10-04,寿司三福,宮城県,141.29104598002718,38.429467179745174,1
2017-10-03,魚料理とすし 下の一色 グローバルゲート店,愛知県,136.881097279947,35.16191578041489,1
2017-09-29,裏天王寺 肉寿司,大阪府,135.51169967993494,34.64825948054376,1
2017-09-27,寿司居酒屋 や台ずし 天理駅前町,奈良県,135.82870057993392,34.5997922805561,1
2017-09-27,寿司居酒屋 や台ずし 北松戸駅西口町,千葉県,139.9091421799623,35.800954080263764,1
2017-09-27,寿司居酒屋や台ずし 東大和市駅前町,東京都,139.4330758799607,35.73439818027896,1
2017-09-27,スシロー出雲小山店,島根県,132.7433631799521,35.37091628036436,1
2017-09-27,スシロー安曇野穂高店,長野県,137.8902133799749,36.32691478014638,1
2017-09-27,スシロー 船橋高根木戸店,千葉県,140.03528847996057,35.72825708028038,1
2017-09-27,回転寿司 海鮮三崎港 イオンモール船橋店,千葉県,139.97674567996006,35.712248480284146,1
2017-09-26,もりもり寿し トリエ京王調布店,東京都,139.54249537995884,35.65179318029814,1
2017-09-26,大衆寿司酒場 れんちゃん,福岡県,130.87882557991747,33.88368818074677,1
2017-09-26,はま寿司 益田店,島根県,131.84041787993596,34.68585268053398,1
2017-09-26,はま寿司 門真殿島店,大阪府,135.57779897993692,34.731792380522435,1
2017-09-25,松栄 恵比寿東口店,東京都,139.70892307995845,35.64652598029923,1
2017-09-23,寿司 大政,大阪府,135.50133947993575,34.67041498053795,1
2017-09-20,富寿し松本店,長野県,137.97637977961918,36.23295870722056,1
2017-09-19,Rollson First（ロールズオンファースト）,東京都,139.80242671536922,35.750827933759155,1
2017-09-19,はま寿司 旭川東光店,北海道,142.4046796798203,43.7416874548246,1
2017-09-19,はま寿司 豊田御立町店,愛知県,137.17270517959145,35.07632947061159,1
2017-09-17,兵庫の津 魚がし,兵庫県,135.17244157993537,34.665793680539224,1
2017-09-14,海鮮三崎港 仙台クリスロード店,宮城県,140.87435668002294,38.26155977977335,1
2017-09-13,寿司居酒屋 や台ずし 松阪駅前町,三重県,136.53128471550107,34.57517148046683,1
2017-09-13,スシロー稲城百村店,東京都,139.49556731552622,35.63924708020412,1
2017-09-07,魚がし日本一立喰い寿司 みなとみらい店,神奈川県,139.6309198799541,35.45586468034417,1
2017-09-04,無添くら寿司 鳥取トリニティモール店,鳥取県,134.19997167995555,35.52097248032874,1
2017-09-04,築地すし好 八重洲地下街店,東京都,139.7672166799594,35.680206480291375,1
2017-09-01,蔵六鮨さか井,東京都,139.73297921539088,35.65622563895016,1
2017-09-01,鮨 うら山,愛知県,136.90943731256928,35.16546966569152,1
2017-08-31,はま寿司 大宮ラクーン店,埼玉県,139.62352478011243,35.90773168023935,1
2017-08-29,鮨ほまれ,福岡県,130.4007528797951,33.57813105010664,1
2017-08-28,寿司居酒屋 や台ずし 東大宮駅西口町,埼玉県,139.63707481537352,35.94920222283599,1
2017-08-28,寿司居酒屋 や台ずし 膳所駅前町,滋賀県,135.878834615353,35.00045977461211,1
2017-08-28,寿司居酒屋や台ずし 庚午町,広島県,132.41648231534018,34.38817190739956,1
2017-08-28,寿司居酒屋 や台ずし 徳島両国橋町,徳島県,134.5479713153336,34.06758592436856,1
2017-08-28,無添 くら寿司 池袋サンシャイン60通り店,東京都,139.70895211536885,35.73180883480357,1
2017-08-24,スシロー君津店,千葉県,139.92135011536013,35.33225475663884,1
2017-08-18,や台ずし 芋島町,岐阜県,136.8065498153615,35.393551653302495,1
2017-08-18,鮨しん,愛知県,136.9152080153567,35.1690900654954,1
2017-08-16,スシロー稲毛園生店,千葉県,140.09969591536708,35.64884403935479,1
2017-08-16,スシロー弘前さくら野SC店,青森県,140.49398041548196,40.60961165180988,1
2017-08-10,錦 鮨しん,京都府,135.7619506153532,35.00494327437011,1
2017-08-08,寿司居酒屋 や台ずし 亀井町,香川県,134.04635421533916,34.3390091100105,1
2017-08-06,はま寿司 朝霞溝沼店,埼玉県,139.5844499153705,35.80884473056976,1
2017-08-04,活魚廻転寿司 にぎり長次郎 伊丹店,兵庫県,135.40254051534876,34.79063338590374,1
2017-07-31,無添くら寿司 広島宇品店,広島県,132.45835942921343,34.35882870589065,1
2017-07-31,無添 くら寿司 鶴岡砂田町店,山形県,139.8014824154367,38.7339604641661,1
2017-07-27,魚べい ピアシティ稲毛海岸店,千葉県,140.07140591536674,35.635307740096366,1
2017-07-27,寿司居酒屋 や台ずし 磐田駅前町,静岡県,137.84893381534715,34.71125619016023,1
2017-07-27,や台ずし 桂駅東口町,京都府,135.7018427153526,34.97955907573947,1
2017-07-25,にぎりの徳兵衛 鳴海店,愛知県,136.96032551535478,35.08132817024478,1
2017-07-20,寿司居酒屋 や台ずし 蓮田駅東口町,埼玉県,139.65115601537408,35.980619021101326,1
2017-07-14,魚べい豊田前田町店,愛知県,137.15578201535436,35.063407471213345,1
2017-07-14,六本木 すし巽 （タツミ）,東京都,139.73022221536732,35.6626433385985,1
2017-07-13,寿司居酒屋 や台ずし 名鉄新安城駅前町,愛知県,137.08270141535283,34.98682457534766,1
2017-07-13,回転寿司たいせい 府中本店,東京都,139.47735691536752,35.67188713809146,1
2017-07-12,立ち寿司恵み,東京都,139.76831201536788,35.69131603702601,1
2017-07-11,江戸前 びっくり寿司 枚方店,大阪府,135.6466503153492,34.81530278457924,1
2017-07-07,江戸前手巻き寿司 O・MO・TE・MA・KI （オモテマキ）,東京都,139.7820907153673,35.66700093835941,1
2017-07-07,Premium Marshe with 鮨 なか川,大阪府,-1,-1,1
2017-07-07,や台ずし 天王台駅南口町,千葉県,140.03952971544575,35.8717930271043,1
2017-07-05,魚べい古川店,宮城県,140.9710031155041,38.565847474023464,1
2017-07-03,無添くら寿司 アクロスプラザ古島駅前店,沖縄県,127.7001045797707,26.229964783507558,1
2017-07-03,寿しやの台所 道玄坂,東京都,139.69547877996808,35.65980258029629,1
2017-07-01,回転寿司のぼり寿司,滋賀県,135.9706232156093,35.038544680349176,1
2017-06-30,橋本屋 鮨八,東京都,139.6834677155893,35.657661080199865,1
2017-06-29,すし三崎丸 エキア志木店,埼玉県,139.57303891555364,35.82256058016164,1
2017-06-28,スシローイオン多賀城店,宮城県,141.00275981546713,38.283209390516625,1
2017-06-28,スシロー日向原町店,宮崎県,131.62896761534475,32.4229405092614,1
2017-06-28,スシロー戸畑鞘ヶ谷店,福岡県,130.831111415373,33.877360234372865,1
2017-06-26,無添 くら寿司 宇治大久保店,京都府,135.77551881558858,34.869682680391385,1
2017-06-25,はま寿司 広島宇品店,広島県,132.45610421551467,34.35928348052346,1
2017-06-23,寿司居酒屋 や台ずし 天王台駅南口町,千葉県,140.03952367984644,35.87184462719882,1
2017-06-23,寿司居酒屋 や台ずし 大袋駅前町,埼玉県,139.77635107984742,35.923482124352326,1
2017-06-21,すし三崎丸 エキア志木店,埼玉県,139.57308047988562,35.82254532991287,1
2017-06-21,すし三崎丸 草加西口店,埼玉県,139.80068817988573,35.827979229613895,1
2017-06-20,回転寿司 すしえもん イーアス高尾店,東京都,139.28678577988632,35.6429461397745,1
2017-06-19,無添くら寿司 豊田上原店,愛知県,137.16539547987577,35.1176558683763,1
2017-06-18,まぐろ問屋 三浦三崎港 横浜ポルタ店,神奈川県,139.6216772152932,35.46459714942964,1
2017-06-17,や台ずし ひばりヶ丘駅前町,東京都,139.54238757998388,35.75330468027467,1
2017-06-13,かっぱ寿司 安中店,群馬県,138.8784518798285,36.32254030223801,1
2017-06-13,はま寿司 西東京北町店,東京都,139.55732607981622,35.75935103338789,1
2017-06-10,大宮焼肉寿司,埼玉県,139.62381487984257,35.90560202533829,1
2017-06-09,蔵 鉄板焼＆寿司,大阪府,135.49335938006996,34.69339198053207,1
2017-06-08,寿司居酒屋 や台ずし 埼玉蒲生駅西口町,埼玉県,139.78856617986432,35.8663633275006,1
2017-06-06,海鮮三崎港 草津エイスクエア店,滋賀県,135.95857667981497,35.02419967342707,1
2017-06-01,鮨 扇 大門・浜松町,東京都,139.75232551542777,35.65753873887803,1
2017-06-01,浪花古市庵 エスパル仙台店,宮城県,140.88031121556875,38.259410979674044,1
2017-05-31,スシロー名古屋新栄店,愛知県,136.91346721549144,35.163388880318266,1
2017-05-31,はま寿司小郡大保店,福岡県,130.56027011545018,33.411158780785186,1
2017-05-28,SUSHIRO 五反田店,東京都,139.72019117984644,35.625525080304186,1
2017-05-28,はま寿司 新潟新津店,新潟県,139.11280207990254,37.794114079855085,1
2017-05-26,若竹丸 長与店,長崎県,129.871923079778,32.822273481051596,1
2017-05-26,漁師寿司 海蓮丸 神戸店,兵庫県,135.17428351538985,34.68171768043937,1
2017-05-25,福島 焼肉寿司,大阪府,135.48621962923255,34.69634979877725,1
2017-05-25,はま寿司横浜笹下店,神奈川県,139.5940358154075,35.38799808026374,1
2017-05-23,すし海道 南相馬店,福島県,140.98122917989818,37.63191237988467,1
2017-05-22,すし三崎丸 戸越銀座店,東京都,139.71312621541324,35.61566378020967,1
2017-05-22,無添 くら寿司 広島南観音店,広島県,132.42620331538225,34.38230218051741,1
2017-05-22,無添 くら寿司 米沢店,山形県,140.09701831547338,37.92370897973263,1
2017-05-16,すし海道 田子西店,宮城県,140.95425047994013,38.28298947976967,1
2017-05-16,さいたま新都心 風凛,埼玉県,139.6302491798785,35.893953580242496,1
2017-05-11,はま寿司 幕張IC店,千葉県,140.02911827991215,35.671163180293576,1
2017-05-10,スシロー鯖江店,福井県,136.1879102154871,35.968139580128444,1
2017-04-30,はま寿司下松店,山口県,131.85795131533274,34.02193062677415,1
2017-04-28,魚べい クロスガーデン調布店,東京都,139.56580227979978,35.657090638999605,1
2017-04-27,はま寿司マチニワ豊川店,愛知県,137.37222967978218,34.815098484686025,1
2017-04-25,ゆず庵 名古屋平針店,愛知県,137.0033737153558,35.1223453680264,1
2017-04-25,磯のがってん寿司東武練馬店,東京都,139.6594172153696,35.76862533278127,1
2017-04-24,無添 くら寿司 可児店,岐阜県,137.0682451703372,35.4359556987718,1
2017-04-23,ゆず庵 横浜本郷台店,神奈川県,139.5506928797936,35.36204135511471,1
2017-04-23,鮨心 はなれ,東京都,139.72206067979994,35.6581033389442,1
2017-04-19,寿司居酒屋 や台ずし ライオン通町,香川県,134.0494256797723,34.344223609829044,1
2017-04-19,にぎりの徳兵衛 羽島店,岐阜県,136.6899981797926,35.318564357479694,1
2017-04-18,魚べいリップス愛宕店,新潟県,138.86112807983943,37.457389738227626,1
2017-04-18,無添くら寿司 上越店,新潟県,138.25351527983258,37.153953155504404,1
2017-04-16,鮨 美寿志,大阪府,135.49330847977944,34.6934272912109,1
2017-04-14,鮨心,北海道,140.63875057996984,42.843397812534775,1
2017-04-14,街のみなと 京都タワーサンド店,京都府,135.75716077978558,34.98757697540331,1
2017-04-14,大起水産回転寿司 京都タワーサンド店,京都府,135.75716077978558,34.98757697540331,1
2017-04-12,かっぱ寿司 一関店,岩手県,141.10788317987374,38.93742825228848,1
2017-04-12,スシロー 佐野大橋店,栃木県,139.56314967981427,36.32123800231051,1
2017-04-08,鮨 長右ェ門,神奈川県,139.55267467979286,35.325831857084495,1
2017-04-08,さんとく三太郎本店,滋賀県,136.19832127979763,35.550214344850204,1
2017-04-06,海鮮三崎港 エキア曳舟店,東京都,139.81463531524037,35.71768433557944,1
2017-04-06,梅丘寿司の美登利総本店 名古屋店,愛知県,136.88059011522782,35.17204216533572,1
2017-04-05,スシロー 唐津和多田店,佐賀県,129.97328351528785,33.436926980777855,1
2017-04-05,はま寿司 町田野津田店,東京都,139.44380831534278,35.58777908021612,1
2017-04-04,伏見稲荷 千本いなり,京都府,135.76877087033657,34.96837229877893,1
2017-04-04,京樽 シャポー本八幡店,千葉県,139.92468947981752,35.72106698028205,1
2017-04-04,すし三崎港 シャポー本八幡店,千葉県,139.92468947981752,35.72106698028205,1
2017-03-30,海鮮三崎港 横須賀モアーズシティ店,神奈川県,139.66800577977378,35.278239080386776,1
2017-03-30,はま寿司 金閣寺店,京都府,135.7297068797675,35.03531738044617,1
2017-03-30,はま寿司 平塚南原店,神奈川県,139.32359177977528,35.33951658037195,1
2017-03-29,海鮮丼がってん寿司 海老名SA店,神奈川県,139.39648307977765,35.43208938034965,1
2017-03-29,スシロー 大分大在店,大分県,-1,-1,1
2017-03-28,魚べい名古屋中川店,愛知県,136.86730577976977,35.12322298042442,1
2017-03-27,無添 くら寿司 名張店,三重県,136.0935681153231,34.6155377804565,1
2017-03-26,ゆず庵 鹿児島宇宿店,鹿児島県,130.5383049796837,31.620969181427746,1
2017-03-26,はま寿司 前橋元総社店,群馬県,139.0241901798028,36.39269928013223,1
2017-03-23,にぎり座,広島県,132.4474643797512,34.38938568061098,1
2017-03-22,氷見海鮮丼 粋鮨,石川県,136.46499167980298,36.39503598013181,1
2017-03-22,相模御用寿司 中津店,神奈川県,139.33643207977997,35.51464528033032,1
2017-03-22,スシロー 岐阜石長店,岐阜県,136.78231527977715,35.407329980355726,1
2017-03-22,スシロー 武雄店,佐賀県,130.0372224797214,33.202022080939564,1
2017-03-21,もりもり寿し イオンモール新小松店,石川県,136.46260517980298,36.39507538013187,1
2017-03-21,ゆず庵 小松店,石川県,136.46753577980294,36.39612848013158,1
2017-03-20,無添くら寿司 秋田茨島店,秋田県,140.1010737798941,39.70460317955486,1
2017-03-20,無添くら寿司 稲沢店,愛知県,136.77677797977316,35.25452498039251,1
2017-03-17,CHOJIRO 法善寺店,大阪府,135.50019297975797,34.66780208053875,1
2017-03-17,魚べい 名古屋守山店,愛知県,137.01254647977265,35.24101098039577,1
2017-03-15,寿司居酒屋 や台ずし 一橋学園駅前町,東京都,139.47768977978515,35.72168298028191,1
2017-03-15,スシロー函館美原店,北海道,140.75169297995566,41.8137939793291,1
2017-03-13,無添 くら寿司 東海荒尾店,愛知県,136.9124497153339,35.029866780351234,1
2017-03-13,ゆず庵 堺泉北店,大阪府,135.49252071531993,34.49340968048822,1
2017-03-10,寿司居酒屋 や台ずし 和泉府中駅前町,大阪府,135.42280047975353,34.48841858058496,1
2017-03-10,宅配寿司 日ノ出,岩手県,141.1257417798828,39.307744579609825,1
2017-03-09,京樽 アリオ西新井,東京都,139.78356221535313,35.774120280172774,1
2017-03-09,すし三崎港 アリオ西新井,東京都,139.78356221535313,35.774120280172774,1
2017-03-08,魚べい 水戸元吉田店,茨城県,140.4620944798016,36.346518280142256,1
2017-03-06,はた鮨 豪徳寺店,東京都,139.64489937978345,35.653984580297674,1
2017-03-03,磯のがってん寿司 南越谷店,埼玉県,139.78122377978926,35.872504480247414,1
2017-03-01,魚べいブランチ茅ヶ崎店,神奈川県,139.38577387977486,35.322241580376065,1
2017-02-28,はま寿司 垂水多聞店,兵庫県,135.04919177975827,34.67155408053774,1
2017-02-28,はま寿司八尾東久宝寺店,大阪府,135.5871491797572,34.63265698054766,1
2017-02-27,寿司居酒屋 や台ずし 久居駅前町,三重県,136.47489037975825,34.676204880536574,1
2017-02-23,京の彩り寿司 京月,大阪府,135.51240707975748,34.646787480543985,1
2017-02-22,金沢まいもん寿司 珠姫 大手町,東京都,139.76016471531858,35.686804137273725,1
2017-02-21,すしざんまい横浜駅西口店,神奈川県,139.6164585153453,35.46461908024535,1
2017-02-21,はま寿司大和つきみ野店,神奈川県,139.46091691534616,35.5058328802356,1
2017-02-16,津田沼 焼肉寿司,千葉県,140.01864537978446,35.6928114802886,1
2017-02-16,寿司居酒屋 きらく,奈良県,135.78965937975414,34.511716980578875,1
2017-02-15,築地魚力 郡山店,福島県,140.38477211539674,37.397542379829886,1
2017-02-13,匠誠,東京都,139.70032281535106,35.68892498019252,1
2017-02-08,スシロー町田北口店,東京都,139.44315751534717,35.544850180226234,1
2017-02-06,無添くら寿司 富田林店,大阪府,135.59336397975392,34.504282380580904,1
2017-02-03,銀座 すし四季,東京都,139.75910975091702,35.66813098010022,1
2017-02-02,はま寿司ウニクス伊奈店,埼玉県,139.6113636797929,36.01059498021609,1
2017-02-01,鮨 ゆうじろう,大阪府,135.50410947975848,34.68426378053449,1
2017-01-31,すし海道 秋田新国道店,秋田県,140.09785541546233,39.734973679450135,1
2017-01-31,ゆず庵 練馬光が丘店,東京都,139.63447211535274,35.75605668017689,1
2017-01-30,無添 くら寿司 津山店,岡山県,134.0076383153346,35.05994488034388,1
2017-01-30,寿司居酒屋 や台ずし 鈴鹿平田町,三重県,136.54124511532976,34.87446868039022,1
2017-01-29,ゆず庵 金沢桜田店,石川県,136.61744947980773,36.577501280092996,1
2017-01-29,はま寿司豊中小曽根店,大阪府,135.48193147976033,34.75840348051558,1
2017-01-29,はま寿司久留米南町店,福岡県,130.5179241797236,33.28805418091477,1
2017-01-29,スシロー福山神辺店,広島県,133.35286047975495,34.547130780569745,1
2017-01-26,スシロー西大津店,滋賀県,135.85989637976704,35.02427788044892,1
2017-01-26,スシロー水戸東原店,茨城県,140.4452262798026,36.383600880134324,1
2017-01-26,小桜 （鮓 小桜）,兵庫県,135.21672957975912,34.710134680527716,1
2017-01-23,はま寿司 島田店,静岡県,138.1925780797624,34.83524978049612,1
2017-01-21,熟成寿司専門店 優雅,千葉県,139.98355687033563,35.69941539876794,1
2017-01-12,寿司居酒屋 や台ずし 楽々園駅前町,広島県,132.3493573797505,34.363731580617575,1
2017-01-06,金沢回転寿司 輝らり,石川県,136.64387597980766,36.57820248009277,1
2016-12-28,寿司居酒屋 や台ずし 中村橋駅前町,東京都,139.63521057988942,35.738502280278034,1
2016-12-26,寿司居酒屋 や台ずし 掛川駅北口町,静岡県,138.0133937797773,34.77126168051235,1
2016-12-24,寿司処 然 北新地店,大阪府,135.4939504793706,34.697751190980256,1
2016-12-21,寿司居酒屋 や台ずし 武蔵新田町,東京都,139.6900719793934,35.56689774393869,1
2016-12-20,回転寿司 海鮮三崎港 金町東急ストア店,東京都,139.8676301793987,35.77077903276062,1
2016-12-20,はま寿司神戸上津台店,兵庫県,135.1985877793749,34.86241188214443,1
2016-12-20,はま寿司横浜菊名店,神奈川県,139.62998897939192,35.515433946751656,1
2016-12-15,Sushi力蔵 志木店,埼玉県,139.5722457794002,35.82310332988325,1
2016-12-14,あきんどスシロー掛川店,静岡県,137.9841982793725,34.77379758690406,1
2016-12-14,あきんどスシロー倉吉店,鳥取県,133.8423753793905,35.461754049682156,1
2016-12-13,寿司居酒屋 や台ずし 片原町,香川県,134.04967097936168,34.34575050974878,1
2016-12-13,ゆず庵 富山今泉店,富山県,137.20854437942293,36.67095938276224,1
2016-12-13,海鮮三崎港 小田原ダイナシティ店,神奈川県,139.18338957938582,35.2838537593669,1
2016-12-09,にぎりの徳兵衛 イオンモール長久手店,愛知県,137.04836027938282,35.17340426535884,1
2016-12-08,廻り寿し 千寿すしつね北千住マルイ店,東京都,139.80245087939815,35.75083553385655,1
2016-12-08,鮨 由う,東京都,139.73017207939583,35.66485193857498,1
2016-12-08,京樽 エトモ市が尾店,神奈川県,139.53910407939293,35.55138874478679,1
2016-12-08,あきんどスシロー千葉みなと店,千葉県,140.07707497939475,35.61939924106549,1
2016-12-08,あきんどスシロー仙台松森店,宮城県,140.90071057946858,38.309684789076314,1
2016-12-05,無添くら寿司 八千代店,千葉県,140.07189627939746,35.72258953540746,1
2016-11-30,銀座 815,東京都,139.75861007951883,35.671279980293605,1
2016-11-30,政旨鮨,兵庫県,134.99020467948904,34.647982580543754,1
2016-11-29,ゆず庵 富山今泉店,富山県,137.2086274795485,36.67129098007339,1
2016-11-28,無添 くら寿司 大分森町店,大分県,-1,-1,1
2016-11-28,氷見すしのや,富山県,136.99007757955326,36.83114108004045,1
2016-11-28,無添くら寿司 枚方宮之阪店,大阪府,135.66155997949386,34.81158718050203,1
2016-11-25,魚べいアクロスプラザ長岡七日町店,新潟県,138.80663737957207,37.44662397991933,1
2016-11-24,つきぢ神楽寿司両国店,東京都,139.79032587951943,35.69605068028781,1
2016-11-24,政五ずし 両国江戸NOREN店,東京都,139.79032587951943,35.69605068028781,1
2016-11-24,伊豆太郎 ラスカ熱海店,静岡県,139.07587337950227,35.1034348804294,1
2016-11-24,魚がし日本一 京橋エドグラン店,東京都,139.76773357951905,35.677044380292216,1
2016-11-24,京すし 京橋エドグラン店,東京都,139.76773357951905,35.677044380292216,1
2016-11-24,ときすし 天六店,大阪府,135.50893347949088,34.71116098052754,1
2016-11-22,のん太鮨 周南店,山口県,131.84241587935375,34.03833912600559,1
2016-11-22,かっぱ寿司 豊中上新田店,大阪府,135.49937607937343,34.80279898534741,1
2016-11-22,魚べい東習志野店,千葉県,140.0746196793968,35.69639473684516,1
2016-11-21,あげまき,東京都,139.71648697031134,35.64574668859848,1
2016-11-21,立喰い寿司 函太郎 東京駅一番街店,東京都,139.76633227939638,35.68113493768211,1
2016-11-21,寿司の磯松 中目黒店,東京都,139.69628504028222,35.642928974812065,1
2016-11-21,回転寿司 海鮮三崎港 アリオ橋本店,神奈川県,139.34725847939384,35.59089384262591,1
2016-11-20,海鮮三崎港 アリオ西新井店,東京都,139.78382877939882,35.77474103254292,1
2016-11-20,はま寿司沖縄登川店,沖縄県,127.82119837918279,26.364547189901412,1
2016-11-20,浪花古市庵 ペリエ千葉店,千葉県,140.1124174793946,35.6123932414491,1
2016-11-20,魚力海鮮寿司・海鮮魚力ペリエ千葉店,千葉県,140.1124174793946,35.6123932414491,1
2016-11-18,プレミアムレストラン 東京 金のダイニング 鮪金,東京都,139.76514627031895,35.67003319876839,1
2016-11-15,築地寿司岩 成田空港店,千葉県,140.38174087939862,35.763883233139616,1
2016-11-14,SUSHI&ROLLS UOSEI （ スシアンドロール ウオセイ）,東京都,139.73854151495917,35.62903414044089,1
2016-11-14,すし海道十日町店,新潟県,138.7518338150003,37.136702056385296,1
2016-11-13,金沢まいもん寿司センター南店,神奈川県,139.57220347939264,35.54398564519155,1
2016-11-11,鮨 三上,北海道,141.35267067032478,43.05370057866736,1
2016-11-11,すし心明,岩手県,141.156464279509,39.70096710688276,1
2016-11-10,グレート 大井松田店,神奈川県,139.14850287938734,35.339423256346215,1
2016-11-10,北辰鮨セルバテラス店,宮城県,140.878962979469,38.32427948822651,1
2016-11-10,ひらが,北海道,141.35157397961171,43.05188849922477,1
2016-11-10,魚べい 北見店,北海道,143.8643005796358,43.79888085111879,1
2016-11-09,ゆず庵 西熊本店,熊本県,130.68208407945852,32.763958992051734,1
2016-11-08,あきんどスシロー海浜幕張店,千葉県,140.04246467939564,35.650559339358374,1
2016-11-08,あきんどスシロー岩槻店,埼玉県,139.71547577940345,35.950328522871835,1
2016-11-07,はま寿司米沢店,山形県,140.1085903794576,37.92199951154813,1
2016-11-07,寿司・中国料理 福禄寿,北海道,141.3496542796121,43.06285789852314,1
2016-11-07,ゆず庵 三島店,静岡県,138.9142520793812,35.10521916904988,1
2016-11-03,スシロー相模大野モアーズ店,神奈川県,139.43512467939243,35.53236234582679,1
2016-11-02,天鮨 新橋本店,東京都,139.7526004796248,35.66623168029482,1
2016-11-01,かっぱ寿司 洲本店,兵庫県,134.87522797936168,34.346269309721315,1
2016-10-31,東山 一久 （いっきゅう）,石川県,136.6640281149848,36.57258618817929,1
2016-10-31,すし海道 和泉中央店,大阪府,135.45691091492884,34.46877510311228,1
2016-10-31,ゆず庵 松本村井店,長野県,137.96214641497434,36.1862581097167,1
2016-10-31,寿司割烹 匠 新橋店,東京都,139.75259241496033,35.666246938401656,1
2016-10-30,ゆず庵 足利店,栃木県,139.46836331497823,36.336381101370456,1
2016-10-27,金澤玉寿司 せせらぎ通り店,石川県,136.65098711498453,36.56242978874801,1
2016-10-27,小樽おり鮨,北海道,140.99969211518243,43.1980715897596,1
2016-10-27,はま寿司 洲本店,兵庫県,134.8570057149256,34.34340690977798,1
2016-10-26,下高井戸旭鮨総本店 鮨たか,東京都,139.71126441495963,35.64236763971034,1
