Date,ShopName,Prefecture,longitude,latitude,Open
2021-11-11,奥萬屋,大阪府,135.5132030156821,34.66696349253116,1
2021-11-03,甘芋や,兵庫県,134.69296430507183,34.82478447867534,1
2021-11-02,たいやき 一休 札幌三越店,北海道,141.3521188058976,43.059320733656946,1
2021-10-30,おいもわかいもエコールマミ店,奈良県,135.7235701260081,34.545921008115826,1
2021-10-28,横浜くりこ庵 横浜東口ポルタ店,神奈川県,139.62148141569565,35.46517694939717,1
2021-10-22,日本一たい焼 広島鈴張街道本地店,広島県,132.5111264156815,34.64471389372147,1
2021-10-14,大須壺焼きいも 氏田屋,愛知県,136.90066224946065,35.15920598618679,1
2021-10-07,たい焼き工房 土九 富山ファボーレ店,富山県,137.16928861571685,36.66264608312957,1
2021-10-07,焼き芋専門店 はりろ,岐阜県,136.7126545206839,35.37474785455449,1
2021-10-06,蜜芋工房,愛媛県,132.74723431566923,33.906608632837155,1
2021-10-01,焼き芋 芋笑,三重県,136.4514535206856,34.85230991226287,1
2021-09-30,焼き芋専門店 芋やす 松阪店,三重県,136.5286100152289,34.57906928046592,1
2021-09-28,たいやき天 玉造店,大阪府,135.52794144830574,34.67786148750794,1
2021-09-17,鳴門鯛焼本舗 広島本通店,広島県,132.46086012923448,34.3925629054442,1
2021-09-14,蔵出し焼き芋かいつか ラゾーナ川崎プラザ店,神奈川県,139.69370521569684,35.533103345687984,1
2021-09-11,菓処 芋いつも,群馬県,139.5182321790072,36.24301270999256,1
2021-09-10,神戸芋屋 志のもと 下北沢店,東京都,139.66720482923589,35.66261238836196,1
2021-09-05,さつまいも元帥 斧屋 本店,大阪府,135.51082582925085,34.70254230132456,1
2021-09-03,焼き芋専門店 維新蔵 ルクア大阪店,大阪府,135.49510478558048,34.702847667542926,1
2021-08-03,米乃家 LAND,愛知県,136.851712612893,35.28892375899353,1
2021-07-11,笑顔を運ぶ高級たい焼き きんと雲（KINTOUN）,福岡県,130.51073582923334,33.31606411949959,1
2021-06-18,日本一たい焼滋賀竜王ドライブイン店,滋賀県,136.0918256419399,35.09197734315361,1
2021-06-06,カリカリ博士 アピタ四日市店,三重県,136.61661657313402,34.96808654219343,1
2021-05-28,神鯛＆神遇,島根県,132.7157726476877,34.99730287203033,1
2021-05-19,たいやき 天,大阪府,135.47784921581703,34.67881358044007,1
2021-05-06,高級芋菓子しみず 二子玉川店,東京都,139.62787841583568,35.61055148021072,1
2021-05-02,京都一休 グランエミオ所沢店,埼玉県,139.47396950562492,35.78656978016992,1
2021-04-20,らぽっぽファーム 心斎橋店,大阪府,135.5007530292432,34.67262869877763,1
2021-04-16,つぼ焼いも 岐阜総本舗 幸神 西之神店,岐阜県,136.6073438292442,35.47181699876525,1
2021-04-09,神戸芋屋 志のもと 姫路店,兵庫県,134.692957005606,34.83118378040117,1
2021-04-09,日本一鯛焼き わさだタウン店,大分県,131.57933781578836,33.1890827808495,1
2021-04-08,横浜 こがね庵,新潟県,139.0553117819611,37.91622940329498,1
2021-03-25,くりこ庵 新越谷店,埼玉県,139.78925172926083,35.875520098759324,1
2021-03-13,鳴門鯛焼本舗 吉祥寺駅前店,東京都,-1,-1,1
2021-03-10,スイートポテトパイ専門店 POGG(ポグ) サクラマチ熊本店,熊本県,130.70246044015616,32.80020700104671,1
2021-02-25,芋の上松蔵（いのうえまつぞう）,東京都,139.57899480562327,35.70309908018915,1
2021-02-23,焼き芋スイーツ専門店 ナナシノ焼芋店,東京都,139.76130162926057,35.669162198762315,1
2021-01-11,たい焼き屋 札幌新月堂,北海道,141.33778251599838,43.045343679146924,1
2021-01-01,imoimo,北海道,-1,-1,1
2020-12-27,鯛焼き屋 たよ,岐阜県,137.02776882926068,35.84561599875979,1
2020-12-18,鳴門鯛焼本舗 長岡天神店,京都府,135.6925992879172,34.92615807773717,1
2020-12-18,Ms.Yakiimo（ミズ　ヤキイモ）,東京都,139.7743893056234,35.71213518018709,1
2020-12-14,Oyatsuimo Yotsuya（おやついも よつや）,福岡県,130.5244436790494,33.3049032753127,1
2020-12-14,鯛焼工房やきやきや尾上店,兵庫県,134.82256021295186,34.74967758042199,1
2020-12-11,銀のあん エミフルMASAKI店,愛媛県,132.71495442160224,33.78925965137422,1
2020-12-06,焼き芋じゃいあんと奈良,奈良県,135.76731320560177,34.620154080455215,1
2020-11-30,おめで鯛焼き本舗 イオン豊橋南店,愛知県,137.38606231581772,34.709708480432205,1
2020-11-19,菓匠茶屋 原店,福岡県,130.3398710157955,33.56453848074154,1
2020-10-30,わらしべ イオン伊勢店,三重県,136.72875951581332,34.478343480492256,1
2020-10-22,お伊勢たい焼き 縁屋 瑞穂店,岐阜県,136.6627262056168,35.38432098026476,1
2020-10-20,さつまいも専門店 箱根おいも大学前,神奈川県,-1,-1,1
2020-10-03,焼き芋専門店 芋やす 松阪店,三重県,136.53763182925908,34.548723998779614,1
2020-09-30,わらべのたい焼 ゆめタウン久留米店,福岡県,130.53630571579097,33.321569880811005,1
2020-09-06,おいも屋 いも平,北海道,141.45157260578367,43.018522079148156,1
2020-08-27,たこ焼き すたん堂 STANDO,福岡県,130.441525605583,33.65923048071468,1
2020-07-29,米乃家 アピタ岩倉店,愛知県,-1,-1,1
2020-07-18,壺（つぼ）やきいも スマイル,福島県,140.4689535168839,37.759808772632404,1
2020-07-05,甘党屋 姪浜店,福岡県,130.32317965827784,33.58369299518402,1
2020-06-23,たい焼き工房土九 金沢駅あんと西店,石川県,136.64530631585546,36.57844297999473,1
2020-05-30,Croissant Taiyaki 銀のあん イオンモール旭川駅前店,北海道,142.35794099999998,43.764176,1
2020-03-01,OYOGE 六本木店,東京都,139.72989982926114,35.663650998762385,1
2020-02-16,日本一たい焼き 鈴鹿インター店,三重県,136.4845079058026,34.93204388037571,1
2020-01-22,サザエ食品 西友清田店,北海道,141.4421047279826,42.99825387914921,1
2019-12-09,道頓堀 くくる 錦糸町テルミナ店,東京都,139.81287465829058,35.696331995047714,1
2019-11-30,まつり庵,北海道,140.72634655553128,41.77417538754134,1
2019-11-18,焼きいも すぐる,大阪府,135.5610595853615,34.46248607104026,1
2019-11-14,米乃家 イオンタウン四日市泊店,三重県,136.59911881583218,34.93899468037406,1
2019-10-22,和菓子 たいやき すえき,東京都,139.56018782926117,35.6978519987619,1
2019-10-22,たいサンド FU・Wa・Ri,千葉県,139.93233765829123,35.817940995040686,1
2019-10-11,たい焼き 新宿椿庵 代官山店,東京都,139.7025305995663,35.64981514093201,1
2019-10-10,おめで鯛焼き本舗 セルバ仙台店,宮城県,-1,-1,1
2019-10-07,鯛焼総家 仙台長町ザ・モール店,宮城県,140.87578275792376,38.22564396951788,1
2019-09-19,たいの八(や),東京都,139.7013767067587,35.689909767038564,1
2019-09-15,おめで鯛焼き本舗 サクラマチクマモト店,熊本県,130.70308782924158,32.80052689881029,1
2019-09-06,経堂小倉庵本店 下高井戸店,東京都,139.64115282926113,35.66585899876231,1
2019-09-03,グリーンズコート イトーヨーカドー琴似店,北海道,141.30394131547382,43.08064097914511,1
2019-08-05,銀だこ大衆酒場 吉祥寺店,東京都,139.57822182926114,35.70258799876184,1
2019-07-30,米乃家 イオンモール東浦店,愛知県,136.97198921583268,34.97875048036409,1
2019-07-28,たいやき神田達磨 Pasar蓮田（上り線）店,埼玉県,139.664988658292,35.97847599503147,1
2019-07-03,おやつ工房,兵庫県,135.14621182924378,34.653250998777914,1
2019-06-28,サザエ イオン湯川店,北海道,140.7918545159779,41.777644779230215,1
2019-06-28,天然鯛焼 鳴門鯛焼本舗 飯田橋駅前店,東京都,139.7450938292612,35.69880199876189,1
2019-05-31,幸せの黄金鯛焼き 大分オーパ店,大分県,131.6065998140708,33.23599206826681,1
2019-03-02,鳴門鯛焼本舗 恵比寿駅前店,東京都,139.70853582926114,35.64772099876263,1
2019-02-10,天河堂 わさだ店,大分県,131.57905871579828,33.18858628084968,1
2018-12-18,お好み焼き 鉄板焼居酒屋 や台や 藤井寺駅前町,大阪府,135.59358131522873,34.571876980467636,1
2018-12-05,ゑびす屋本舗 柴田店,宮城県,140.76848077111248,38.05296606633762,1
2018-11-30,道頓堀 赤鬼 原宿店,東京都,139.7019176800126,35.67103198029369,1
2018-11-23,じゃんぼ總本店 イオンタウン川西店,兵庫県,135.41660102744498,34.85598899655125,1
2018-11-08,わらしべ奈良1号店,奈良県,135.72508797840482,34.533402167760244,1
2018-11-07,鶴橋風月 イオンモール津南店,三重県,136.5152749793398,34.67106144207654,1
2018-10-28,会津屋 エビスタ西宮店,兵庫県,135.33646187994032,34.73684248888465,1
2018-10-16,おめで鯛焼き本舗 大須店,愛知県,136.90301387839605,35.158496567498744,1
2018-09-29,蔵出し焼き芋 imot（イモット）,大阪府,135.49548351271645,34.70256879062544,1
2018-09-29,鳴門鯛焼本舗 貝塚駅前店,大阪府,-1,-1,1
2018-09-27,十勝あんこのサザエ ららぽーと名古屋みなとアクルス,愛知県,136.88069867984413,35.109892368796366,1
2018-07-07,鳴門鯛焼本舗 新静岡駅前店,静岡県,138.38685207701224,34.97493307608497,1
2018-06-23,鳴門鯛焼本舗 蒲田駅前店,東京都,139.71711116967924,35.56240264418373,1
2018-06-15,鳴門鯛焼本舗 梅田芝田町店,大阪府,135.4953566798361,34.70615639052908,1
2018-06-02,鳴門鯛焼本舗 川越クレアモール店,埼玉県,139.48284306968662,35.912159624976596,1
2018-05-11,天然たいやき 鳴門鯛焼本舗 町田店,東京都,139.44775340566594,35.54157878022704,1
2018-04-26,横浜くりこ庵 二俣川店,神奈川県,139.5316738275458,35.46357938024553,1
2018-04-14,鳴門鯛焼本舗 JR高槻駅前店,大阪府,135.5830056229381,34.852696481189696,1
2018-03-28,おめで鯛焼き本舗アピタテラス横浜綱島店,神奈川県,139.60654142426682,35.54205846276071,1
2018-03-01,横浜くりこ庵 グランエミオ所沢店,埼玉県,139.4717176155001,35.78620903181439,1
2018-02-09,うすかわ五右衛門 シャポー船橋店,千葉県,139.9830513154984,35.70143483647057,1
2018-01-12,鳴門鯛焼本舗 江坂駅前店,大阪府,135.49433221548824,34.75776518766705,1
2017-11-18,白いたい焼きえびす堂,北海道,141.6618561800117,42.83496071307227,1
2017-10-27,横浜くりこ庵 小田原ラスカ店,神奈川県,139.1537846799492,35.2557479803922,1
2017-06-02,千雪桜,北海道,140.75412537989405,41.813575177530275,1
2017-05-27,鳴門鯛焼本舗 世田谷三宿店,東京都,139.69544657984724,35.66158718029579,1
2017-04-23,ちゃんこ大,北海道,143.5449095799803,43.24174838705867,1
2017-03-23,鯛パフェ イーアス筑波店,茨城県,140.08181457979484,36.086235580199315,1
2016-05-21,天然たいやき！鳴門鯛焼本舗 代々木駅前店,東京都,139.69934567952797,35.68283333758881,1
2016-04-21,たいやき神田達磨 恵比寿店,東京都,139.71033467954555,35.64609033960286,1
2015-11-25,おめで鯛焼き本舗 アトレ浦和店,埼玉県,139.6553583152576,35.8583199801534,1
2015-11-02,動物園通りのお店（手づくりや豊岡店）,北海道,142.3980423155672,43.77006585288378,1
2015-10-24,コールド・ストーン・クリーマリー/クロワッサンたい焼 ららぽーと磐田店,静岡県,137.83938831519032,34.7499919804219,1
2015-06-16,パティタイ,大阪府,135.495024,34.701831,1
2015-06-01,Croissant Taiyaki ICE 恵比寿店,東京都,139.709082,35.647729999999996,1
2015-05-29,米乃家ピアゴ可児店,岐阜県,137.064069,35.427006999999996,1
2015-03-20,米乃家 太田川店,愛知県,136.892699,35.021578,1
2014-11-20,銀のあん イオンモール多摩平の森店,東京都,139.380751,35.661944,1
2021-08-21,おめで鯛焼き本舗 名古屋南店,愛知県,136.91210981568943,35.0998902692404,0
2021-08-14,横浜くりこ ラスカ平塚店,神奈川県,139.34845291569334,35.32824275685631,0
2021-07-19,けんぞう,東京都,139.70958131721503,35.75271553365472,0
2021-06-04,薄皮たい焼き 粉こ楽 近鉄小倉駅店,京都府,135.78191040560728,34.89315668038548,0
2021-04-29,築地銀だこハイボール酒場 末広町店,none,139.7708110526384,35.70315061542314,0
2021-04-20,銀のあん 豊田メグリア店,愛知県,137.14294631582447,35.05253598034563,0
2021-02-10,越後叶家 高岡イオンモール店,富山県,137.01529226585848,36.723850579964285,0
2021-01-10,おめで鯛焼き本舗スマーク伊勢崎店,群馬県,139.2298679158505,36.33988538004591,0
2020-11-15,焼きたて屋 ザ・ビッグ郡山店,福島県,140.38658538046698,37.38970499707353,0
2020-11-06,築地銀だこ 日永カヨー店,三重県,136.60330577789992,34.94678302338842,0
2020-08-29,たい焼き鉄次 大丸東京店,東京都,139.76851060562282,35.68159538019431,0
2020-08-14,たい焼きCafe ダ・カーポ,東京都,139.7272463701028,35.62655351174922,0
2020-07-27,幸せの黄金鯛焼き ステラタウン大宮店,埼玉県,139.62093031584223,35.932794980136435,0
2020-06-04,鳴門鯛焼本舗 東京ミッドタウン前店,東京都,139.7305226751232,35.66481343851351,0
2020-05-29,鳴門鯛焼本舗 阪急川西能勢口店,兵庫県,135.4135059629533,34.82757048040203,0
2020-05-25,永留菓子店,長崎県,129.3723785129462,34.45675608049795,0
2020-04-04,日吉屋,三重県,136.71061336312917,34.48927548048919,0
2020-02-09,ひとくち茶屋 仙川西友店,東京都,139.5841730131523,35.66165228019879,0
2020-01-12,銀のあん ららぽーと和泉店,大阪府,135.44724085713983,34.43703248050305,0
2019-12-22,たいやき神田達磨 新橋店,東京都,139.75530282926113,35.66649499876239,0
2019-05-28,やつどき2号店,兵庫県,135.17205532871273,34.676479068218626,0
2019-02-04,米乃家 パレッタ勝川店,愛知県,136.9554794140856,35.23139036737277,0
2019-01-26,築地銀だこ イオンモール今治新都市店,愛媛県,132.95969983707434,34.04278286937081,0
2019-01-05,幸せの黄金鯛焼き 近鉄奈良駅店,奈良県,135.8279038292505,34.68326410158171,0
2018-09-17,甘党トキワ,愛知県,137.39102107112805,34.765494367511614,0
2018-09-02,おめで鯛焼き本舗 イオンモール東浦店,愛知県,136.97227297976605,34.978901280460185,0
2018-08-20,薄皮たい焼 銀のあん イオン大日店,大阪府,135.580301,34.74871399999999,0
2018-08-11,おめで鯛焼き本舗 ベニバナウォーク桶川店,埼玉県,139.54796381535357,35.9967067801219,0
2018-08-04,クロワッサンたい焼 ららぽーと磐田店,静岡県,137.83917381548804,34.750141488075855,0
2018-04-30,たい夢 ララガーデン春日部店,埼玉県,139.753231215687,35.97713698012636,0
2018-03-27,タワーたいやき,東京都,139.74325807985574,35.658597138916974,0
2018-01-26,銀のあん ヒルズウォーク徳重店,愛知県,136.99704121549482,35.09431396954228,0
2017-10-09,白いたい焼き えびす堂千歳店,1 道,141.66185348014463,42.834948879259876,0
2017-07-09,松屋二重焼本舗,広島県,132.90968921533937,34.34304830979613,0
2017-06-23,てんこちょ,none,140.11877698015513,35.61116358030767,0
2017-06-04,銀のあん イオンモール大阪ドームシティ店,大阪府,135.47790899999998,34.670322999999996,0
2017-06-03,たいやき神田達磨 恵比寿店,東京都,139.71034221550974,35.646086539505646,0
2017-05-08,富次郎 宇都宮パセオ とちぎグランマルシェ店,栃木県,139.89599341550183,36.559567979998754,0
2017-05-02,薄皮たい焼 粉こ楽 JR六甲道駅店,兵庫県,135.23644201547114,34.7150131804308,0
2017-04-15,サンマミーア,宮城県,141.56388341544053,38.89729575455504,0
2017-04-09,横浜くりこ庵 蒲田店,東京都,139.7214864797978,35.56063644428029,0
2017-04-09,鯛きち仙台三越店,宮城県,140.86894257985796,38.26514899166657,0
2017-04-08,銀のあん早稲田店,東京都,139.71653497980103,35.706469436291485,0
2017-03-05,銚子電鉄 観音駅売店,千葉県,140.83795887978545,35.729026780280236,0
2017-02-08,銀のあん イオンモール太田店,群馬県,139.39782321536703,36.29500338005569,0
2017-01-09,サザエうす皮たい焼 あべのキューズモール店,大阪府,135.50934627977395,34.64509608054448,0
2017-01-09,薄皮たい焼銀のあん イオンモール春日部店,埼玉県,139.78699887979226,35.98809678022128,0
2016-12-25,たい焼き屋ほっとあん,静岡県,138.4698907797449,35.020627280449816,0
2016-10-04,幸せの黄金鯛焼き コープ三木緑が丘店,兵庫県,135.02817941502565,34.769673187029085,0
2016-05-27,矢沢家 江古田駅前店,東京都,139.67095467949792,35.737318334598704,0
2015-11-30,たいやき桜鯛,三重県,136.59971731533378,35.02898598035148,0
2015-10-31,甘味処 常盤商店,北海道,142.36002031546363,43.77556097911728,0
2013-01-29,夢味鯛イオンモール盛岡南店,岩手県,39.683742,141.128612,0
2013-01-19,カリカリ博士京都ファミリー店,京都府,36.521717,139.03334,0
2012-11-30,夢ある街のたいやき屋さん　綾瀬タウンヒルズ店,神奈川県,35.714396,139.703693,0
2012-05-20,たいやき家,埼玉県,35.456423,139.632748,0
2012-05-08,NAZEYA 何故屋,東京都,36.5626,136.362305,0
2012-03-26,たい焼き神田達磨天神橋店,大阪府,36.5626,136.362305,0
2012-01-12,たいやき工房白家,長崎県,35.624844,139.42542,0
2011-12-26,神田達磨 　八重洲店,東京都,36.5626,136.362305,0
2011-12-19,薄皮たい焼きさざれ武蔵小杉店,神奈川県,34.680922,134.938625,0
2011-06-02,代官山たい焼き黒　鯛代官山本店,東京都,35.336596,139.306077,0
2011-05-31,たいやき鯛こうぼう 府中駅前店,東京都,35.671887,139.480233,0
