ShopName,Date,Prefecture,longitude,latitude,Open,genres
TEA ROOM KIKI 京都・嵐山本店,2021-11-06,京都府,135.68036921232505,35.01699006232525,1, #カフェ #パン・サンドイッチ（その他） #洋菓子（その他）
LEMONADE by Lemonica イオンモール鈴鹿店,2021-11-04,三重県,136.52941881568543,34.871768581543925,1, #ジュースバー
DoDoタピオカ専門店 トナリエクレオ店,2021-10-30,茨城県,140.11073200439088,36.08107358670388,1, #タピオカ
ゴンチャ（Gong cha）イオンモール熊本店,2021-10-28,熊本県,130.7414993156504,32.73812109327372,1, #タピオカ
ゴンチャ（Gong cha）新宿ミロード店,2021-10-28,東京都,139.69889682158495,35.68949280510551,1, #タピオカ #ケーキ
ゴンチャ（Gong cha）則武新町店,2021-10-26,愛知県,136.8777393156908,35.179988364904176,1, #タピオカ
Lemonade by Lemonica イーアス春日井店,2021-10-18,愛知県,136.98159512191228,35.258998524569456,1, #ジュースバー
ゴンチャ（Gong cha）イーアス春日井店,2021-10-18,愛知県,136.98159512191228,35.258998524569456,1, #タピオカ
アフタヌーンティー・ティールーム 梅田阪神,2021-10-08,大阪府,135.49573818517547,34.701571362627256,1, #カフェ #ケーキ
タリーズコーヒー ＆TEA水戸エクセル店,2021-10-07,茨城県,140.47437321619284,36.37132294642823,1, #カフェ
TEA MAISON KoKoTTe,2021-09-30,東京都,139.64140512925195,35.65809608842365,1, #紅茶専門店 #カフェ
台北茶房,2021-09-29,東京都,139.4776344156995,35.67079913815053,1, #タピオカ #台湾料理
THREE TEA LABORATORY ニュウマン新宿店,2021-09-27,東京都,-1.0,-1.0,1, #紅茶専門店
ゴンチャ（Gong cha）スマーク伊勢崎店,2021-09-23,群馬県,139.2308492351358,36.33963721987446,1, #タピオカ
LEMONADE by Lemonica 新静岡セノバ店,2021-09-19,静岡県,138.38494451568724,34.975523775956354,1, #ジュースバー
タリーズコーヒー &TEA ららぽーと立川立飛店,2021-09-17,東京都,139.4177473157002,35.71171563590597,1, #カフェ
QUON River Terrace (クオンリバーテラス),2021-09-15,福岡県,130.4051312156642,33.59021764938234,1, #カフェ
ゴンチャ（Gong cha）イオンモール直方店,2021-08-21,福岡県,130.74692851566712,33.76920624003887,1, #タピオカ
CHAI NEED US,2021-08-20,沖縄県,127.70214501555851,26.211559596229662,1, #紅茶専門店
CHA BAR 西武新宿PePe店,2021-08-18,東京都,139.6980810156996,35.69436483685815,1, #タピオカ
LEMONADE by Lemonica イオンモール富士宮,2021-08-09,静岡県,138.61023431569166,35.2214229626578,1, #ジュースバー
MLESNA TEA（ムレスナティー）東京,2021-08-08,東京都,139.57481221569995,35.70164343645874,1, #紅茶専門店
BullPulu tenshin ゆめタウン久留米店,2021-08-06,福岡県,130.5363057156597,33.321574363325524,1, #飲茶・点心 #台湾料理
LEMONADE by Lemonica イオンモール高松,2021-07-26,香川県,134.00371562756277,34.3520178093193,1, #ジュースバー
LEMONADE by Lemonica イオンモールりんくう泉南店,2021-07-25,大阪府,135.26458021567714,34.37941420786411,1, #ジュースバー
ゴンチャ（Gong cha）モラージュ菖蒲店,2021-07-13,埼玉県,139.60979271570653,36.07499901588207,1, #タピオカ
ゴンチャ（Gong cha）セブンパークアリオ柏店,2021-07-13,千葉県,140.01186389515829,35.832579428526465,1, #タピオカ
伍茶 イオンモール新小松店,2021-07-10,石川県,136.4648699157119,36.39498549810297,1, #寿司
LEMONADE by Lemonica セブンパークアリオ柏店,2021-07-06,千葉県,140.01274663694753,35.83365448222977,1, #ジュースバー
TeaWay Li-Ka 鹿児島中央駅店,2021-07-03,鹿児島県,130.54238982925563,31.58290999883434,1, #タピオカ
ベビタピ福岡大名店,2021-06-25,福岡県,130.39615052924972,33.586330516007635,1, #タピオカ #スイーツ（その他）
LEMONADE by Lemonica イオン八事店,2021-06-19,愛知県,136.96247681289054,35.136877867239065,1, #ジュースバー
CRAFT TEA 川根本店,2021-06-11,静岡県,138.1356099156896,35.10862496876793,1, #日本茶専門店
フードボートカフェ小郡店,2021-06-11,福岡県,130.56444882754732,33.408980658799614,1, #スイーツ（その他） #クレープ
源記 板橋店 （YUANJI）,2021-06-06,東京都,139.72051212925194,35.74622908721854,1, #スイーツ（その他）
MLESNA TEA代々木上原,2021-05-21,東京都,139.67794010562272,35.668599080197204,1, #カフェ
CRAFT TEA 新宿マルイ本館,2021-05-19,東京都,139.70188171583723,35.69090288019215,1, #日本茶専門店 #カフェ #喫茶店
タピキング 京都羽束師店,2021-05-19,京都府,135.71737477615224,34.930699094429514,1, #タピオカ
mirume,2021-05-10,愛知県,136.89204782925992,35.176084998769724,1, #日本茶専門店
TeaWay Li-Ka 鹿児島中央駅店,2021-05-03,鹿児島県,130.54292164954876,31.583136576728634,1, #タピオカ
LEMONADE by Lemonica ワンズモール稲毛店,2021-04-29,千葉県,140.11715465295902,35.656678449062746,1, #ジュースバー
LEMONADE by Lemonica ゆめタウン廿日市店,2021-04-29,広島県,132.3333751158105,34.34603218052704,1, #ジュースバー
＆EARL GREY (アンドアールグレイ) 仙台駅店,2021-04-28,宮城県,140.88131514332403,38.26015838224542,1, #紅茶専門店 #スイーツ（その他）
茶季 グランツリー武蔵小杉店,2021-04-27,神奈川県,139.65960430105102,35.57382943005353,1, #サンドイッチ
PEARL LADY CHA BAR アスティ静岡店,2021-04-26,静岡県,138.38741482924357,34.97108999877286,1, #スイーツ（その他）
LEMONADE by Lemonica ららぽーと富士見店,2021-04-23,埼玉県,139.54612631900707,35.859846079405564,1, #ジュースバー
LEMONADE by Lemonica 流山おおたかの森S・C  FRAPS店,2021-04-23,千葉県,139.92422588153877,35.87093599837557,1, #ジュースバー
ゴンチャ（Gong cha）イオンモール名取店,2021-04-23,宮城県,140.89341061588866,38.163758979690606,1, #ジュースバー #タピオカ
ゴンチャ（Gong cha）ららぽーと磐田店,2021-04-23,静岡県,137.84034982925937,34.75017289877635,1, #タピオカ
ゴンチャ（Gong cha）宇都宮パセオ店,2021-04-22,栃木県,139.89745739919871,36.56002335278485,1, #タピオカ
LEMONADE by lemonica イオンモール浜松市野店,2021-04-20,静岡県,137.76061201581828,34.740150880424416,1, #ジュースバー
Oolong Market 茶市場,2021-04-09,大阪府,135.51310182925926,34.64593869877805,1, #中国茶専門店 #カフェ・喫茶（その他）
CRAFT TEA 飯田橋,2021-04-07,東京都,139.7441891056231,35.69875428019022,1, #日本茶専門店 #カフェ #喫茶店
CRAFT TEA 丸の内,2021-04-07,東京都,139.76083521297042,35.67676008019523,1, #日本茶専門店 #カフェ #喫茶店
THE ALLEY 恵比寿店,2021-03-25,東京都,139.7099755056222,35.648968380201715,1, #カフェ
茶割 別邸,2021-03-23,東京都,139.68766050562195,35.63273358020576,1, #ダイニングバー #バー
ゴンチャ（Gong cha）相模大野ステーションスクエア店,2021-03-20,神奈川県,139.4374501444779,35.53221985985026,1, #スイーツ（その他） #中国茶専門店
LEMONADE by Lemonica コクーンシティ コクーン2店,2021-03-20,埼玉県,139.63452151297457,35.89566141759144,1, #ジュースバー
TEA SALON ENJYU,2021-03-19,東京都,139.7292450129694,35.637667880204525,1, #カフェ #タピオカ
ゴンチャ（Gong cha）金沢百番街 Rinto店,2021-03-18,石川県,136.64788847913053,36.578739470861365,1, #スイーツ（その他） #タピオカ
ゴンチャ（Gong cha）イオンモール宮崎店,2021-03-18,宮崎県,131.45603706880718,31.922137400171643,1, #スイーツ（その他） #タピオカ
ゴンチャ（Gong cha）鳥栖プレミアム・アウトレット店,2021-03-12,佐賀県,130.51065375827687,33.407619395196576,1, #スイーツ（その他） #タピオカ
LEMONADE by Lemonica イオンモール新利府店,2021-03-06,宮城県,140.97148107898806,38.32270199547054,1, #ジュースバー
LEMONADE by Lemonica イオンモール茨木店,2021-02-26,大阪府,135.55848329204542,34.81141864613188,1, #ジュースバー
ゴンチャ（Gong cha）岐阜又丸店,2021-02-26,岐阜県,136.70521308860728,35.43785854403529,1, #タピオカ
LEMONADE by Lemonica 所沢TOCOTOCOSQUAR店,2021-02-22,埼玉県,139.46948802926065,35.78920549876057,1, #ジュースバー
LEMONADE by Lemonica 広島シャレオ店,2021-02-12,広島県,132.45718052925892,34.39535629878216,1, #ジュースバー
ニガクナイコウチャ,2021-02-04,静岡県,138.38842191313879,34.97212888036566,1, #その他
LEMONADE by Lemonica 戸塚モディ店,2021-01-29,神奈川県,139.5341925292602,35.40132979876628,1, #ジュースバー
ゴンチャ（Gong cha）京都駅ビル ザ・キューブ店,2021-01-22,京都府,135.75837710560907,34.98598238036233,1, #スイーツ（その他） #タピオカ
一○八抹茶茶廊 丸井吉祥寺店,2021-01-14,東京都,139.57708461583758,35.70199518018943,1, #日本茶専門店 #和菓子 #スイーツ（その他）
ゴンチャ（Gong cha）イオンモール 長久手店,2020-12-20,愛知県,137.04822941582682,35.1734573803158,1, #スイーツ（その他） #中国茶専門店 #タピオカ
ゴンチャ（Gong cha）くずはモール店,2020-12-20,大阪府,135.6774455477181,34.860962833815236,1, #スイーツ（その他） #タピオカ
LEMONADE by Lemonica イオンモール松本店,2020-12-19,長野県,137.97794221298156,36.23403928006917,1, #ジュースバー
LEMONADE by Lemonica なんばマルイ店,2020-12-11,大阪府,135.50086560560266,34.665515180443634,1, #ジュースバー
Sharetea 吉祥寺店,2020-12-11,東京都,139.57693450562337,35.7037252801891,1, #スイーツ（その他）
ゴンチャ（Gong cha）ユニモちはら台店,2020-12-11,千葉県,140.17060552924428,35.52779509876443,1, #スイーツ（その他） #タピオカ
ゴンチャ（Gong cha）アミュプラザみやざき店,2020-12-11,宮崎県,131.43103247276437,31.91480611709072,1, #スイーツ（その他） #タピオカ
ことこ茶店,2020-12-10,東京都,139.63824410562216,35.652405580201105,1, #中国茶専門店 #日本茶専門店
ロージーティーハウス 四日市,2020-12-08,三重県,136.5754676368386,35.03512092375996,1, #紅茶専門店
LEMONADE by Lemonica イオンモール福岡店,2020-12-05,福岡県,130.47974112762486,33.59621108073238,1, #ジュースバー
LEMONADE by Lemonica イオン岡崎南店,2020-11-30,愛知県,137.1641061255701,34.93744308401237,1, #ジュースバー
LEMONADE by Lemonica 神戸ハーバーランドumie店,2020-11-30,兵庫県,135.1803114158269,34.67971548043982,1, #ジュースバー
LEMONADE by Lemonica イオンモール今治新都市店,2020-11-30,愛媛県,-1.0,-1.0,1, #ジュースバー
ゴンチャ(gong cha) 明石店,2020-11-22,兵庫県,134.99444600560253,34.64798388044817,1, #スイーツ（その他） #タピオカ
ゴンチャ(gong cha) プリコ垂水店,2020-11-22,兵庫県,135.05345221294954,34.62935058045281,1, #スイーツ（その他） #中国茶専門店 #中華粥 #タピオカ
ゴンチャ(gong cha)  東京駅 グランルーフ フロント店,2020-11-22,東京都,139.7674786860507,35.68052012746698,1, #タピオカ #カフェ・喫茶（その他） #中国茶専門店
源記甜品 横浜矢向駅前店,2020-11-20,神奈川県,139.6803726056199,35.53849658022784,1,Unfound
LEMONADE by Lemonica イオンモール旭川駅前店,2020-11-20,北海道,142.35494361601542,43.7638192791177,1, #ジュースバー
ゴンチャ(gong cha) アミュプラザ みやざき店,2020-11-20,宮崎県,131.43071032925604,31.914888298827556,1, #スイーツ（その他） #タピオカ
LEMONADE by Lemonica イオンモール姫路リバーシティー店,2020-11-17,兵庫県,134.66810166535464,34.79830504253014,1, #ジュースバー
& EARL GREY 神戸本店,2020-11-17,兵庫県,135.19624460560294,34.690939180436956,1, #スイーツ（その他） #洋菓子（その他）
La TREE 果茶果酒,2020-11-14,東京都,139.70662082926052,35.670331998762315,1, #カフェ #スイーツ（その他）
HOHO HOJICHA 四条河原町店,2020-11-09,京都府,135.76731682925978,35.003866998772374,1, #日本茶専門店　#カフェ
LEMONADE by Lemonica 越谷イオンレイクタウンkaze店,2020-11-02,埼玉県,139.82376998605992,35.877259574545434,1, #ジュースバー
saft（サフト）,2020-11-02,三重県,136.45701582925943,34.85425999877472,1, #ケーキ
一千花 京都清水産寧坂店,2020-10-31,京都府,135.7811563999937,34.9966027781104,1, #カフェ
TUTU＋WHO’STEA 八王子OPA店,2020-10-29,東京都,139.33746282926043,35.655042998762525,1, #スイーツ（その他） #クレープ　#タピオカ
LEMONADE by Lemonica イオンモール京都桂川店,2020-10-26,京都府,135.7045149158324,34.96533748036743,1, #ジュースバー
一芳(イーファン) 金沢香林坊アトリオ店,2020-10-15,石川県,136.65385201298844,36.563171579998134,1, #ジュースバー #スイーツ（その他）
台楽蛋糕＆台楽茶 キャナルシティオーパ店,2020-10-14,福岡県,130.4104948292419,33.589373998795914,1, #スイーツ（その他）
Tea Stand 点点茶,2020-10-13,富山県,137.2138329106415,36.710998056691366,1, #カフェ　#アイスクリーム
LEMONADE by Lemonica アミュプラザみやざき店,2020-10-12,宮崎県,131.431331133687,31.91588041968276,1, #ジュースバー
琥珀-KOHAKU- 鹿児島店,2020-10-10,鹿児島県,130.551775005544,31.57025948135309,1,Unfound
nanacha（ナナチャ）西新店,2020-10-10,福岡県,130.35897370558158,33.58295228073616,1, #スイーツ（その他） #タピオカ
LEMONADE by Lemonica イーアス高尾店,2020-10-09,東京都,139.28820961296964,35.64319538020319,1, #ジュースバー
HELLO！TEA イオン東雲店,2020-10-07,東京都,139.8015833728449,35.64907497634079,1, #スイーツ（その他）
千禧茶(せんきちゃ)マルヤマクラス店,2020-09-25,北海道,141.31763791313213,43.055024879146345,1, #スイーツ（その他） #タピオカ
ゴンチャ(gong cha) 広島パルコ店,2020-09-24,広島県,132.4617072129449,34.39212458051479,1, #スイーツ（その他） #タピオカ
OISHITEA 小山店,2020-09-23,栃木県,139.81300182926128,36.29498999875349,1, #ジュースバー
Monies (モンジョア),2020-09-22,兵庫県,135.13251221295144,34.72479468042833,1,Unfound
HOHO HOJICHA 焙茶専門店,2020-09-18,京都府,135.80480982925948,34.89189099877413,1, #日本茶専門店
LEMONADE by Lemonica 埼玉トヨペット深谷店店,2020-09-18,埼玉県,139.3042321586019,36.17785375228197,1, #ジュースバー
LEMONADE by Lemonica アピタ福井大和田店,2020-09-18,福井県,136.24806681584542,36.096676380099495,1, #ジュースバー
LEMONADE by Lemonica 万代シテイバスセンタービル店,2020-09-17,新潟県,139.05338861588345,37.91630017973385,1, #ジュースバー
TSUBOICHI TEA PLACE りんくう店,2020-09-15,大阪府,135.2625573008916,34.38019999284162,1, #カフェ
スイーツパールレディ モザイクモール港北店,2020-09-15,神奈川県,139.5757079158344,35.55547958022385,1, #スイーツ（その他） #タピオカ
ゴンチャ(gong cha) ららぽーと愛知東郷店,2020-09-14,愛知県,137.04604317005166,35.09839599724075,1, #スイーツ（その他） #タピオカ
一〇八抹茶茶廊 新丸の内ビル店,2020-09-11,東京都,139.7640133129705,35.68254338019396,1, #日本茶専門店 #和菓子 #甘味処
生タピオカ専門店 モッチャム 天満橋店,2020-09-11,大阪府,135.51557982924325,34.690416998777344,1, #スイーツ（その他） #タピオカ
THE ALLEY RAYARD Hisaya-odori Park店,2020-09-07,愛知県,136.90761482924378,35.17310399876972,1, #スイーツ（その他） #タピオカ
タリーズコーヒー &TEAエスパル仙台店,2020-09-06,宮城県,140.88145469278362,38.25922139857405,1, #カフェ
台楽茶＆台楽鶏排 堺ドライブスルー店,2020-09-02,大阪府,135.5053652062214,34.47710322108295,1, #スイーツ（その他） #からあげ
一〇八抹茶茶廊 マルイファミリー志木店,2020-09-02,埼玉県,139.57188651583994,35.8234622801614,1, #和菓子 #スイーツ（その他）
COOL DE LEMON.,2020-08-30,北海道,141.34985990578448,43.05677927914622,1, #ジュースバー
LEMONADE by Lemonica イオンモール新居浜,2020-08-29,愛媛県,133.2666659153313,33.95377493035989,1, #ジュースバー
LEMONADE by Lemonica イオンモール岡山店,2020-08-29,岡山県,133.91555431581676,34.662256580444286,1, #ジュースバー
抹茶共和国 四条河原町店,2020-08-27,京都府,135.76731082924363,35.003859998772356,1, #日本茶専門店
一芳（イーファン）金沢香林坊アトリオ店,2020-08-26,石川県,136.6537113019769,36.562874306983296,1, #ジュースバー #スイーツ（その他） #タピオカ
黒糖彪 吉祥寺店,2020-08-25,東京都,139.57945973396153,35.703843412753145,1, #スイーツ（その他） #タピオカ
梨山堂(リーシャンタン) MEGAドン・キホーテ柏崎店,2020-08-23,新潟県,138.57874761300516,37.368421179835416,1, #スイーツ（その他） #タピオカ
梨山堂(リーシャンタン) MEGAドン・キホーテ港山下総本店,2020-08-23,神奈川県,139.65179731583208,35.44241668025074,1, #スイーツ（その他） #タピオカ
梨山堂(リーシャンタン) ドン・キホーテ小倉店,2020-08-23,福岡県,130.8872474425844,33.87757707122266,1, #スイーツ（その他） #タピオカ
梨山堂(リーシャンタン) ドン・キホーテ パウSBS通り店,2020-08-23,静岡県,138.41554361295613,34.96592868036718,1, #スイーツ（その他） #タピオカ
梨山堂(リーシャンタン) 駒川店,2020-08-23,大阪府,135.53246130560154,34.61745158045607,1, #スイーツ（その他） #タピオカ
梨山堂(リーシャンタン) 甲賀水口店,2020-08-23,滋賀県,136.14375782925973,34.983782998772675,1, #スイーツ（その他） #タピオカ
梨山堂(リーシャンタン) ドン・キホーテ黒崎店,2020-08-23,福岡県,130.7558500129345,33.865691680657136,1, #スイーツ（その他） #タピオカ
Sharetea 新宿マルイ本館店,2020-08-21,東京都,139.70393360562306,35.69090288019215,1, #紅茶専門店 #カフェ
ゴンチャ(gong cha)  さんすて岡山店,2020-08-19,岡山県,133.91768265828298,34.66658099511083,1, #スイーツ（その他） #タピオカ
ゴンチャ(gong cha) イオンモール旭川西店,2020-08-19,北海道,142.323675716016,43.79399627911681,1, #スイーツ（その他） #タピオカ
日本茶とハーブティー みるる,2020-08-18,愛知県,137.13495341295993,35.150765980321424,1, #カフェ #日本茶専門店 #喫茶店
梨山堂(リーシャンタン) 姫路店,2020-08-18,兵庫県,134.69088860560578,34.828534680401845,1, #スイーツ（その他） #タピオカ
梨山堂(リーシャンタン) 静岡店,2020-08-18,静岡県,138.3869873056087,34.97493498036499,1, #スイーツ（その他） #タピオカ
梨山堂(リーシャンタン) フジグラン広島店,2020-08-18,広島県,-1.0,-1.0,1, #スイーツ（その他） #タピオカ
＋K プラス ケー,2020-08-16,石川県,136.6186835129866,36.46711198001841,1, #インド料理 #インドカレー #居酒屋
Bull Pulu (ブルプル)  アトレ浦和店,2020-08-16,埼玉県,139.65689291923394,35.858528496066114,1, #スイーツ（その他） #タピオカ
LEMONADE by Lemonica アリオ倉敷店,2020-08-12,岡山県,133.76204081581554,34.603493280459574,1, #ジュースバー
ゴンチャ(Gong cha) せんちゅうパル店,2020-08-10,大阪府,-1.0,-1.0,1, #スイーツ（その他） #中国茶専門店 #ジュースバー #タピオカ
bloom ~Premium Shake & Espresso 鎌倉大仏店,2020-08-07,神奈川県,139.53508210561566,35.31476448028147,1, #ジュースバー #カフェ
MeetFresh 鮮芋仙 丸井吉祥寺店,2020-08-06,東京都,139.57899971297098,35.701995180189435,1, #カフェ #中国茶専門店 #スイーツ（その他） #タピオカ
茶辻 / フェーヴ自由が丘 東京ギフトパレット店,2020-08-04,東京都,139.76784282924447,35.682003998762134,1,Unfound
LEMONADE by Lemonica（レモネードbyレモニカ） 福岡三越店,2020-08-02,福岡県,130.39925901292926,33.589160980734526,1, #ジュースバー
THE DRINK BOX. KiKi京橋店,2020-07-31,大阪府,135.52985280560327,34.69628978043576,1, #カフェ
Tapilab（タピラボ）秋田市民市場店,2020-07-31,秋田県,140.12544401305558,39.714665779452965,1, #スイーツ（その他） #タピオカ
Bull Pulu (ブルプル)  イトーヨーカドーあべの店,2020-07-30,大阪府,135.50915901581638,34.644633880448964,1, #タピオカ
SAHANJI サハンジ イオンモール大曲,2020-07-30,秋田県,140.50863724603255,39.43803845091779,1, #スイーツ（その他） #タピオカ
INCHA 印茶 新潟店,2020-07-28,新潟県,139.02765782926338,37.9161289987334,1, #スイーツ（その他） #タピオカ
美珠縁 biju-en,2020-07-22,東京都,139.79039182926064,35.732431998761385,1, #スイーツ（その他） #タピオカ
ゴンチャ(Gong cha) 札幌アピア店,2020-07-21,北海道,141.3494345,43.0670596,1, #スイーツ（その他） #タピオカ
LEMONADEby Lemonica 立誠ガーデンヒューリック京都店,2020-07-20,京都府,135.7701453056094,35.00601458035721,1, #ジュースバー
春水堂 京都木屋町店,2020-07-20,京都府,135.7701453056094,35.00601458035721,1, #カフェ #台湾料理 #スイーツ（その他）
タピパンダ埼大通り店,2020-07-16,埼玉県,139.62068451088678,35.869114398441056,1, #スイーツ（その他） #タピオカ
Bull Pulu（ブルプル）アリオ上尾店,2020-07-16,none,139.5638476158428,35.96173668012977,1, #スイーツ（その他） #タピオカ
ゴディバ 豊橋駅カルミア店,2020-07-14,愛知県,137.38189082925936,34.76315899877615,1, #チョコレート
ゴンチャ(Gong cha) JR豊橋駅店,2020-07-14,愛知県,137.38189082925936,34.76315899877615,1, #スイーツ（その他） #タピオカ
羊一茶 京都河原町店,2020-07-14,京都府,135.76739256668742,35.007200846024396,1, #スイーツ（その他） #タピオカ
⽣タピオカ専⾨店 モッチャム 博多店,2020-07-13,福岡県,130.42089282925804,33.588772998795854,1, #スイーツ（その他） #タピオカ
萬波 吉祥寺店,2020-07-10,東京都,139.58065472926054,35.706503198761794,1, #スイーツ（その他） #中国茶専門店
朴茶(PUCHA) エルミこうのす店,2020-07-09,埼玉県,139.50907282924496,36.059731998756746,1, #スイーツ（その他） #タピオカ
奈雪の茶 道頓堀店,2020-07-03,大阪府,135.50156220560248,34.6684902804429,1, #ジュースバー #カフェ・喫茶（その他）
茶BAR イオンモール四日市北店,2020-07-02,三重県,136.65694564658966,35.00764436093404,1, #スイーツ（その他） #タピオカ
TSUBOICHI TEA PLACE,2020-07-02,大阪府,135.26229464459868,34.3794509962804,1, #カフェ
THE ALLEY Otemachi One店,2020-06-30,東京都,139.7620326582882,35.68772699504817,1, #カフェ　#スイーツ（その他） #タピオカ
BLACK TIGER ブラックタイガー 奈良店,2020-06-30,奈良県,135.7024101403853,34.59789922585991,1,　#スイーツ（その他） #タピオカ
フーズティー(WHO’S TEA)イオンモール桑名店,2020-06-30,三重県,136.6603024158347,35.07229078034073,1, #スイーツ（その他） #タピオカ
YOGI,2020-06-27,兵庫県,135.3550008292593,34.74660899877641,1, #インド料理 #インドカレー
TEAVA（ティーバ）イトーヨーカドー青森店,2020-06-24,青森県,-1.0,-1.0,1, #スイーツ（その他） #タピオカ
LEMONADE by Lemonica イーアス沖縄豊崎店,2020-06-23,沖縄県,127.65050430084291,26.157817993922144,1, #ジュースバー
THE ALLEY（ジ アレイ） 原宿店,2020-06-22,東京都,139.70314326362586,35.67070318391089,1, #スイーツ（その他） #タピオカ
THE ALLEY ニュウマン横浜店,2020-06-21,神奈川県,139.6208249909326,35.46623701248919,1, #スイーツ（その他） #タピオカ
タピチティースタンド 京都新京極店,2020-06-19,京都府,135.7666898292597,35.00406899877235,1, #スイーツ（その他） #タピオカ
KOI Thé(コイティー) イーアス沖縄豊崎店,2020-06-19,沖縄県,127.65050430084291,26.157817993922144,1, #スイーツ（その他） #タピオカ
LEMONADE BY LEMONICA イーアス沖縄豊崎店,2020-06-19,沖縄県,127.65050430084291,26.157817993922144,1, #ジュースバー
春水堂 渋谷マークシティ店,2020-06-18,東京都,139.69683671583653,35.658410080199644,1, #台湾料理 #中華料理 #スイーツ（その他） #タピオカ
THE ALLEY 有明ガーデン店,2020-06-13,東京都,139.79251488153835,35.638263998380005,1, #スイーツ（その他） #タピオカ
ゴンチャ(Gong cha)  新橋3丁目店（デリバリー専門店）,2020-06-12,東京都,139.75400079328546,35.66545549266577,1, #スイーツ（その他） #タピオカ
辰杏珠(シンアンジュ) イオンモール岡山店,2020-06-11,岡山県,133.91555431581676,34.662256580444286,1, #スイーツ（その他） #タピオカ
SAHANJIイオンモール佐久平店,2020-06-10,長野県,138.46184701584923,36.27560773005996,1, #スイーツ（その他） #タピオカ
宣喜茶(センキチャ) イオンモール神戸南店,2020-06-10,兵庫県,135.17386082924327,34.665791998777706,1, #スイーツ（その他） #ジュースバー #タピオカ
H＆F BELX（エイチ＆エフ ベルクス）有楽町マルイ店,2020-06-07,東京都,139.76357671297023,35.67411238019599,1,Unfound
THE ALLEY 札幌大丸店,2020-06-06,北海道,141.34901416258438,43.06754962932249,1, #カフェ #スイーツ（その他） #タピオカ
Swag（スワグ）,2020-06-05,愛知県,137.16388182925962,34.953003998773184,1, #カフェ
Dragon Tea（ドラゴンティー）六甲道店,2020-06-05,兵庫県,135.23882031295105,34.714763280431015,1, #スイーツ（その他） #タピオカ
御黒堂 LaLaテラス南千住店,2020-06-04,東京都,139.80165476117685,35.735344414809866,1, #スイーツ（その他） #タピオカ
タリーズコーヒー＆TEA 御殿場プレミアム・アウトレットヒルサイド店,2020-06-04,静岡県,138.96552682926009,35.30574299876773,1, #カフェ
THE ALLEY NU茶屋町店,2020-05-29,大阪府,135.49877421295096,34.70701548043281,1, #スイーツ（その他） #タピオカ
ゴンチャ(Gong cha) グランデュオ立川店,2020-05-29,東京都,139.41419022782378,35.69726838019053,1, #スイーツ（その他） #タピオカ
CoCo都可 秋葉原店,2020-05-29,東京都,139.77154782926073,35.70104699876189,1, #スイーツ（その他） #タピオカ
DoDo(ドウドウ)つくばみどりの店,2020-05-29,茨城県,140.05617749079,36.02829774000068,1, #スイーツ（その他） #タピオカ
Bull Pulu(ブルプル) ミーツ国分寺店,2020-05-29,東京都,139.47988862766607,35.70073028018993,1, #台湾料理 #中国茶専門店 #スイーツ（その他） #タピオカ
Bull Pulu(ブルプル) ヨークマート石神井店,2020-05-29,東京都,139.6049158292445,35.7440139987613,1, #スイーツ（その他） #タピオカ
Bull Pulu(ブルプル) みらい長崎ココウォーク店,2020-05-29,長崎県,129.86255041578042,32.762321580976426,1, #スイーツ（その他） #タピオカ
TRUE WIN(トゥルーウイン)所沢店,2020-05-28,埼玉県,139.470622105625,35.78951208016928,1, #スイーツ（その他） #タピオカ
BullPulu(ブルプル) イオンモール幕張新都心店,2020-05-27,千葉県,140.0257897995192,35.65655910130296,1, #スイーツ（その他） #タピオカ
スイーツパールレディ 小倉駅前アイム店,2020-05-26,福岡県,130.88228381293516,33.885127480651704,1, #スイーツ（その他） #タピオカ #クレープ
BullPull（ブルプル） みのおキューズモール店,2020-05-23,大阪府,135.4894806582839,34.832273995100195,1, #スイーツ（その他） #タピオカ
タピキング京都桂店,2020-05-22,京都府,135.7095898292597,34.97986299877277,1, #スイーツ（その他） #タピオカ
パールレディ -ティーラボ 新宿東口店,2020-05-20,東京都,139.70145682926056,35.691226998762005,1, #カフェ・喫茶（その他） #タピオカ
吉龍糖 JI LONG TANG(ジロンタン) 吉祥寺店,2020-05-10,東京都,139.57936540562332,35.70354478018918,1, #スイーツ（その他） #タピオカ
珍煮丹/TRUEDAN（トゥルーダン)浅草雷門店,2020-05-06,東京都,139.79596790562337,35.71148258018727,1, #スイーツ（その他） #タピオカ
Tapilab（タピラボ）横手駅前店,2020-04-24,秋田県,140.56156612926586,39.31146029871929,1, #スイーツ（その他） #タピオカ
TAPIOKA Labo（タピオカラボ）倉敷店,2020-04-24,岡山県,133.77129010579662,34.61451478045664,1, #スイーツ（その他） #タピオカ
THE ALLEY 札幌店,2020-04-23,北海道,141.34991464458162,43.067782262589496,1, #スイーツ（その他） #タピオカ
台湾甜商店 ららぽーと和泉店,2020-04-22,大阪府,135.44716061478422,34.43672929357602,1, #スイーツ（その他） #タピオカ
ゴンチャ(Gong cha) 札幌赤れんが テラス店,2020-04-16,北海道,141.35010861331375,43.063873079145786,1, #スイーツ（その他） #タピオカ
happylemon 明大前店,2020-04-16,東京都,139.64973122926114,35.66853809876232,1, #スイーツ（その他）
LEMONADE by Lemonica（レモネードbyレモニカ）イオンモール伊丹昆陽,2020-04-06,兵庫県,135.37930681582898,34.784589480413,1, #ジュースバー
LEMONADE by Lemonica（レモネードbyレモニカ）イオンモール和歌山店,2020-04-06,和歌山県,135.14713671581904,34.27641688054536,1, #ジュースバー
LEMONADE by Lemonica（レモネードbyレモニカ）ビバモール東松山店,2020-04-06,埼玉県,139.4037786609021,36.031097040152396,1, #ジュースバー
LEMONADE by Lemonica（レモネードbyレモニカ）イオンモール新小松店,2020-04-06,石川県,136.46486991586121,36.39498118003407,1, #ジュースバー
ゴンチャ(Gong cha) ららぽーと豊洲店,2020-04-05,東京都,139.79095701584615,35.65552508020023,1, #スイーツ（その他） #中国茶専門店 #ジュースバー #タピオカ
ゴンチャ(Gong cha) 御殿場プレミアム・アウトレット店,2020-04-05,静岡県,138.96069281583922,35.30676698028328,1, #スイーツ（その他） #タピオカ
ゴンチャ(Gong cha) ディアモール大阪店,2020-04-05,大阪府,135.4969578582856,34.699832195108684,1, #スイーツ（その他） #タピオカ
茶々坊 武蔵関,2020-04-03,東京都,139.57768482926122,35.726962998761465,1, #スイーツ（その他） #タピオカ
BullPulu(ブルプル) アミュプラザおおいた店,2020-04-02,大分県,131.60605191310518,33.233145880836744,1, #スイーツ（その他） #タピオカ
辰杏珠（シンアンジュ）福岡大名店,2020-04-02,福岡県,130.39404210577678,33.587882380734875,1,辰杏珠（シンアンジュ）福岡大名店
MYOKOEN TEA STORE,2020-04-01,愛知県,136.90634382926052,35.16887599876982,1, #日本茶専門店
生タピオカ専門店 桜っ茶 神保町店,2020-04-01,東京都,139.75638982926114,35.69610299876195,1, #カフェ #スイーツ（その他） #中国茶専門店 #タピオカ
Bon Bon Tea （ボン ボン ティー）,2020-04-01,東京都,139.5780371559551,35.70339858502032,1, #スイーツ（その他） #台湾料理 #カフェ #タピオカ
BullPulu(ブルプル) 草加ヴァリエ店,2020-03-31,埼玉県,139.80343518059564,35.82811985160151,1, #タピオカ #スイーツ（その他）
BullPulu(ブルプル) イオン大和郡山店,2020-03-31,奈良県,135.79998561582633,34.651128680447194,1, #スイーツ（その他） #タピオカ
BullPulu(ブルプル) もりのみやキューズモール店,2020-03-29,大阪府,135.530377513133,34.68089078043969,1, #スイーツ（その他） #タピオカ
KOI The 海老江店,2020-03-27,大阪府,135.47522682924392,34.69789999877721,1, #スイーツ（その他） #タピオカ
Cha Aoyama,2020-03-26,東京都,139.70712582926114,35.660994998762455,1, #紅茶専門店 #スイーツ（その他） #洋菓子（その他） #タピオカ
辰杏珠 札幌狸小路店,2020-03-25,北海道,141.35715570597816,43.05773907914631,1, #スイーツ（その他） #タピオカ
FORTUNER tea-box ららぽーとTOKYO-BAY店,2020-03-25,千葉県,139.98845077951918,35.686162980290156,1, #スイーツ（その他） #タピオカ
BullPulu(ブルプル) エキアプレミエ 和光店,2020-03-25,埼玉県,139.61157982926133,35.78831899876061,1, #スイーツ（その他） #タピオカ
瑪蜜黛（モミトイ）トレッサ横浜店,2020-03-22,神奈川県,139.64517199290194,35.52477654002547,1, #スイーツ（その他） #タピオカ
Dang Tea House 暖茶房,2020-03-20,東京都,139.69795321525828,35.663153080198505,1, #スイーツ（その他） #タピオカ
パール レディ 茶BAR 博多店,2020-03-20,福岡県,130.41845291580594,33.589968780734296,1, #スイーツ（その他） #タピオカ
Tapista タピスタ イオンモール高岡店,2020-03-19,富山県,137.01360946717188,36.72444391619401,1, #スイーツ（その他） #タピオカ
台湾甜商店 あべのキューズモール店,2020-03-18,大阪府,135.51109970174156,34.644535890087575,1, #スイーツ（その他） #カフェ #タピオカ
Chatime（チャタイム） 新宿店,2020-03-18,東京都,139.70287460581764,35.69079298019209,1, #スイーツ（その他） #タピオカ
WHO’S TEA(フーズティー) イオンモール新潟南店,2020-03-18,新潟県,139.07946871589184,37.876243879741175,1, #スイーツ（その他） #タピオカ
台湾甜商店 芦屋モンテメール店,2020-03-18,兵庫県,135.30683188950823,34.73468477266067,1, #スイーツ（その他） #タピオカ
BullPulu(ブルプル) 小田原ダイナシティ店,2020-03-17,神奈川県,139.1832855158388,35.284248480288866,1, #スイーツ（その他） #タピオカ
BullPulu(ブルプル)  ゆめタウン大竹店,2020-03-17,広島県,132.22332981312448,34.241161480554986,1, #スイーツ（その他） #タピオカ
BullPulu(ブルプル)  FKDインターパーク店,2020-03-17,栃木県,139.90441861586322,36.490547980013396,1, #スイーツ（その他） #タピオカ
萬波 秋葉原店 （ WANPO TEA SHOP）,2020-03-16,東京都,139.77191588501802,35.70260412346856,1, #スイーツ（その他） #タピオカ
VENUS TEA(ヴィーナスティー)ロビーファイブ 1F相模大野店,2020-03-15,神奈川県,139.43195672926095,35.532324298764344,1, #スイーツ（その他） #タピオカ
タピキング 博多店,2020-03-15,福岡県,130.41925465828035,33.60224299518264,1, #スイーツ（その他） #タピオカ
HAPPY LEMON 京王下北沢店,2020-03-14,東京都,139.66678971296992,35.661539880198845,1, #スイーツ（その他）
和の茶緑祇園,2020-03-11,熊本県,130.7187878292577,32.79788999881032,1, #日本茶専門店 #スイーツ（その他）
machi machi 福岡パルコ店,2020-03-10,福岡県,130.39646081580605,33.590726580734106,1, #スイーツ（その他）
ゴンチャ(Gong cha) エキュート上野店,2020-03-10,東京都,139.77493631584736,35.7135419801867,1, #タピオカ #中国茶専門店
ゴンチャ(Gong cha) なんばマルイ店,2020-03-10,大阪府,135.50072881407678,34.66551516760766,1, #スイーツ（その他） #タピオカ
ゴンチャ(Gong cha) アミュプラザ鹿児島店,2020-03-10,鹿児島県,130.54056551576895,31.58457328134851,1, #スイーツ（その他） #タピオカ
瑪蜜黛(モミトイ）イオンモール下田店,2020-03-06,青森県,141.4168676159511,40.601970779344185,1, #スイーツ（その他） #タピオカ
Pink Cloud（ピンク・クラウド）,2020-03-06,大阪府,-1.0,-1.0,1, #スイーツ（その他）
Tapistaイオンモール新高岡店,2020-03-06,富山県,137.01360946717188,36.72444391619401,1, #スイーツ（その他） #タピオカ
台湾甜商店 ピオレ姫路店,2020-03-03,兵庫県,134.690983204832,34.827256130073145,1, #スイーツ（その他） #タピオカ
BullPulu(ブルプル) 小田原ダイナシティ店,2020-03-02,神奈川県,139.18377391551917,35.28379155927278,1, #スイーツ（その他） #タピオカ
楽喜茶(らきちゃ) イオンモール綾川店,2020-03-02,香川県,133.92852391581866,34.25181438055209,1, #スイーツ（その他） #タピオカ
MAX SEE（マックスシー）海老名店,2020-02-29,神奈川県,139.39204082926085,35.451071998765514,1, #スイーツ（その他） #タピオカ）
Tapista petit 札幌狸小路店,2020-02-28,北海道,141.35735610597817,43.05768297914629,1, #スイーツ（その他） #タピオカ
comma tea (コンマティー) ルクア大阪店,2020-02-28,大阪府,135.4931349158274,34.70288658043391,1, #スイーツ（その他） #タピオカ
CHA NUNG ルクア大阪店,2020-02-27,大阪府,135.4931349158274,34.70288658043391,1, #スイーツ（その他） #タピオカ
WHO’S TEA (フーズティー)イオンモール京都五条店,2020-02-27,京都府,135.72522801583318,34.99761108035926,1, #スイーツ（その他） #タピオカ
PIN TEA 渋谷店,2020-02-26,東京都,139.69901682926098,35.66074399876242,1, #チョコレート #アイスクリーム #カフェ
辰杏珠(sin an ju) 神戸元町店,2020-02-26,兵庫県,135.18792150579802,34.688715180437605,1, #スイーツ（その他） #タピオカ
辰杏珠(sin an ju) 梅田茶屋町店,2020-02-26,大阪府,-1.0,-1.0,1, #スイーツ（その他） #タピオカ
FOODBOATCafe,2020-02-25,山梨県,138.53414143350412,35.67939198396657,1, #カフェ
Tea Salon Blue moon,2020-02-22,大分県,131.47464937933628,33.288966572344826,1, #紅茶専門店 #カフェ
会茶AIAICHA,2020-02-21,栃木県,139.81176914838628,36.31607667200964,1, #スイーツ（その他） #タピオカ
ねこタピ 京都新京極店,2020-02-20,京都府,135.76683182926035,35.0080579987723,1, #タピオカ #カフェ・喫茶（その他）
OCHABA日本茶クレープ専門店 浅草店,2020-02-20,東京都,139.7949177768171,35.71241198992259,1, #クレープ
紅灯万来 -KOUTOUBANRAI-,2020-02-19,千葉県,140.10665730581638,35.623036880207856,1,Unfound
THE MATCHA TOKYO ルクア大阪,2020-02-16,大阪府,135.4931349158274,34.70288658043391,1, #カレー（その他） #カレーライス #インドカレー
台楽茶 西川口店,2020-02-14,埼玉県,139.70405910582025,35.815247680163324,1, #スイーツ（その他） #タピオカ
台楽茶 自由が丘店,2020-02-14,東京都,139.66874381315142,35.60821728021132,1, #スイーツ（その他） #タピオカ
伎里茶 越谷店,2020-02-13,埼玉県,139.7866838292614,35.88716699875918,1, #スイーツ（その他） #タピオカ
ゴンチャ(Gong cha) 武蔵小杉東急スクエア店,2020-02-13,神奈川県,139.65844637302482,35.575700809995524,1, #スイーツ（その他） #タピオカ
THE ALLEY 梅田エスト店,2020-02-10,大阪府,135.49996513455937,34.70459912670665,1, #スイーツ（その他） #タピオカ
台楽茶 江ノ島店,2020-02-10,神奈川県,139.48711582926063,35.31219799876766,1, #カフェ #スイーツ（その他） #かき氷 #タピオカ
奉茶 茶恋花ビバシティ彦根店,2020-02-07,滋賀県,136.24988968968785,35.244226389848,1, #スイーツ（その他） #タピオカ
WHOS’TEA 大阪南堀江店,2020-02-07,大阪府,135.49511382925994,34.67236899877761,1, #スイーツ（その他） #タピオカ
Bull Pulu（ブルプル）イオンモール新瑞橋店,2020-02-07,愛知県,136.93440751314162,35.114561780330284,1, #スイーツ（その他） #タピオカ
瑪蜜黛（モミトイ）尾道新浜店,2020-02-05,広島県,133.1856524881543,34.40251399877601,1, #スイーツ（その他） #タピオカ
TAPiCi TEA STAND 広島カープロード店,2020-02-05,広島県,132.47838530579222,34.39542548051395,1, #スイーツ（その他） #タピオカ
SAHANJI OSC湘南CITY店,2020-02-05,神奈川県,139.35741282926062,35.3288579987674,1, #スイーツ（その他） #タピオカ
maru.明石店,2020-02-02,兵庫県,134.87729482924388,34.705765998777125,1, #スイーツ（その他） #クレープ
ある茶,2020-01-31,福岡県,130.39373460577664,33.58618638073533,1, #カフェ #バー
タピチ ティースタンド イオンモール泉南店,2020-01-31,大阪府,135.2673611562913,34.38016971439516,1, #スイーツ（その他） #タピオカ
ゴンチャ(Gong cha) アトレマルヒロ川越店,2020-01-30,埼玉県,139.48094301585135,35.908308480142104,1, #スイーツ（その他） #タピオカ
チャノキカナザワ,2020-01-26,石川県,136.65414982926222,36.558677998749936,1, #中国茶専門店
metcha matcha & SALON (メッチャマッチャアンドサロン)梅田,2020-01-25,大阪府,135.49771051313348,34.7064584804328,1, #スイーツ（その他） #タピオカ
琥珀 -KOHAKU- アルプラザ草津店,2020-01-24,滋賀県,135.95818821313972,35.025394080352484,1,Unfound
nanarika tea（ナナリカティー）,2020-01-24,神奈川県,139.4057583381546,35.33275762331574,1, #スイーツ（その他） #タピオカ
LEMONADE by Lemonica mozoワンダーシティ新星堂店,2020-01-23,愛知県,136.88132988153842,35.22458699838811,1, #ジュースバー
徳茶 新潟店,2020-01-23,新潟県,139.06125332786934,37.91207727973474,1, #スイーツ（その他） #タピオカ
利客坊 RickFarm タピオカ専門店 BiVi藤枝店,2020-01-23,静岡県,138.25246799095677,34.84737672681389,1, #スイーツ（その他） #タピオカ
玉響 直方駅前通り店,2020-01-21,福岡県,130.7277848292588,33.74920299879313,1, #スイーツ（その他） #タピオカ
TAPiCi TEA STAND グランフェスタ姫路店,2020-01-14,兵庫県,134.69073020438086,34.82774513245371,1, #スイーツ（その他） #タピオカ
Tea Sweets Lab. CONTENART,2020-01-14,東京都,139.69924310074578,35.68303276230277,1, #紅茶専門店 #スイーツ（その他） #かき氷
Tapista petit 柏の葉キャンパス店,2020-01-09,千葉県,139.95262082926138,35.89449499875907,1, #スイーツ（その他） #タピオカ
TENDER MOMENTS 小確幸,2020-01-08,東京都,139.7976533962782,35.71017895035471,1, #カフェ
mo labo（モラボ） 吉祥寺店,2020-01-07,東京都,139.57860782926116,35.70253199876183,1, #スイーツ（その他） #タピオカ
豆恋 グリーンタウン甲府東店,2020-01-05,山梨県,138.61034982926108,35.649131998762634,1, #スイーツ（その他） #タピオカ
羊一茶(よういっちゃ)久留米店,2020-01-04,福岡県,130.5187708292583,33.31035499880091,1, #スイーツ（その他） #タピオカ
THE ALLEY 東急プラザ渋谷店,2019-12-31,東京都,139.69966482924508,35.657766998762476,1, #スイーツ（その他） #タピオカ
JIATE ✕ 永福茶堂 LINKS UMEDA店,2019-12-28,大阪府,135.4940659158274,34.70418978043367,1, #カフェ #台湾料理 #中国茶専門店
CHA NUNG（チャノン）名古屋パルコ店,2019-12-26,愛知県,136.90698423066206,35.163658054844554,1, #スイーツ（その他） #タピオカ
BullPulu(ブルプル)  ペリエ津田沼店,2019-12-26,千葉県,140.01980882926114,35.691288998762005,1,  #スイーツ（その他） #タピオカ #台湾料理
Tapista イオンモール宇城店,2019-12-25,熊本県,130.7071461560757,32.59678933715205,1, #スイーツ（その他） #タピオカ
Tapista イオンモール熊本店,2019-12-25,熊本県,130.74337023267657,32.738106318065945,1, #スイーツ（その他） #タピオカ
謝謝珍珠（シェイシェイパール）天文館店,2019-12-25,鹿児島県,130.5536048292563,31.591913998834144,1, #スイーツ（その他） #タピオカ #カフェ・喫茶（その他） #紅茶専門店
The TREAT&GRAN ザ トリートアンドグラン渋谷店,2019-12-24,東京都,139.69612682926115,35.6572689987625,1, #カフェ
謝謝珍珠（シェイシェイパール）イオン上田店,2019-12-24,長野県,138.25782282691333,36.392197463709714,1, #スイーツ（その他） #タピオカ
辰杏珠 イオンモール倉敷店,2019-12-21,岡山県,133.74339577993405,34.60373578055513,1, #スイーツ（その他） #タピオカ
琥珀-kohaku-愛知江南店,2019-12-20,愛知県,136.87013082926072,35.340224998767184,1, #スイーツ（その他） #タピオカ
台湾スイーツ 福因福果 苫小牧店,2019-12-19,北海道,141.59487982927058,42.64099499869805,1, #スイーツ（その他） #クレープ
TAPIYA 荻窪店,2019-12-19,東京都,139.61965582926115,35.705719998761815,1, #スイーツ（その他） #タピオカ
好茶（ハオチャ）阿佐ヶ谷店,2019-12-19,東京都,139.63553382926116,35.702333998761844,1, #スイーツ（その他） #タピオカ
CHA NUNG（チャノン）ルミネエスト新宿店,2019-12-19,東京都,139.70083241315305,35.69121318019197,1, #スイーツ（その他） #タピオカ
台湾甜商店 戸塚西口店,2019-12-16,神奈川県,139.5326581131472,35.400940080260725,1, #スイーツ（その他） #タピオカ
comma TOGO 仙台パルコ店,2019-12-16,宮城県,140.8794250159,38.26196877967368,1, #スイーツ（その他） #タピオカ
BOBA TEA SHOP dumiel,2019-12-16,徳島県,134.54904082925916,34.066776998787624,1, #スイーツ（その他） #タピオカ
Kaju 〜タピオカ専門店〜,2019-12-16,大分県,131.5024998292582,33.28128799880141,1, #スイーツ（その他） #タピオカ
丸作食茶 長野店,2019-12-13,none,138.1861238292624,36.6462719987488,1, #スイーツ（その他） #タピオカ
FOOD BOAT cafeフードボートカフェ イオンモール秋田店,2019-12-13,秋田県,140.16040441585127,39.66347394193371,1, #スイーツ（その他） #タピオカ
ゴンチャ(Gong cha) 上野松坂屋店,2019-12-12,東京都,139.77320760581796,35.70740428018807,1, #スイーツ（その他） #タピオカ
KOI Thé サンシャインシティアルパ店,2019-12-12,東京都,139.71574950000002,35.7293425,1, #スイーツ（その他） #タピオカ
瑪蜜黛（モミトイ） 池袋サンシャイン通り店,2019-12-11,東京都,139.71521382926116,35.72984899876142,1, #スイーツ（その他） #タピオカ
台湾タピオカ専門店 福茶,2019-12-11,愛知県,137.38490582925994,34.73697399877658,1, #スイーツ（その他） #タピオカ
BullPulu(ブルプル) 東急プラザ新長田店,2019-12-11,兵庫県,135.14448990579731,34.656419880445874,1, #スイーツ（その他） #タピオカ #中国茶専門店
友茶 天神店 （YOUCHA）,2019-12-09,大阪府,135.51158620579818,34.70001878043466,1, #スイーツ（その他） #タピオカ
琥珀-KOHAKU-四日市店,2019-12-08,三重県,136.6204888292602,34.966017998772934,1, #スイーツ（その他） #タピオカ
謝謝珍珠（シェイシェイパール） 秋田店,2019-12-08,秋田県,140.10878870610748,39.71490799369845,1, #スイーツ（その他） #タピオカ
台楽茶 板橋東口店,2019-12-06,東京都,139.72164982926122,35.743382998761284,1, #スイーツ（その他） #タピオカ
LoL 津山店（ロル）,2019-12-06,岡山県,134.0028982058053,35.0700438803412,1, #スイーツ（その他） #タピオカ
琥珀-kohaku- 青森サンロード店,2019-12-05,青森県,140.75272688154817,40.80759199830776,1, #スイーツ（その他） #タピオカ
MARU TAMASHI,2019-12-05,京都府,135.76497820580406,35.00537718035733,1, #スイーツ（その他）
ティースタンドMELTEA（メルティー）中野ブロードウェイB1店,2019-12-03,東京都,139.66567506315323,35.709247580187785,1, #スイーツ（その他） #タピオカ
Quicktea イオンモール三光店,2019-12-02,大分県,131.19301800569238,33.558449970414465,1, #スイーツ（その他） #タピオカ
琥珀-KOHAKU- 西帯広店,2019-12-02,北海道,143.15196431331,42.90914457915374,1, #スイーツ（その他） #タピオカ
台楽茶・札幌中央店,2019-12-01,北海道,141.35561882927126,43.05664999869664,1, #スイーツ（その他） #タピオカ
国産茶葉とお米のお店MOCHA（モチャ）中目黒店,2019-11-30,東京都,139.7017640058169,35.64502638020278,1, #スイーツ（その他） #タピオカ
teaser,2019-11-30,北海道,140.72634655553128,41.77417538754134,1, #カフェ #ダイニングバー #ケーキ
好茶（ハオチャ）立川店,2019-11-29,東京都,139.41264782926115,35.69521799876193,1, #スイーツ（その他） #タピオカ
香茶（シャンチャ） 垂水店,2019-11-29,兵庫県,135.05315230579663,34.62979548045267,1, #スイーツ（その他） #タピオカ
台湾茶,2019-11-29,神奈川県,139.40589938553325,35.33055659794085,1, #中国茶専門店
謝謝珍珠（シェイシェイパール）松任店,2019-11-29,石川県,136.56504942784005,36.50843538000985,1, #スイーツ（その他） #タピオカ
ゴンチャ（Gong cha）南町田グランベリーパーク店,2019-11-29,東京都,139.47017007897725,35.51024499559779,1, #スイーツ（その他） #タピオカ
Tapista petit 流山おおたかの森店,2019-11-28,千葉県,139.9250094292614,35.872895498759384,1, #スイーツ（その他） #タピオカ
ゴンチャ(Gong cha)  ザ パーク フロント ホテル店,2019-11-28,大阪府,135.43767201739936,34.66767798867813,1, #スイーツ（その他） #タピオカ
瑪蜜黛(モミトイ)イオン釧路店,2019-11-27,北海道,144.40271791600628,43.008999279148654,1, #スイーツ（その他） #タピオカ
ゴンチャ(Gong cha) 下北沢駅前店,2019-11-27,東京都,139.66710952926107,35.662172198762434,1, #スイーツ（その他） #タピオカ
Tik tea(ティックティー) イオンモール多摩平の森店,2019-11-27,東京都,139.38059101408746,35.66201166720364,1, #スイーツ（その他） #タピオカ
SAHANJI ぷらりと京王府中店,2019-11-26,東京都,139.4801953395335,35.67213382436403,1, #スイーツ（その他） #タピオカ
SAHANJI 京急杉田駅店,2019-11-26,神奈川県,139.61581582926078,35.38358399876657,1, #スイーツ（その他） #タピオカ
Milksha（ミルクシャ）高井戸店,2019-11-25,東京都,139.63924882926113,35.66592499876235,1, #スイーツ（その他） #タピオカ
FORTUNER tea-box高崎モントレ―店,2019-11-23,群馬県,139.0117782140926,36.32243356695976,1, #スイーツ（その他）
FORTUNER tea-box マルイファミリー溝口店,2019-11-23,神奈川県,139.61079151584508,35.59899018021358,1, #スイーツ（その他）
303 mAtcHa LaB マッチャラボ,2019-11-23,東京都,139.64860782926118,35.70548399876182,1, #スイーツ（その他） #タピオカ
熊本ミルクティー水前寺店,2019-11-22,熊本県,130.73843480674557,32.79957326832672,1, #スイーツ（その他） #タピオカ
新東京紅茶 静岡店,2019-11-22,静岡県,138.38609401043408,34.976007658594,1, #スイーツ（その他） #タピオカ
フーズティー×チュチュ イオンモール明和店,2019-11-22,三重県,136.61315021582504,34.58123238046535,1, #クレープ
TWG Tea 横浜ランドマークプラザ店,2019-11-21,神奈川県,139.63016887898752,35.45476602993821,1, #スイーツ（その他） #タピオカ
TOKI SEVEN TEA 北千住店,2019-11-21,東京都,139.8067554658482,35.748712880178545,1, #天ぷら・揚げ物（その他） #からあげ
琥珀-KOHAKU- 和歌山駅前通り店,2019-11-21,和歌山県,-1.0,-1.0,1, #スイーツ（その他） #タピオカ
CoCo都可 東京駅キッチンストリート店,2019-11-20,東京都,139.76806960206983,35.68238473390435,1, #スイーツ（その他） #タピオカ
V@chann 台湾茶飲料専門店 十条店,2019-11-20,東京都,139.72088782926122,35.763290998760965,1, #スイーツ（その他） #タピオカ
Milksha Ebisu（ミルクシャ 恵比寿）,2019-11-19,東京都,139.70970382926114,35.64856799876265,1, #スイーツ（その他） #タピオカ
タピチティースタンド アミュプラザおおいた店,2019-11-19,大分県,131.6062094420143,33.233094013377986,1, #スイーツ（その他） #タピオカ
machi machi 天王寺ミオ店,2019-11-17,大阪府,135.51455937286954,34.64707281335021,1, #カフェ #ジュースバー #ソフトクリーム
comma tea(コンマティー)横浜ジョイナス店,2019-11-16,神奈川県,139.61851916584246,35.46605078024499,1, #スイーツ（その他） #ジュースバー
中国茶専門店（チャールーフォン）cha lu feng,2019-11-15,兵庫県,135.18561482925995,34.68876099877736,1, #スイーツ（その他） #タピオカ
TEA18 西武所沢S.C.店,2019-11-14,埼玉県,139.4718531463816,35.786046497128595,1, #スイーツ（その他） #タピオカ
happylemonキラリナ京王吉祥寺店,2019-11-12,東京都,139.57788331584712,35.702760080189364,1, #スイーツ（その他） #タピオカ
PRESOTEA 西武新宿ペペ店,2019-11-12,東京都,139.7001329067715,35.6943604670367,1, #スイーツ（その他） #タピオカ
九龍堂 タピオカ店,2019-11-12,東京都,139.73465782926112,35.684366998762066,1, #スイーツ（その他） #タピオカ
Drink Stand 蜜 -MITSU-赤坂店,2019-11-10,東京都,139.7354618292612,35.674242998762224,1, #スイーツ（その他） #タピオカ
琥珀-KOHAKU- 神戸三宮店,2019-11-10,兵庫県,135.186837415827,34.69065878043699,1, #スイーツ（その他） #タピオカ
タピオカドリンク専門店 PEARL TEA(パールティー)太田川店,2019-11-09,愛知県,136.89080721583352,35.02200808035325,1, #スイーツ（その他） #タピオカ
TikTea（ティックティー）綱島店,2019-11-08,神奈川県,139.632157829261,35.53584799876432,1, #スイーツ（その他） #タピオカ
DING TEA SANNOMIYA ディンティー三宮店,2019-11-08,兵庫県,135.19295551408422,34.69218026759592,1, #スイーツ（その他） #タピオカ
CoCo都可（ココトカ）大宮ラクーン店,2019-11-06,埼玉県,139.62526570241002,35.90779657662418,1, #スイーツ（その他） #タピオカ
ゴンチャ（GONG CHA）渋谷スクランブルスクエア店,2019-11-03,東京都,139.70232915776882,35.65840260821517,1, #スイーツ（その他） #タピオカ #中国茶専門店 #ジュースバー
CHA NUNG（チャノン）大丸梅田店,2019-11-03,大阪府,135.49600943604793,34.70156266281553,1, #スイーツ（その他） #タピオカ
台湾甜商店 阪急高槻市駅店,2019-11-03,大阪府,135.62289681408993,34.84974056753457,1, #スイーツ（その他） #タピオカ #中華菓子 #かき氷
チーターズ熊本上通,2019-11-02,熊本県,130.71041382925767,32.804283998810234,1, #スイーツ（その他） #タピオカ
謝謝珍珠（シェイシェイパール）小江戸川越店,2019-11-02,埼玉県,139.48214582926144,35.919739998758715,1, #スイーツ（その他） #タピオカ
巭草堂（カンフーソウドウ ）小倉魚町店,2019-11-02,福岡県,130.8794369067479,33.884763417853996,1, #スイーツ（その他） #タピオカ
WHITE ALLEYホワイトアレイ（白巷子）中野店,2019-11-02,東京都,139.66567506409152,35.70924756718645,1, #スイーツ（その他） #タピオカ
宣喜茶（センキチャ）,2019-10-31,静岡県,138.61630041583632,35.161852580318644,1, #スイーツ（その他） #タピオカ
琥珀-KOHAKU- 八事店,2019-10-31,愛知県,-1.0,-1.0,1, #スイーツ（その他） #タピオカ
寸茶(スンチャ),2019-10-31,東京都,139.76480282926104,35.66976399876236,1, #スイーツ（その他） #タピオカ
台湾席茶 蓮月庭,2019-10-31,東京都,139.66613350676138,35.60777766707279,1, #中国茶専門店 #スイーツ（その他） #タピオカ #カフェ・喫茶（その他）
台湾茶 虎无茶（とらんちゃ）,2019-10-31,北海道,140.7518075068163,41.79012376544178,1, #スイーツ（その他） #タピオカ
スイーツパールレディ ビーンズ亀有店,2019-10-31,東京都,139.84737820677265,35.766570767010826,1, #スイーツ（その他） #タピオカ #クレープ
御黒堂（ごこくどう）名古屋スパイラルタワーズ店,2019-10-30,愛知県,136.88549041408479,35.168174067398965,1, #スイーツ（その他） #タピオカ
KOBE cafestand Shall we（神戸カフェスタンド・シャルウィ）,2019-10-30,兵庫県,135.19007160675284,34.68964396744644,1, #カフェ
KNOT Tea＆Farm Kitchen,2019-10-29,岡山県,133.88774120578927,34.65266999798394,1, #カフェ #自然食
琥珀-KOHAKU-福島パセナカmisse店,2019-10-28,福島県,140.46444382926384,37.75580899873517,1,　#スイーツ（その他） #タピオカ
101(ワンオーワン)ゆめタウン呉店,2019-10-26,広島県,132.55518681196952,34.242335449579066,1,　#スイーツ（その他） #タピオカ
Trueberry 渋⾕スクランブルスクエア店,2019-10-26,東京都,139.70232915776882,35.65840260821517,1, #カフェ
タピパンダ 小幡店,2019-10-26,愛知県,136.973925106762,35.200213267232854,1, #スイーツ（その他） #タピオカ
sweetolive金木犀茶店,2019-10-26,東京都,139.59819430675986,35.69852906703325,1, #カフェ #中国茶専門店
マザーリーフ ティースタイル テラスモール松戸店,2019-10-26,千葉県,139.93233765829123,35.817940995040686,1, #カフェ
CHEESE MILK FOAMなんばパークス,2019-10-25,大阪府,135.50127281157302,34.661454061477144,1, #スイーツ（その他） #タピオカ
VULCANIZE THE TEA ROOM（ヴァルカナイズ・ザ・ティールーム）,2019-10-25,東京都,139.71261246175163,35.66244903999734,1, #カフェ #カフェ・喫茶（その他） #紅茶専門店
一千花 名古屋栄店,2019-10-25,愛知県,136.90416182926043,35.164459998769864,1, #スイーツ（その他） #タピオカ
辰杏珠（シンアンジュ）イオンモール福岡店,2019-10-24,福岡県,130.47927882925865,33.59632359879579,1, #スイーツ（その他） #タピオカ
DING TEA（ディンティー）大須観音店,2019-10-24,愛知県,136.8999459790657,35.15949075667365,1, #スイーツ（その他） #タピオカ
幸福堂（シンフータン）神戸店,2019-10-24,兵庫県,135.1897207801001,34.6894865795163,1, #スイーツ（その他） #タピオカ #ソフトクリーム
美卯茶(みうてぃー) 岐阜駅前店,2019-10-24,岐阜県,136.75938282926077,35.413910998766106,1, #スイーツ（その他） #タピオカ
幸福堂 神戸店,2019-10-24,兵庫県,135.18919982925988,34.68956799877737,1, #スイーツ（その他） #タピオカ #ソフトクリーム
スイーツパールレディ テラスモール松戸店,2019-10-23,千葉県,139.93233765829123,35.817940995040686,1, #スイーツ（その他） #タピオカ
琥珀-KOHAKU- 前橋南口駅前店,2019-10-21,群馬県,139.0718418292621,36.38214099875233,1, #スイーツ（その他） #タピオカ
K.k milky tea,2019-10-20,東京都,139.7976228292612,35.712557998761696,1, #スイーツ（その他） #タピオカ
ocha room ashita ITOEN,2019-10-19,東京都,139.70232915776882,35.65840260821517,1, #日本茶専門店
CoCo都可 八王子東急スクエア店,2019-10-19,東京都,139.33824672872552,35.657328767824154,1, #スイーツ（その他） #タピオカ
LEMONADE by Lemonica 富山ファボーレ店,2019-10-19,富山県,137.1706138041873,36.66174499729677,1, #ジュースバー
広重TEAマジック ファボーレ富山店,2019-10-19,富山県,137.1706138041873,36.66174499729677,1, #スイーツ（その他） #タピオカ #バームクーヘン
タイガーシュガー（TigerSugar）心斎橋店,2019-10-17,大阪府,135.4985272363648,34.67273192172754,1, #スイーツ（その他） #タピオカ
ゴンチャ(Gong cha) 調布パルコ店,2019-10-17,東京都,139.54136997978355,35.65278928029774,1, #スイーツ（その他） #タピオカ
チーターズ高槻,2019-10-17,大阪府,135.62184055461128,34.84859206964746,1, #スイーツ（その他） #タピオカ #パン・サンドイッチ（その他） #からあげ
THE ALLEY 横浜ハンマーヘッド店,2019-10-16,神奈川県,139.64132202926083,35.45656719876543,1, #スイーツ（その他） #タピオカ
machi machi 阪急梅田店,2019-10-15,大阪府,135.49867198518805,34.702993003757165,1, #カフェ #ジュースバー #ソフトクリーム
台湾甜商店 ファボーレ富山店,2019-10-12,富山県,137.16905321586654,36.662949279977106,1, #スイーツ（その他） #タピオカ
Tapioca&Tea JURAKU（タピオカ＆ティー ジュラク）,2019-10-12,石川県,136.6545890283131,36.571955510496224,1, #スイーツ（その他） #タピオカ
comma tea (コンマティー) 神戸マルイ店,2019-10-11,兵庫県,135.19403390676356,34.69258456744433,1, #スイーツ（その他） #タピオカ #中国茶専門店
metcha matcha(メッチャマッチャ)淀屋橋,2019-10-11,大阪府,135.50075482925996,34.68864299877741,1, #スイーツ（その他） #タピオカ
琥珀-KOHAKU-大須店,2019-10-11,愛知県,136.8994948292605,35.16055999876997,1, #スイーツ（その他） #タピオカ
LUPICIA TEA STAND（ルピシア ティースタンド）,2019-10-10,東京都,139.6685884067605,35.60969186706985,1, #紅茶専門店
TP TEA 博多駅店,2019-10-10,福岡県,130.42036801407076,33.589968768090486,1, #スイーツ（その他） #タピオカ
Milksha Aoyama（ミルクシャ 青山）,2019-10-10,東京都,139.70693582926108,35.66086599876247,1, #スイーツ（その他） #タピオカ #カフェ #中国茶専門店
TeaWay 天神大名店,2019-10-09,福岡県,130.39571840674878,33.588947767937654,1, #スイーツ（その他） #タピオカ
三茶ヤ 泉大津店,2019-10-09,大阪府,135.40585682925976,34.503337998780324,1, #スイーツ（その他） #タピオカ
一茶,2019-10-09,東京都,139.4461728067586,35.54497186709438,1, #そば #うどん
琥珀-KOHAKU- 秋田千秋矢留店,2019-10-08,秋田県,-1.0,-1.0,1, #スイーツ（その他） #タピオカ
THE PEARL（ザ・パール）,2019-10-07,東京都,139.33654882926115,35.65879999876243,1, #スイーツ（その他） #タピオカ
comma tea (コンマティー) みなとみらいコレットマーレ店,2019-10-07,神奈川県,139.63074871827982,35.4523076414321,1, #スイーツ（その他） #タピオカ
この世界観 神戸元町店,2019-10-06,兵庫県,135.185549691672,34.68776661255828,1, #スイーツ（その他） #タピオカ
PANDA TEA（パンダティー）松本店,2019-10-06,長野県,137.96750382926186,36.23124999875436,1, #スイーツ（その他） #タピオカ
Tiktea（ティックティー）中野店,2019-10-06,東京都,139.66526582926122,35.710069998761746,1, #スイーツ（その他） #タピオカ
comma tea (コンマティー) 新宿サブナード店,2019-10-05,東京都,139.70049282924506,35.693610998761955,1, #スイーツ（その他） #タピオカ
琥珀-KOHAKU-函館駅前店,2019-10-04,北海道,140.72374010594837,41.76987717923089,1, #スイーツ（その他） #タピオカ
TIGER SUGAR 新宿店,2019-10-04,東京都,139.70074582926108,35.697946998761914,1, #スイーツ（その他） #タピオカ
ゴンチャ（Gong cha）ららぽーと沼津店,2019-10-03,静岡県,138.83961772871865,35.11834296803343,1, #スイーツ（その他） #タピオカ
琥珀-KOHAKU- 札幌麻生店,2019-10-03,北海道,141.338367815474,43.10748396927081,1, #スイーツ（その他） #タピオカ
THE PEZ STREET FACTORY 仙台店,2019-10-03,宮城県,140.87944637570834,38.25896998230096,1, #スイーツ（その他） #タピオカ
春水堂  ekie広島店,2019-10-01,広島県,132.4759509816671,34.398751806293554,1, #台湾料理 #中華麺（その他） #スイーツ（その他） #タピオカ
FUJICHA 下高井戸店,2019-10-01,東京都,-1.0,-1.0,1, #カフェ #喫茶店 #中国茶専門店
TAPIOKA SHOP LION,2019-09-30,福岡県,130.51305482925824,33.313428998800866,1, #スイーツ（その他） #タピオカ
ジェリカフェ茨大前店,2019-09-30,茨城県,140.4388188292621,36.40034999875206,1, #スイーツ（その他） #タピオカ
琥珀-KOHAKU- 名古屋芸大前店,2019-09-30,愛知県,136.8728008292606,35.2566199987685,1, #スイーツ（その他） #タピオカ
黒工号 神保町店,2019-09-30,東京都,139.75640182926114,35.696078998761934,1, #スイーツ（その他） #タピオカ
台楽茶・下関カモンワーフ店,2019-09-29,山口県,130.94387682924298,33.9564009987895,1, #スイーツ（その他） #タピオカ
羊一茶 香川高松店,2019-09-27,香川県,134.05008964240548,34.34410155968967,1, #スイーツ（その他） #タピオカ
TIGER KNIGHTタイガーナイト 大須店,2019-09-27,愛知県,136.90310382926043,35.15969999876997,1, #スイーツ（その他） #タピオカ
果の茶,2019-09-27,神奈川県,139.4360504443908,35.532663747485174,1, #スイーツ（その他） #タピオカ
生タピオカ専門店タピックス 湖南店,2019-09-27,滋賀県,136.10343082926022,34.99009499877257,1, #スイーツ（その他） #タピオカ
瑪蜜黛（モミトイ）福山神辺店,2019-09-26,広島県,133.36370382925972,34.54172099877974,1, #スイーツ（その他） #タピオカ
南阿蘇TEA HOUSE,2019-09-26,東京都,139.77227282926106,35.687909998762024,1, #紅茶専門店
BLACK SHEEP（ブラックシープ）,2019-09-25,香川県,134.0496008552687,34.341762960721944,1, #スイーツ（その他） #タピオカ
USAGIYA(うさぎや) 札幌パセオ店,2019-09-25,北海道,141.35029315644232,43.0689710497671,1, #日本茶専門店 #カフェ #ケーキ
茶千樹本店,2019-09-25,岡山県,133.88711226925037,34.65294867904314,1, #スイーツ（その他） #タピオカ
徳茶 京都店,2019-09-25,京都府,135.76791195552798,35.0048596364464,1, #スイーツ（その他） #タピオカ
謝謝珍珠（シェイシェイパール）沼津店,2019-09-24,静岡県,138.8589928292603,35.104596998770816,1, #スイーツ（その他） #タピオカ
THE ALLEY ららぽーと甲子園店,2019-09-22,兵庫県,135.36354827179258,34.71747320816174,1, #スイーツ（その他） #タピオカ
THE ALLEY 誠品生活日本橋店,2019-09-22,東京都,139.7703312158468,35.687827680192925,1, #スイーツ（その他） #タピオカ
TIGER SUGAR原宿店,2019-09-21,東京都,139.70571882926114,35.669878998762314,1, #スイーツ（その他） #タピオカ
瑪蜜黛(モミトイ)名取駅前店,2019-09-20,宮城県,140.88366082926441,38.17350199873054,1, #スイーツ（その他） #タピオカ
COMEBUYTEA 表参道店,2019-09-20,東京都,139.71053982926108,35.667541998762324,1, #カフェ
Chatime（チャタイム）津田沼店,2019-09-20,千葉県,140.02131171409889,35.69084796719665,1, #スイーツ（その他） #タピオカ
琥珀-KOHAKU-長野北石堂店,2019-09-20,none,138.18736170676686,36.64672876668309,1, #スイーツ（その他） #タピオカ
徳茶 札幌北24条店,2019-09-19,北海道,141.34216882927132,43.08996899869653,1, #スイーツ（その他） #タピオカ
生タピオカ専門店 姜茶 ジャンティー,2019-09-19,鳥取県,134.22672920675816,35.494956567112986,1, #スイーツ（その他） #タピオカ
ゴンチャ（Gong cha）玉川高島屋S･C店,2019-09-18,東京都,139.62647239078515,35.61328441910488,1, #スイーツ（その他） #タピオカ
謝謝珍珠（シェイシェイパール）明石店,2019-09-18,兵庫県,-1.0,-1.0,1, #スイーツ（その他） #タピオカ
仙台タピオカ店- black moon –,2019-09-17,宮城県,140.8863803116214,38.256332182720215,1, #スイーツ（その他） #タピオカ
新東京紅茶 伊那店,2019-09-16,長野県,137.9589271516361,35.839219589157146,1, #スイーツ（その他） #タピオカ
南阿蘇TEA HOUSE SAKURA MACHI Kumamoto店,2019-09-15,熊本県,130.70308782924158,32.80052689881029,1, #紅茶専門店
辰杏珠 熊本桜町店,2019-09-15,熊本県,130.70308782924158,32.80052689881029,1, #スイーツ（その他） #タピオカ
700cc 吉祥寺店,2019-09-15,東京都,139.57598282926108,35.70195299876188,1, #スイーツ（その他） #タピオカ #ジュースバー #中国茶専門店
一期一笑 九段下店,2019-09-13,東京都,139.74923382926116,35.69821199876189,1, #スイーツ（その他） #タピオカ
タピキング イオン藤井寺ショッピングセンター店,2019-09-13,大阪府,135.59292351408408,34.573949267650484,1, #スイーツ（その他） #タピオカ
ゴンチャ（Gong cha）あべのHoop店,2019-09-12,大阪府,135.5133967181552,34.64513942557732,1, #スイーツ（その他） #タピオカ
台湾甜商店 ピオレ明石店,2019-09-12,兵庫県,134.99204185581536,34.6489925764871,1, #スイーツ（その他）
瑪蜜黛（モミトイ）CAFÉ 浦和パルコ店,2019-09-12,埼玉県,139.65672761585023,35.85846678015347,1, #スイーツ（その他） #タピオカ
sanchaya3 三茶ヤ池袋店,2019-09-11,東京都,139.7090038292612,35.731868998761406,1, #スイーツ（その他） #タピオカ
琥珀-KOHAKU-関西大学前店,2019-09-10,大阪府,135.5077116302035,34.77356310301055,1, #スイーツ（その他） #タピオカ
茶咖匠 ( チャカショウ ) 目白店,2019-09-09,東京都,139.70295982926118,35.72254399876152,1, #スイーツ（その他） #タピオカ
友茶 （YOUCHA）,2019-09-09,大阪府,135.5508968349967,34.724076829716914,1, #スイーツ（その他） #タピオカ
ノマセジョーズ,2019-09-07,東京都,139.65234500676235,35.73799076702692,1, #ジュースバー #中国茶専門店 #タピオカ
Hikari’s Favorite,2019-09-06,東京都,139.72944510676268,35.62554686705861,1, #スイーツ（その他） #タピオカ
tapiauto アッシュ店,2019-09-06,北海道,142.3579178292722,43.76594099869486,1, #スイーツ（その他） #タピオカ
琥珀-KOHAKU- 藤井寺駅前店,2019-09-06,大阪府,135.59555512925976,34.57141809877922,1, #スイーツ（その他） #タピオカ
台湾甜商店 東京スカイツリータウン・ソラマチ店,2019-09-05,東京都,139.81099594190914,35.71035291376413,1, #スイーツ（その他） #タピオカ
新時沏（シンジキ）名古屋大須店,2019-09-05,愛知県,136.90088582926043,35.158845998769934,1, #スイーツ（その他） #タピオカ
TAPICARO(タピカロ)渋谷店,2019-09-05,東京都,139.70065582926114,35.6622319987624,1, #スイーツ（その他） #タピオカ
TAPICARO(タピカロ)中目黒本店,2019-09-05,東京都,139.69890282926102,35.645812998762665,1, #スイーツ（その他） #タピオカ
タリーズコーヒー＆TEA ルミネ有楽町店,2019-09-05,東京都,139.76245731408753,35.673618067201645,1, #カフェ
御黒堂 (ごこくどう) 草加店,2019-09-05,埼玉県,139.80386137899185,35.82775877352591,1, #スイーツ（その他） #タピオカ
タピオカ専門店 黒珍珠 国分寺マルイ店,2019-09-04,東京都,139.48095396132635,35.69993585851554,1, #スイーツ（その他） #タピオカ #ジュースバー #タピオカ
麗茶亭マルイファミリー海老名店,2019-09-02,神奈川県,139.39350756408695,35.45271766728438,1, #スイーツ（その他） #タピオカ
MAX SEE（マックスシー）タピオカミルクティー 表参道店,2019-09-01,東京都,139.70868541409322,35.66270366720014,1, #スイーツ（その他） #タピオカ
新東京紅茶 旭川,2019-09-01,北海道,142.3568728292722,43.767902998694886,1, #スイーツ（その他） #タピオカ #紅茶専門店 #クレープ
Boba rich ボバリッチ,2019-08-31,福岡県,130.3929998292586,33.585923998795955,1, #スイーツ（その他） #タピオカ
VOLO Coffee＆Tea,2019-08-31,東京都,139.7742338292611,35.71228999876165,1, #カフェ
comma TOGO(コンマトゥーゴー)向ヶ丘遊園店,2019-08-30,神奈川県,139.56395310676774,35.616787467067994,1, #スイーツ（その他） #タピオカ
新 東京紅茶 銀座店,2019-08-30,東京都,139.7592978292611,35.67036099876233,1, #紅茶専門店 #スイーツ（その他） #タピオカ
101ならファミリー店,2019-08-29,奈良県,135.78288561582727,34.69510458043592,1, #スイーツ（その他） #タピオカ
HEEK TEA 梅田,2019-08-29,大阪府,135.50108481408608,34.70221666759541,1, #スイーツ（その他） #タピオカ
龍珍珠（ロンチンジュ）梅田,2019-08-29,大阪府,135.49743692872002,34.70645846820367,1, #スイーツ（その他） #タピオカ
羊一茶（よういっちゃ）三宮店,2019-08-28,兵庫県,135.18901101582713,34.69114768043701,1, #スイーツ（その他） #タピオカ
BOBO TEA 京都店,2019-08-28,京都府,135.76810661408473,35.01081076746966,1, #スイーツ（その他） #タピオカ
panda sugar熊猫堂 北千住店,2019-08-24,東京都,139.80265682926114,35.75008299876115,1, #スイーツ（その他） #タピオカ
謝謝珍珠（シェイシェイパール）札幌店,2019-08-23,北海道,141.35240670681856,43.057453965296965,1, #スイーツ（その他） #タピオカ
利客坊 Rick Farm 赤羽店,2019-08-23,東京都,139.72030350676593,35.779387967009235,1, #スイーツ（その他） #タピオカ
Tik Tea（ティックティー）姫路店,2019-08-22,兵庫県,134.69115410675258,34.828469967388,1, #スイーツ（その他） #タピオカ
ご当地タピオカ なら丸。,2019-08-22,奈良県,135.82901380675492,34.679197967454236,1, #スイーツ（その他） #タピオカ
琥珀-KOHAKU- 会津若松店,2019-08-22,福島県,139.92845545460608,37.49736431731889,1, #スイーツ（その他） #タピオカ
琥珀-KOHAKU- 九産大駅前店﻿,2019-08-22,福岡県,130.44107082925868,33.67344799879443,1, #スイーツ（その他） #タピオカ
琥珀-KOHAKU- 札幌ドーム前店,2019-08-22,北海道,141.40736782927118,43.0172419986968,1, #スイーツ（その他） #タピオカ
EMMA 小山駅前店,2019-08-22,栃木県,139.80336982926198,36.31392499875328,1, #スイーツ（その他） #タピオカ
THE ALLEY 渋谷道玄坂店,2019-08-21,東京都,139.69544982926107,35.65698899876251,1, #紅茶専門店 #カフェ #スイーツ（その他） #タピオカ
藤本舗 水道橋店,2019-08-20,東京都,139.7518858292612,35.70157999876186,1, #スイーツ（その他） #タピオカ
生タピオカ専門店 タピックス 北野白梅町店,2019-08-18,京都府,135.7309130140863,35.02771406746547,1, #スイーツ（その他） #タピオカ
宣喜茶(センキチャ)岡山店,2019-08-18,岡山県,133.91938980675502,34.681946367451864,1, #スイーツ（その他） #タピオカ #カフェ
瑪蜜黛 (モミトイ) 蒲田店,2019-08-18,東京都,139.71447982926097,35.56341499876388,1, #スイーツ（その他） #タピオカ
瑪蜜黛（モミトイ） 沼津店,2019-08-18,静岡県,138.85824082926044,35.10750599877077,1, #スイーツ（その他） #タピオカ
瑪蜜黛（モミトイ） 代々木八幡店,2019-08-18,東京都,139.68870982926114,35.668909998762324,1, #スイーツ（その他） #タピオカ
一芳 吉祥寺店,2019-08-18,東京都,139.57871082926115,35.70347299876183,1, #ラーメン
101(ワンオーワン) 高知潮江店,2019-08-17,高知県,133.5522028292585,33.551862998796594,1, #スイーツ（その他） #タピオカ
101(ワンオーワン) ならファミリー店,2019-08-17,奈良県,135.7845271287094,34.69510456821153,1, #スイーツ（その他） #タピオカ
琥珀タピオカ熊本下通店,2019-08-16,熊本県,130.70659782925765,32.797648998810374,1, #スイーツ（その他） #タピオカ
東季17 TOKI SEVEN TEA 広尾店,2019-08-16,東京都,139.71934071525794,35.6505994802014,1, #スイーツ（その他） #タピオカ
東季17 TOKI SEVEN TEA 経堂店,2019-08-16,東京都,-1.0,-1.0,1, #スイーツ（その他） #タピオカ
一茶 ONE TEA（ワンティー）我孫子店,2019-08-15,千葉県,140.0120024067504,35.873110830820174,1, #タピオカ
黒花堂&ありらんホットドッグ 梅田茶屋町店,2019-08-14,大阪府,135.4991722846932,34.70739828017705,1, #スイーツ（その他） #タピオカ #パン・サンドイッチ（その他）
peca 大阪千日前店,2019-08-12,大阪府,135.50074082925994,34.6673469987777,1, #スイーツ（その他） #タピオカ
この世界観 万博記念公園店,2019-08-10,大阪府,135.53116080418232,34.80559499735488,1, #スイーツ（その他） #タピオカ
台楽茶・毛呂本郷店,2019-08-10,埼玉県,139.30731582926148,35.938913998758444,1, #カフェ #喫茶店 #中国茶専門店
四季茶（しきちゃ）,2019-08-09,東京都,139.7282637545062,35.58599966728751,1, #スイーツ（その他） #タピオカ
台湾黒糖タピオカ羊一茶(よういっちゃ)長崎浜町店,2019-08-09,長崎県,129.87965782925764,32.743744998811415,1, #スイーツ（その他） #タピオカ
生タピオカ専門店 モッチャム 梅田店,2019-08-09,大阪府,135.49829182925995,34.707301998777034,1, #スイーツ（その他） #タピオカ
DING TEA（ディンティー）元町店,2019-08-09,兵庫県,135.18772150675588,34.68845626744395,1, #スイーツ（その他） #タピオカ
ゴンチャ（Gong cha）所沢店,2019-08-08,埼玉県,139.4734558292613,35.7865869987606,1, #スイーツ（その他） #タピオカ
flor flor (フロル フロル) 滋賀草津DE愛ひろば前店,2019-08-07,滋賀県,135.96010082926034,35.01938799877213,1, #タピオカ #ジュースバー
恋茶 蒲田店,2019-08-07,東京都,139.71482901408882,35.56394676724084,1, #スイーツ（その他） #タピオカ
マカオインペリアルティー 表参道店,2019-08-06,東京都,139.70914282926108,35.66296599876243,1, #スイーツ（その他） #タピオカ
LEMONADE by Lemonica マルイシティ横浜店,2019-08-05,神奈川県,139.62423831409416,35.464735767281525,1, #ジュースバー
LEMONADE by Lemonicaモラージュ柏店,2019-08-05,千葉県,139.96710471585092,35.882378280147954,1, #ジュースバー
担々麺一路發（イロハ）/黑熊堂（クロクマドウ）,2019-08-04,福岡県,130.4194271754107,33.59017106548237,1,Unfound
FORTUNER tea-box さいたま新都心店,2019-08-03,埼玉県,139.63510601409547,35.896554667117954,1, #スイーツ（その他） #タピオカ
台楽茶・鹿児島店,2019-08-03,鹿児島県,130.54715582925624,31.572217998834557,1, #スイーツ（その他）
手ごね生タピオカ専門店THREE FOUR FIVE,2019-08-02,福岡県,130.37834570675412,33.590447567939485,1, #スイーツ（その他） #タピオカ
ALFRED TEA ROOM 名古屋セントラルタワーズ店,2019-08-02,愛知県,136.88224507871746,35.1708388180159,1, #カフェ #紅茶専門店 #スイーツ（その他） #タピオカ
謝謝珍珠 シェイシェイパール 福岡天神店,2019-07-31,福岡県,130.39498082925854,33.59175599879591,1, #スイーツ（その他） #タピオカ
瑪蜜黛（モミトイ）藤沢店,2019-07-31,神奈川県,139.48731739752807,35.338718277949795,1,  #スイーツ（その他） #タピオカ
JiMO並木坂店,2019-07-31,熊本県,130.71098082925764,32.80704199881017,1, #スイーツ（その他） #タピオカ
瑪蜜黛（モミトイ）天満屋岡山店,2019-07-30,岡山県,133.9278759292599,34.661481198777786,1, #スイーツ（その他） #タピオカ
TEA18 そごう広島店,2019-07-29,広島県,132.45503761582142,34.39708338051339,1, #スイーツ（その他） #タピオカ
茶咖匠 ( チャカショウ ) 巣鴨店,2019-07-29,東京都,139.7365245067563,35.734535267020824,1, #スイーツ（その他） #タピオカ
machi machi JR京都駅店,2019-07-27,京都府,135.757367449189,34.9861325795786,1, #カフェ #ジュースバー #紅茶専門店
Suuta Chai （スータ チャイ）,2019-07-27,群馬県,139.00768382926202,36.32452399875307,1, #スイーツ（その他）
瑪蜜黛（モミトイ）大口駅前店,2019-07-26,神奈川県,139.64446882926094,35.491143998764954,1, #スイーツ（その他） #タピオカ
瑪蜜黛（モミトイ）神戸三宮中央通り店,2019-07-25,兵庫県,135.19386682925992,34.69134199877731,1, #スイーツ（その他） #タピオカ
SAHANJI,2019-07-25,福島県,140.91683522030382,37.012996614976046,1, #スイーツ（その他） #タピオカ
東季17（トキセブンティー）中野11号店,2019-07-25,東京都,139.66509592926116,35.706757198761785,1, #スイーツ（その他） #タピオカ
FORTUNER tea-box 仙台 FORUS店,2019-07-25,宮城県,140.87178931411273,38.26214256633485,1, #スイーツ（その他） #タピオカ
TAPIOKA Labo,2019-07-25,岡山県,133.92134086408578,34.677545467603544,1, #スイーツ（その他） #タピオカ
台茶専売 曉茶（しゃおちゃ）,2019-07-25,愛知県,136.84523955911266,35.050155464873136,1, #スイーツ（その他） #タピオカ
みるくsan 麻生店,2019-07-25,北海道,141.33793682927117,43.107242998696506,1, #カフェ #パン #ソフトクリーム
THE ALLEY 神戸ハーバーランドumie店,2019-07-24,兵庫県,135.181854436656,34.67916395469883,1, #スイーツ（その他） #タピオカ
台楽茶・広島本通り店,2019-07-24,広島県,132.46098882925958,34.392916998782184,1, #スイーツ（その他） #タピオカ
和茶タピオカトリプル 釧路ふく亭 櫂梯楼 芦野店,2019-07-23,北海道,144.39565682927102,43.01070199869679,1, #スイーツ（その他） #タピオカ
台湾甜商店 横浜みなとみらい店,2019-07-20,神奈川県,139.6329107287219,35.45675416789957,1, #スイーツ（その他） #タピオカ
CoCo都可 心斎橋店,2019-07-20,大阪府,135.5009730067606,34.67046976745754,1, #スイーツ（その他） #タピオカ
タピオカ専門店 hina tea（ヒナティー）,2019-07-19,京都府,135.76832690676014,35.030212367305175,1, #スイーツ（その他） #タピオカ
MOS PREMIUM / マザーリーフティースタイル桜木町クロスゲート店,2019-07-18,神奈川県,139.63226381409456,35.45084506728418,1, #カフェ
黒糖兄弟 町田店,2019-07-18,東京都,-1.0,-1.0,1, #スイーツ（その他） #タピオカ
ゴンチャ（Gong cha）原宿表参道2nd店,2019-07-18,東京都,139.70513630676493,35.66727596704215,1, #スイーツ（その他） #タピオカ
東季17（トキセブンティー）江古田店,2019-07-18,東京都,139.67367700676635,35.73782416701353,1, #スイーツ（その他） #タピオカ
綿茶（めんちゃ）田町店,2019-07-17,東京都,139.7467340456695,35.64750228574359,1, #スイーツ（その他） #タピオカ
千禧茶 池袋店,2019-07-17,東京都,139.71124382926126,35.73343599876141,1, #スイーツ（その他） #タピオカ
タピチ ティースタンド 心斎橋オーパきれい館店,2019-07-17,大阪府,135.4990985067558,34.673299467451656,1, #スイーツ（その他） #タピオカ
タピチ ティースタンド イオンモール津南店,2019-07-17,三重県,136.51572801582662,34.67100358044218,1, #スイーツ（その他） #タピオカ
答案 ANSWER TEA（アンサーティー） 新宿髙島屋店,2019-07-16,東京都,139.70144295788936,35.685939970288246,1, #スイーツ（その他） #タピオカ
瑪蜜黛（モミトイ）国立店,2019-07-15,東京都,139.44589482926122,35.69793099876188,1, #スイーツ（その他） #タピオカ
山林艸木（サンリンソウキ）,2019-07-14,大阪府,135.49826161408274,34.701209367592966,1, #カフェ #ちゃんぽん #台湾料理
THE ALLEY ルミネ大宮店,2019-07-13,埼玉県,139.6225069158513,35.90722928014221,1, #スイーツ（その他） #タピオカ
THE ALLEY ルミネ町田店,2019-07-13,東京都,139.44582331408677,35.54203336725557,1, #スイーツ（その他） #タピオカ
TP TEA(ティーピーティー)六本木ヒルズ店,2019-07-12,東京都,139.72704471584638,35.660447980199116,1, #スイーツ（その他） #タピオカ
タピチ ティースタンド 梅田HEP FIVE店,2019-07-11,大阪府,135.50014581408644,34.704091267596944,1, #スイーツ（その他） #タピオカ
生タピオカ専門店Cha meee,2019-07-11,大阪府,135.44503559053192,34.808410378613175,1, #スイーツ（その他） #タピオカ
THE DRINK BOX.中崎町,2019-07-11,大阪府,135.5041135295362,34.70677115855875,1, #スイーツ（その他） #タピオカ
タピオカ専門店 37.2℃ ～恋に落ちた時の温度～,2019-07-11,福岡県,130.88849161407612,33.883505067961714,1, #スイーツ（その他） #タピオカ
茶 MARUKI 春日部店,2019-07-10,埼玉県,139.75308061409362,35.97637476707869,1,Unfound
タピオカカフェ ココナ 南1条店,2019-07-10,北海道,141.35036782927114,43.05830999869664,1, #スイーツ（その他） #タピオカ
タピオカドリンク専門店 ORO（オロ）明石店,2019-07-10,兵庫県,134.93728082924386,34.68111699877752,1, #スイーツ（その他） #タピオカ
MAX SEE(マックスシー) 下北沢店,2019-07-10,東京都,139.66798482926114,35.663203998762434,1, #スイーツ（その他） #タピオカ
MAX SEE(マックスシー)  橋本イオン店,2019-07-10,神奈川県,139.34262061584508,35.59615058021429,1, #スイーツ（その他） #タピオカ
日常茶間 神戸南京町店,2019-07-10,兵庫県,135.1889288292599,34.68841399877733,1, #スイーツ（その他） #中国茶専門店 #ジュースバー
CHAVATY kyoto arashiyama,2019-07-10,京都府,135.67811130832442,35.011437794934075,1, #カフェ
瑪蜜黛（モミトイ） ウイングキッチン京急川崎店,2019-07-09,神奈川県,139.70025182926094,35.532298998764354,1, #スイーツ（その他） #タピオカ
Tapio-cha（タピオチャ）横浜中華街本店,2019-07-09,none,139.64749182926087,35.442533998765676,1, #スイーツ（その他） #タピオカ
瑪蜜黛（モミトイ）イオンモール盛岡店,2019-07-08,岩手県,141.0974550181109,39.71111031562785,1, #スイーツ（その他） #タピオカ
愿茶 MOGE TEE（モグティ）,2019-07-08,愛知県,136.89975120946505,35.15897000039518,1, #スイーツ（その他） #タピオカ
茶千歳 蒲田店,2019-07-08,東京都,139.7153138292609,35.56339199876386,1, #スイーツ（その他） #タピオカ
辰杏珠（シンアンジュ）渋谷店,2019-07-07,東京都,139.69728382926112,35.66172699876243,1, #スイーツ（その他） #タピオカ
瑪蜜黛（モミトイ）渋谷井の頭通り店,2019-07-07,東京都,139.69756182926116,35.66134699876243,1, #スイーツ（その他） #タピオカ
琥珀-kohaku-郡山西口店,2019-07-07,福島県,140.3865300292633,37.398526298739355,1, #スイーツ（その他） #タピオカ
Colon茶 三ノ宮店,2019-07-06,兵庫県,135.19021990675225,34.691328367444946,1, #紅茶専門店 #スイーツ（その他） #タピオカ
生タピオカ専門店 Peek a boo,2019-07-05,大阪府,135.62233882926012,34.84930299877479,1, #スイーツ（その他） #タピオカ
ゴンチャ(Gong cha) 浦添PARCO CITY店,2019-07-05,沖縄県,127.69794106642964,26.262191549410343,1, #スイーツ（その他） #タピオカ
藤本舗 浅草店,2019-07-04,東京都,139.7938418292612,35.71178799876172,1, #スイーツ（その他） #タピオカ
ゴンチャ(Gong cha) 紙屋町シャレオ店,2019-07-04,広島県,132.45704882925958,34.39533599878216,1, #スイーツ（その他） #タピオカ
タピオカカフェ Cottonコットン 三軒茶屋店,2019-07-04,東京都,139.66986482926114,35.641022998762736,1, #スイーツ（その他） #タピオカ
台湾タピオカ専門店 PEARL DOGS,2019-07-04,福井県,136.22061782926156,36.06087199875672,1, #スイーツ（その他） #タピオカ
MeetFresh 鮮芋仙 浦和パルコ店,2019-07-03,埼玉県,139.65672761585023,35.85846678015347,1, #かき氷 #甘味処
comma tea (コンマティー) 阪急梅田駅前店,2019-07-02,大阪府,135.49614791582738,34.70537178043324,1, #スイーツ（その他） #タピオカ #カフェ
台湾甜商店 西神プレンティ店,2019-07-02,兵庫県,135.01789882924382,34.71898299877689,1, #スイーツ（その他） #タピオカ #台湾料理
台湾甜商店 なんばウォーク店,2019-07-02,大阪府,135.49944282925986,34.667109998777704,1, #スイーツ（その他） #タピオカ #ジュースバー
象茶塘ZOOS TAPIOCA（シャンチャータン ズーズタピオカ）富山駅前店,2019-07-02,富山県,137.21337482926242,36.699105998748095,1, #スイーツ（その他） #タピオカ
Tea Land,2019-07-02,東京都,139.66813311525786,35.64603298020245,1, #スイーツ（その他） #タピオカ
春水堂（チュンスイタン） 銀座店,2019-07-01,東京都,139.76486140676258,35.67089626704968,1, #スイーツ（その他） #台湾料理
騒豆花（サオドウファ）横浜ポルタ店,2019-06-29,神奈川県,139.62246538533577,35.465209294456514,1, #カフェ #かき氷 #台湾料理
生タピオカ専門店 モッチャム 天神店,2019-06-29,福岡県,130.39913902870234,33.59071446869051,1, #スイーツ（その他） #タピオカ
瑪蜜黛（モミトイ）富士急ハイランド店,2019-06-27,山梨県,138.77972931392608,35.48727348959815,1, #スイーツ（その他） #タピオカ
四葉茶坊 大泉学園店,2019-06-27,東京都,139.58629900676408,35.74886146701231,1, #スイーツ（その他） #タピオカ
瑪蜜黛（モミトイ）香林坊東急スクエア店,2019-06-27,石川県,136.65289861410022,36.56238966687786,1, #スイーツ（その他） #タピオカ
WHO’S TEAイオンモール成田店,2019-06-27,千葉県,140.31703811584921,35.79529608016783,1, #スイーツ（その他） #タピオカ
タピオカドリンク専門店 TeaWay(ティーウェイ) 天神岩田屋店,2019-06-26,福岡県,130.3968055140745,33.588682568088416,1, #スイーツ（その他） #タピオカ
タリーズコーヒー &TEA 浦添西海岸パルコシティ店,2019-06-25,沖縄県,127.69794106642964,26.262191549410343,1, #カフェ #コーヒー専門店
machi machi（マチマチ）ラフォーレ原宿店,2019-06-25,東京都,139.70512491408743,35.66914906719776,1, #カフェ #ジュースバー #ソフトクリーム
宣喜茶（センキチャ）明大前店,2019-06-23,東京都,139.64945990675685,35.66887366704953,1, #スイーツ（その他） #タピオカ
d:matcha Kyoto CAFE & KITCHEN 出町柳店,2019-06-21,京都府,135.76897782926036,35.030987998771984,1, #日本茶専門店 #洋菓子（その他）
ゴンチャ(Gong cha) 心斎橋BIGSTEP店,2019-06-20,大阪府,135.49846781408442,34.67246586761214,1, #スイーツ（その他） #タピオカ #中国茶専門店
和三盆タピオカ店 万福茶吉,2019-06-19,東京都,139.7697258292611,35.666581998762354,1, #スイーツ（その他） #タピオカ
烏煎道黒龍茶 国立店,2019-06-19,東京都,139.44420682926116,35.697844998761894,1, #スイーツ（その他） #タピオカ #中国茶専門店
ROAR BROTHERS（ロアー ブラザーズ）SHIBUYA109店,2019-06-15,東京都,139.69856900675842,35.659609567048726,1, #スイーツ（その他）
Chatime（チャタイム） SHIBUYA 109店,2019-06-15,東京都,139.69856900675842,35.659609567048726,1, #スイーツ（その他） #タピオカ
丸作,2019-06-15,神奈川県,139.64453717301106,35.442843629992794,1, #スイーツ（その他） #タピオカ
吉祥寺タピオカドリンク専門店 Cocolait（ココライト）,2019-06-15,東京都,139.57750482926116,35.70329099876185,1, #スイーツ（その他） #タピオカ
和茶タピオカ専門店トリプル,2019-06-14,北海道,141.43356782927108,43.02656199869672,1, #スイーツ（その他） #タピオカ
珍煮丹 ( ジェンジュダン ) マグネット渋谷109店,2019-06-13,東京都,139.70067781408707,35.65987286720251,1, #スイーツ（その他） #タピオカ
日本茶専門店 一千花(いちか),2019-06-09,東京都,139.70314302813227,35.67115006781875,1, #スイーツ（その他） #日本茶専門店
タピパンダ浦和店,2019-06-07,埼玉県,139.65342582926132,35.85835299875959,1, #スイーツ（その他） #タピオカ
ゴンチャ(Gong cha) 栄オアシス21店,2019-06-06,愛知県,136.9089693287245,35.171116868010536,1, #スイーツ（その他） #タピオカ
ALFRED TEA ROOM 原宿店,2019-06-05,東京都,139.70732382926113,35.669207998762296,1, #カフェ
Flavor-Green（フレーバーグリーン）,2019-06-05,山形県,140.3501659067901,38.23863836618474,1, #日本茶専門店
ココマンナ津田沼店,2019-06-04,千葉県,140.02145828890693,35.691834973764294,1, #スイーツ（その他） #クレープ #カフェ・喫茶（その他）
BullPulu(ブルプル)  春日部店,2019-06-04,埼玉県,139.75066982926148,35.97958699875785,1, #スイーツ（その他） #タピオカ
TP TEA（ティーピーティー）阪急三番街店,2019-06-03,大阪府,135.49782152872223,34.70520336820695,1, #スイーツ（その他） #タピオカ
瑪蜜黛（モミトイ）京都河原町店,2019-06-02,京都府,135.7677854292603,35.00470829877235,1, #スイーツ（その他） #タピオカ
IN CHA 印茶 自由が丘店,2019-06-02,東京都,139.66813800676078,35.609920467068775,1, #スイーツ（その他） #タピオカ
台湾甜商店 表参道店,2019-06-01,東京都,139.70515162926114,35.667946498762326,1, #スイーツ（その他） #タピオカ
茶咖匠 ( チャカショウ ) 茗荷谷店,2019-05-31,東京都,139.73370052926114,35.71964789876161,1, #中国茶専門店 #カフェ
デザイン ウィズ ティーサロン 大分オーパ店,2019-05-31,大分県,131.6065998140708,33.2359920682668,1, #その他
たぴヤ成増店,2019-05-30,東京都,139.63129880677,35.77765276700483,1, #スイーツ（その他） #タピオカ
生タピオカ専門店SILK 新潟駅南店,2019-05-29,新潟県,139.06358582926399,37.91175599873346,1, #スイーツ（その他） #タピオカ
TAPISTA(タピスタ)立川店,2019-05-28,東京都,139.41360382926115,35.69968799876185,1, #スイーツ（その他） #タピオカ
ゴンチャ(Gong cha) 成⽥空港第1ターミナル店,2019-05-23,千葉県,140.38360277897834,35.76403884558451,1, #スイーツ（その他） #タピオカ #ジュースバー #中国茶専門店
LEMONADE by Lemonica 松坂屋名古屋店,2019-05-18,愛知県,136.90572731583626,35.164482280318154,1, #ジュースバー
ゴンチャ(Gong cha) 名古屋松坂屋店,2019-05-18,愛知県,136.90747138914412,35.165262125809576,1, #スイーツ（その他） #タピオカ
CoCo都可（ココトカ） 梅田店,2019-05-17,大阪府,135.49990412925993,34.703676598777136,1, #ジュースバー #スイーツ（その他） #タピオカ
TEA PUBLIC 三宮店,2019-05-17,兵庫県,135.19092611408192,34.69114766759811,1, #スイーツ（その他） #タピオカ
台湾甜商店 大分オーパ店,2019-05-16,大分県,131.6065998140708,33.2359920682668,1, #スイーツ（その他） #タピオカ #カフェ
ゴンチャ(Gong cha) セレオ八王子店,2019-05-16,東京都,139.3388511140897,35.65606896720314,1, #スイーツ（その他） #タピオカ #中国茶専門店 #ジュースバー
TEASIGN TAPIOCA & TEA BAR 札幌PARCO店,2019-05-16,北海道,141.35261102927117,43.05874329869667,1, #カフェ
スイーツパールレディ ジョイフル本田千葉ニュータウン店,2019-05-14,千葉県,140.1567958662753,35.807007047497834,1, #クレープ #ジュースバー #スイーツ（その他） #タピオカ
comma TOGO 静岡パルコ店,2019-05-10,静岡県,138.3852425929083,34.97273336392869,1, #スイーツ（その他） #タピオカ
ゴンチャ(Gong cha) セレオ八王子店,2019-05-09,東京都,139.33857752872092,35.65606896782304,1, #スイーツ（その他） #タピオカ #中国茶専門店 #ジュースバー
ゴンチャ(Gong cha) コピス吉祥寺店,2019-05-09,東京都,139.57910092872766,35.70508816780984,1, #スイーツ（その他） #タピオカ
THE ALLEY 名古屋タカシマヤゲートタワーモール店,2019-05-08,愛知県,136.88061697984577,35.17206516543047,1, #スイーツ（その他） #タピオカ
TAPICI TEA STAND,2019-05-01,大阪府,135.50337151408752,34.66274046761026,1, #スイーツ（その他） #タピオカ #カフェ・喫茶（その他）
panda sugar 熊猫堂 三軒茶屋店,2019-04-30,東京都,139.6712288067659,35.643137267051976,1, #スイーツ（その他） #タピオカ
chu tapi（チュータピ）三鷹店,2019-04-30,東京都,139.5610635067587,35.70178856703684,1, #スイーツ（その他） #タピオカ
吉龍糖（JI LONG TANG/ジロンタン）,2019-04-29,東京都,139.71158870676734,35.647189667053794,1, #スイーツ（その他） #タピオカ
台楽茶・池袋東口店,2019-04-28,東京都,139.71467482926116,35.73117199876144,1, #スイーツ（その他） #タピオカ
茶BAR 川崎ルフロン店,2019-04-26,神奈川県,139.6945270158437,35.529469480229885,1, #カフェ #カフェ・喫茶（その他）
CHA NUNG（チャノン）表参道店,2019-04-26,東京都,139.62482181408788,35.46542486727692,1, #スイーツ（その他） #タピオカ #その他
KOI Thé イオンモール沖縄ライカム店,2019-04-25,沖縄県,127.79398527977234,26.31427328347032,1, #スイーツ（その他） #タピオカ
ゴンチャ(Gong cha) 沖映通り店,2019-04-25,沖縄県,127.68798244793871,26.216717244924325,1, #スイーツ（その他） #タピオカ #カフェ
CoCo都可 ピアザ神戸店,2019-04-23,兵庫県,135.19153840675486,34.69217816744307,1, #スイーツ（その他） #タピオカ
THE ALLEY 四条店,2019-04-20,京都府,135.76063182926038,35.004853998772354,1, #カフェ #スイーツ（その他） #タピオカ
台湾甜商店 神戸三宮さんちか店,2019-04-20,兵庫県,135.19402082925987,34.69247599877726,1, #スイーツ（その他） #タピオカ #ジュースバー #中華菓子
comma tea (コンマティー) 丸井吉祥寺店,2019-04-20,東京都,139.57899971409225,35.70199516718888,1, #紅茶専門店 #ジュースバー #スイーツ（その他） #タピオカ
Tapista（タピスタ）代官山店,2019-04-19,東京都,139.70149861525792,35.64818398020193,1, #スイーツ（その他） #タピオカ
徳茶 TOKUCHA,2019-04-19,大阪府,-1.0,-1.0,1, #サンドイッチ #パン・サンドイッチ（その他） #スイーツ（その他） #タピオカ
CHAYAM(チャヤム) 新大久保本店,2019-04-18,東京都,139.69933520676938,35.701654467031005,1, #スイーツ（その他） #タピオカ
TEA18 そごう横浜店,2019-04-15,神奈川県,139.6229067158423,35.46542488024517,1, #スイーツ（その他） #タピオカ
teaven -ティーブン-,2019-04-14,神奈川県,139.55103682926068,35.31899599876751,1, #スイーツ（その他） #タピオカ
ゴンチャ(Gong cha) 松戸店,2019-04-12,千葉県,139.8981447287226,35.78227236777478,1, #スイーツ（その他） #タピオカ #カフェ #中国茶専門店
烏煎道黒龍茶 千歳烏山店,2019-04-11,東京都,139.60140502926114,35.66790639876233,1, #スイーツ（その他） #タピオカ
Tapista（タピスタ）下高井戸店,2019-04-09,東京都,139.63988182926107,35.665903998762396,1, #スイーツ（その他） #タピオカ
THE ALLEY 錦糸町テルミナ2店,2019-04-06,東京都,139.81197466120457,35.69728399604404,1, #スイーツ（その他） #タピオカ
茶咖匠（チャカショウ）飯田橋店,2019-04-04,東京都,139.74675982926112,35.699864998761896,1, #スイーツ（その他） #タピオカ
BowRabit,2019-04-03,東京都,139.70099882926124,35.713189998761685,1, #スイーツ（その他） #タピオカ
BullPulu(ブルプル)  神戸umie店,2019-04-02,兵庫県,135.18186882924377,34.67950099877751,1, #スイーツ（その他） #タピオカ
台楽茶・大阪堺東店,2019-04-01,大阪府,135.48330482925977,34.5748729987792,1, #スイーツ（その他） #タピオカ
ゴンチャ Gong cha 福岡⼤名店,2019-03-28,福岡県,130.3947588292586,33.58766899879596,1, #スイーツ（その他） #タピオカ
茶寮 FUKUCHA,2019-03-26,京都府,135.75813312872364,34.98591571809217,1, #カフェ #日本茶専門店
THE ALLEY 青山店,2019-03-26,東京都,139.70709992926115,35.66150889876247,1, #カフェ #スイーツ（その他） #タピオカ
茶BAR 横浜マルイ店,2019-03-26,神奈川県,139.62443151409198,35.46443416728019,1, #スイーツ（その他） #タピオカ #紅茶専門店
チーズティー専門店 この世界観,2019-03-24,大阪府,135.50293382925992,34.664164998777736,1, #ラーメン #つけ麺 #中華料理
台湾甜商店 天保山マーケットプレース店,2019-03-24,大阪府,135.42800761582646,34.65583388044602,1, #カフェ
台湾甜商店モラージュ柏店,2019-03-24,千葉県,139.96710471585092,35.882378280147954,1, #カフェ・喫茶（その他） #スイーツ（その他） #タピオカ
騒豆花（サオドウファ）モザイク通り店,2019-03-23,東京都,139.69770861584695,35.68927798019249,1, #スイーツ（その他） #タピオカ
タピオカカフェ DING TEA 心斎橋店,2019-03-23,大阪府,135.50257582925983,34.672021998777645,1, #カフェ #カフェ・喫茶（その他） #紅茶専門店 #スイーツ（その他） #タピオカ
台茶1636,2019-03-21,茨城県,140.4733428158605,36.370140980039615,1, #カフェ #タピオカ
アフタヌーンティー・ティールーム ODAKYU 湘南 GATE,2019-03-21,神奈川県,139.48793182509402,35.33798133985253,1, #カフェ #紅茶専門店
CoCo都可 なんばCITY店,2019-03-20,大阪府,135.49928011582665,34.66405988044402,1, #スイーツ（その他） #タピオカ
Le monde du thé ITO EN（ル モンド デュ テ イトウエン）松坂屋名古屋店,2019-03-19,愛知県,136.90786981408888,35.16619616740114,1, #紅茶専門店
TP TEA(ティーピーティー) 池袋東武店,2019-03-19,東京都,139.70802531584772,35.73059498018278,1, #スイーツ（その他） #タピオカ #ソフトクリーム #ジュースバー
Black Pearl,2019-03-18,神奈川県,139.64614282926095,35.554165998764,1, #カフェ・喫茶（その他） #スイーツ（その他） #タピオカ
台湾甜商店 ららぽーと横浜店,2019-03-18,神奈川県,139.56432411584362,35.517108580232794,1, #スイーツ（その他） #タピオカ
東季17タピオカ専門店 吉祥寺店,2019-03-15,東京都,139.57894082926114,35.70350099876182,1, #カフェ #ジュースバー #紅茶専門店 #スイーツ（その他） #タピオカ
生タピオカ専門店 モッチャム 湊町リバープレイス店,2019-03-14,大阪府,135.49531882925993,34.66863099877769,1, #スイーツ（その他） #タピオカ
タピオカドリンク専門店 tapi タピ カテプリ店,2019-03-13,北海道,141.47121865836266,43.03756274478675,1, #スイーツ（その他） #タピオカ
TULLY’S COFFEE &TEA グランフロント大阪南館店,2019-03-13,大阪府,135.4926629158274,34.703958580433586,1,Unfound
萃茶（スイチャ）飯田橋店,2019-03-08,東京都,139.74564482926118,35.70172999876185,1, #スイーツ（その他） #タピオカ #紅茶専門店 #カフェ・喫茶（その他）
ノナラパール 心斎橋店,2019-03-04,大阪府,135.49892282925995,34.67125699877764,1, #カフェ
comma tea (コンマティー) 青山表参道店,2019-03-03,東京都,139.71143282926113,35.668357998762325,1, #スイーツ（その他） #タピオカ #ジュースバー
Chatime（チャタイム）  秋葉原店,2019-03-02,東京都,139.7708628292612,35.70233399876186,1, #スイーツ（その他） #タピオカ
ALFRED TEA ROOM 梅田 蔦屋書店,2019-03-01,大阪府,135.4928073158272,34.703114280433944,1, #カフェ #紅茶専門店 #スイーツ（その他） #タピオカ
THE ALLEY マリンピア神戸店,2019-02-27,兵庫県,135.04519171582584,34.626042880453625,1, #紅茶専門店 #カフェ #スイーツ（その他） #タピオカ
THE ALLEY 代官山店,2019-02-27,東京都,139.70218582926105,35.64772099876263,1, #スイーツ（その他） #タピオカ
辰杏珠 心斎橋店,2019-02-26,大阪府,135.49874682925986,34.67267199877766,1, #スイーツ（その他） #タピオカ
MING TEA 新宿店,2019-02-26,東京都,139.7061784140945,35.690479467191736,1, #スイーツ（その他） #タピオカ
台湾甜商店 ららぽーと横浜店,2019-02-24,神奈川県,139.56432411584362,35.517108580232794,1, #スイーツ（その他） #タピオカ
ルピシア イオンモール水戸内原店,2019-02-22,茨城県,140.35698967959942,36.37455829934053,1, #紅茶専門店 #日本茶専門店
瑪蜜黛（モミトイ）シャポー船橋店,2019-02-14,千葉県,139.9842825621983,35.701635456227955,1, #スイーツ（その他） #タピオカ
MLESNA TEA THE MINT,2019-02-09,兵庫県,135.19390831582717,34.69454098043615,1, #紅茶専門店
ゴンチャ Gong cha エトモ自由が丘店,2019-02-07,東京都,139.6681964067648,35.60709386706804,1, #紅茶専門店 #カフェ #スイーツ（その他） #タピオカ
タピオカドリンク専門店 ルージャオシー,2019-02-07,東京都,139.8825108292612,35.73236099876138,1, #スイーツ（その他） #タピオカ
RACCOON CAFE(ラクーンカフェ),2019-02-02,東京都,139.70498746970586,35.730775358686145,1, #スイーツ（その他） #タピオカ
美濃加茂茶舗,2019-02-02,岐阜県,137.0185836067621,35.443060567141444,1, #日本茶専門店 #カフェ #和菓子
美茶（BICHA）十条店,2019-01-31,東京都,139.72099282926126,35.760943998760965,1, #スイーツ（その他） #タピオカ
辰杏珠 sinanju 原宿店,2019-01-31,東京都,139.70324410676076,35.672128767042544,1, #スイーツ（その他） #タピオカ
ゴンチャ(Gong cha)  新宿東南口店,2019-01-24,東京都,139.7022682,35.68973629999999,1, #タピオカ #中国茶専門店
THE ALLEY 秋葉原店,2019-01-09,東京都,139.7714518292568,35.701950998761845,1, #スイーツ（その他） #タピオカ
ファーイースト ティー カンパニー SHIBUYA,2019-01-04,東京都,139.70090448815293,35.659906998756405,1, #紅茶専門店 #日本茶専門店
EMMA佐野店,2019-01-03,栃木県,139.57839717035048,36.31377999875935,1, #スイーツ（その他） #タピオカ
PEARL LADY 茶BAR 柏マルイ店,2018-12-22,千葉県,139.96872341550986,35.861462627673234,1, #スイーツ（その他） #タピオカ
生タピオカ専門店 モッチャム,2018-12-15,大阪府,135.49886303209252,34.66473340134162,1, #スイーツ（その他） #タピオカ
茶里茶里ChaLi ChaLi (チャリチャリ),2018-12-13,東京都,139.69721287109124,35.698489367129795,1, #スイーツ（その他） #タピオカ
comma tea (コンマティー) 池袋パルコ店,2018-12-13,東京都,139.71029851535212,35.73092888018263,1, #スイーツ（その他） #タピオカ
茶BAR柏店,2018-12-08,千葉県,139.96888438001716,35.86161048024976,1, #スイーツ（その他） #タピオカ
茶BAR志木店,2018-12-08,埼玉県,139.57306307994085,35.822550729912614,1, #中国茶専門店 #紅茶専門店 #日本茶専門店 #スイーツ（その他） #タピオカ
TEA18 エキマルシェ大阪店,2018-12-05,大阪府,135.49357377999053,34.70256438052979,1, #紅茶専門店 #スイーツ（その他） #タピオカ
CHABAKKA TEA PARKS LABORATORY,2018-12-01,神奈川県,139.54243557034945,35.313936998773606,1, #日本茶専門店
FAR EAST TEA COMPANY SHIBUYA,2018-12-01,東京都,139.70089817034986,35.65990599876852,1, #日本茶専門店 #紅茶専門店
書架（shoka）,2018-11-30,奈良県,135.83887885969105,34.68419921914609,1, #おでん
FruiTea Salon DEL’IMMO 大丸神戸店,2018-11-30,兵庫県,135.18990879303232,34.68867746830547,1, #カフェ #ケーキ #パンケーキ
THE ALLEY 神戸・三宮店,2018-11-30,兵庫県,135.1947991976046,34.69244007302753,1, #紅茶専門店 #カフェ #スイーツ（その他） #タピオカ
THE ALLEY 渋谷246店,2018-11-30,東京都,139.70445817108552,35.657908367147094,1, #カフェ・喫茶（その他） #スイーツ（その他） #タピオカ
ゴンチャ(Gong cha)  ⼩⽥急アコルデ新百合ヶ丘店,2018-11-26,神奈川県,139.5076882,35.60438759999999,1, #中国茶専門店 #スイーツ（その他） #タピオカ
台湾甜商店 ソリオ宝塚店,2018-11-24,兵庫県,135.34124868309135,34.80985842662907,1, #カフェ #中華菓子 #スイーツ（その他） #タピオカ
台湾甜商店 高知帯屋町店,2018-11-24,高知県,133.53993387281568,33.56058251812542,1, #カフェ #中華菓子 #スイーツ（その他） #タピオカ
THE ALLEY 三宮店,2018-11-24,兵庫県,135.19594917034848,34.69182699878327,1, #カフェ #スイーツ（その他） #タピオカ
アフタヌーンティー・ラブアンドテーブル ルクア大阪,2018-11-20,大阪府,135.49397117033882,34.702716101328285,1, #カフェ
USAGIYA 江別蔦屋書店,2018-11-19,北海道,141.53873389546803,43.11369599816556,1, #アイスクリーム
ShiZen Tea （シゼン ティー）,2018-11-18,東京都,139.78114837108907,35.686293367135946,1, #カフェ #日本茶専門店
Lipton Tea Stand 博多マルイ店,2018-11-17,福岡県,130.41883899302135,33.58892726878807,1, #カフェ
happylemon京王新宿店,2018-11-17,東京都,139.6988734784183,35.69012656728799,1, #スイーツ（その他） #タピオカ
ゴンチャ(Gong cha)  流⼭おおたかの森店,2018-10-30,千葉県,139.925043,35.871811,1, #スイーツ（その他） #タピオカ #カフェ #中国茶専門店
ゴンチャ(Gong cha)  福岡パルコ店,2018-10-25,福岡県,130.39855917790985,33.590238095103324,1, #スイーツ（その他） #タピオカ
ゴンチャ(Gong cha)  エキュート⾚⽻店,2018-10-17,東京都,139.72048001709356,35.77784664925774,1, #スイーツ（その他） #タピオカ
ゴンチャ(Gong cha) 渋⾕モディ店,2018-10-17,東京都,139.70023147832504,35.6615562257623,1, #スイーツ（その他） #タピオカ
THE MATCHA TOKYO 表参道,2018-10-17,東京都,139.70538587099534,35.667548625278016,1, #カフェ #カフェ・喫茶（その他）
茶寮-つぼ市製茶本舗 なんば店,2018-10-15,大阪府,135.500927,34.66373,1, #日本茶専門店 #和菓子 #カフェ
テオドー ティースタンド（THEODOR TeaStand）,2018-10-04,大阪府,135.4926629156185,34.703958580433685,1, #紅茶専門店 #ソフトクリーム
THE ALLEY 有楽町店,2018-10-04,東京都,139.76157847995836,35.674268038057605,1, #紅茶専門店 #スイーツ（その他） #タピオカ
PEARL LADY ​茶BAR 溝の口マルイ店,2018-10-02,神奈川県,139.61274387844546,35.59907616732843,1, #スイーツ（その他） #タピオカ
アフタヌーンティー・リビング ららぽーと名古屋みなとアクルス店,2018-09-28,愛知県,136.88069867984413,35.10989236879637,1, #その他
ゴンチャ Gong cha ららぽーと名古屋みなとアクルス店,2018-09-27,愛知県,136.88069867984413,35.10989236879637,1, #カフェ
茶論 中川政七商店 日本橋店,2018-09-24,東京都,139.77359860332263,35.68107427108892,1, #スイーツ（その他） #タピオカ
サ行｜TEA STAND SAGYO,2018-09-22,神奈川県,139.10078070670244,35.144138866951195,1, #カフェ #中国茶専門店 #日本茶専門店
PEARL LADY 茶BAR 北千住マルイ店,2018-09-19,東京都,139.80249631520226,35.75065033376926,1, #カフェ・喫茶（その他）
TP TEA(ティーピーティー)丸ビル店,2018-09-11,東京都,139.76180621557057,35.681239437578355,1, #カフェ
タリーズコーヒー＆TEA 京都タカシマヤ店,2018-09-04,京都府,135.7679427782767,35.003156361674144,1,Unfound
Gong cha（ゴンチャ） 梅田茶屋町店,2018-08-23,大阪府,135.49808417033884,34.70690610127236,1, #カフェ #中国茶専門店 #スイーツ（その他） #タピオカ
INARI TEA,2018-08-10,東京都,139.7106261703401,35.64742308857551,1, #カフェ
MIMOSA GINZA,2018-08-08,東京都,139.76289917828328,35.67211552518048,1, #カフェ #飲茶・点心
TP TEA(ティーピーティー) ニュウマン新宿店,2018-07-19,東京都,139.69911647985614,35.68876443726275,1, #カフェ #スイーツ（その他） #タピオカ
チャバティ(CHAVATY),2018-07-18,東京都,139.71202027702657,35.66840053837961,1, #カフェ
THE ALLEY 東京スカイツリータウン・ソラマチ店,2018-07-03,東京都,139.80853217985654,35.710037036095684,1, #ジュースバー #スイーツ（その他） #タピオカ
THE ALLEY 中目黒店,2018-07-03,東京都,139.69765076968122,35.64585283961535,1, #カフェ #パフェ #サンドイッチ #スイーツ（その他） #タピオカ
Ch Tea Room Kobe,2018-07-02,兵庫県,135.19430227700659,34.68927829143296,1, #カフェ #洋菓子（その他）
Piyanee ピヤニ THAI TEA,2018-05-15,東京都,139.69664230566843,35.66089668019923,1, #スイーツ（その他） #タピオカ
comma tea (コンマティー) 恵比寿店,2018-04-30,東京都,139.71271551300237,35.64634328020243,1, #紅茶専門店 #スイーツ（その他） #タピオカ
comma tea (コンマティー)  恵比寿店,2018-04-28,東京都,139.71080731567957,35.646246980202385,1, #紅茶専門店 #スイーツ（その他） #タピオカ
タリーズコーヒー ＆TEA六本木一丁目店,2018-04-28,京都府,139.73725311567992,35.664622480198204,1, #カフェ
ルピシア ジョイナステラス二俣川店,2018-04-26,神奈川県,139.5316738275458,35.463579380245534,1, #その他 #紅茶専門店
ゴンチャ 浅草ROX店,2018-04-21,東京都,139.793232112863,35.7126851801871,1, #カフェ #中国茶専門店 #紅茶専門店 #スイーツ（その他） #タピオカ
春水堂(チュンスイタン)ヴィーナスフォート店,2018-03-16,東京都,139.77842361541343,35.62533224064271,1, #カフェ #スイーツ（その他） #タピオカ #台湾料理
ゴンチャ 天王寺ミオ店,2018-03-15,大阪府,135.51264583674543,34.64735159421572,1, #カフェ・喫茶（その他） #スイーツ（その他） #タピオカ
PEARL LADY ​茶BAR イオンモール座間店,2018-03-14,神奈川県,139.4223657800791,35.5003198475757,1, #スイーツ（その他） #タピオカ
Cham’stea36,2018-03-13,宮崎県,131.43848941370965,31.921992774722682,1,Unfound
ゴンチャ ルミネ池袋店,2018-02-21,東京都,139.70711961549907,35.7288520349657,1, #中国茶専門店 #紅茶専門店 #スイーツ（その他） #タピオカ
ゴンチャ アクアシティお台場店,2018-02-21,東京都,139.77137961549678,35.62782354050621,1, #カフェ #中国茶専門店 #ジュースバー #スイーツ（その他） #タピオカ
Meetfresh 鮮芋仙 横浜中華街店,2018-02-15,神奈川県,139.64647051549332,35.443260850593035,1, #スイーツ（その他） #カフェ #甘味処
一芳水果茶 浅草店,2018-02-15,東京都,139.79277401549865,35.71214773588265,1, #スイーツ（その他） #タピオカ
無天茶坊,2018-01-18,岡山県,133.9507836033816,34.494541826239896,1, #中国茶専門店
Taiwan Tea & Gallery 台感,2017-11-30,東京都,139.78983097984744,35.70552493634324,1, #スイーツ（その他） #タピオカ
ルピシア エキエ広島店,2017-10-28,広島県,132.47353877992913,34.39815138060864,1,　#紅茶専門店
タリーズコーヒー &TEA横浜元町店,2017-10-03,神奈川県,139.64393147995366,35.439202780348076,1, #カフェ
CHARM VILLA 京都,2017-03-24,京都府,135.76446757976697,35.01359118045151,1, #中国茶専門店
ルピシアイオンモール長久手店,2016-12-08,愛知県,137.05005407029446,35.17311659501543,1, #紅茶専門店
鉄板料理・お好み焼 KINZO,2016-11-14,宮城県,140.86770571503234,38.26618189150771,1, #鉄板焼き #ステーキ #お好み焼き
櫻井焙茶研究所,2016-07-15,東京都,139.70954667955812,35.66360933864291,1, #日本茶専門店 #バー #かき氷
囍茶東京（キキチャトウキョウ）,2016-06-11,東京都,139.57592267955908,35.701950336540044,1, #カフェ #スイーツ（その他）
ルピシアゆめタウン久留米店,2015-11-25,福岡県,130.53622031518972,33.32177598081094,1, #紅茶専門店 #日本茶専門店 #中国茶専門店
アフタヌーンティー・ティールーム 調布パルコ,2015-11-20,東京都,139.54138331525192,35.65277598020093,1, #カフェ #パン・サンドイッチ（その他） #ケーキ
アフタヌーンティー・ホーム＆リビング ららぽーとEXPOCITY,2015-11-19,大阪府,135.5332663151742,34.80519538512236,1,Unfound
紅茶の店 シルバースプーン,2015-10-07,鹿児島県,130.54730800000002,31.587212000000008,1, #紅茶専門店 #カフェ
アフタヌーンティー・ティールーム 大船ルミネウィング,2015-09-19,神奈川県,139.531341,35.35280200000001,1, #紅茶専門店 #カフェ #サンドイッチ
ルピシア mozo ワンダーシティ店,2015-09-18,愛知県,136.88412599999998,35.224961,1, #紅茶専門店 #日本茶専門店 #中国茶専門店
TEA LOUNGE Lily,2015-09-01,愛知県,136.91908999999998,35.171768,1, #紅茶専門店
吉祥寺本店 KAREL TEA LIBRARY,2015-08-30,東京都,139.576069,35.704524,1, #カフェ #紅茶専門店 #アイスクリーム
ルピシア ゆめタウン廿日市店,2015-06-11,広島県,132.335493,34.345884000000005,1, #紅茶専門店 #日本茶専門店 #中国茶専門店
Tea Room Maman ティールームママン,2015-05-16,滋賀県,135.967186,35.038812,1, #喫茶店　#ケーキ　#パフェ
ルピシア イオンモール旭川駅前店,2015-03-27,北海道,142.35794099999995,43.764176,1, #紅茶専門店
アフタヌーンティー・ティールーム川西阪急,2015-03-25,兵庫県,135.41274199999998,34.826879,1, #紅茶専門店 #喫茶店
マザーリーフ ティースタイル モラージュ菖蒲店,2015-03-13,埼玉県,139.61094499999996,36.075194,1, #紅茶専門店 #スイーツ（その他）
マザーリーフティースタイル昭島モリタウン店,2014-11-20,東京都,139.36151999999998,35.71396199999999,1, #カフェ #洋菓子（その他）
Salon de SPECIAL.T（サロン・ド・スペシャル．T）,2014-11-01,東京都,139.706356,35.667829,1, #カフェ
アフタヌーンティー・ティールーム 大丸福岡天神店,2014-10-11,福岡県,130.40085800000003,33.58882599999998,1, #カフェ・喫茶（その他）
アフタヌーンティー・ティールーム イオンレイクタウンkaze,2014-10-08,埼玉県,139.82459619999997,35.877800199999626,1, #カフェ #ケーキ
アフタヌーンティー・ティールーム大丸神戸店,2013-01-30,兵庫県,35.691324,139.701144,1, #カフェ
ハロッズ ティーバー心斎橋大丸店,2012-10-23,大阪府,34.794951,136.015481,1, #カフェ
マザーリーフ弘前店,2012-10-23,青森県,40.602292999999996,140.471846,1, #スイーツ（その他） #洋食　#パスタ
ハロッズ ティー バー二子玉川 東急フードショー店,2012-09-20,東京都,34.691213,135.498377,1, #カフェ #アイスクリーム
Harrods Tea Bar,2012-09-05,東京都,35.730567,139.71164299999998,1, #カフェ #アイスクリーム
マザーリーフティースタイル阪急西宮ガーデンズ店,2012-07-20,兵庫県,34.74388,135.359702,1, #カフェ #洋菓子（その他） #サンドイッチ
マザーリーフティースタイル落合南長崎店,2012-03-29,東京都,35.103777,140.10164699999999,1, #洋食 #スイーツ（その他） #カフェ
ベッジュマン＆バートン,2012-03-02,東京都,35.623067999999996,139.391698,1, #紅茶専門店 #ソフトクリーム
マザーリーフティースタイル大崎店,2011-09-27,東京都,34.918057,137.166876,1, #カフェ #洋菓子（その他）
Tea　Shop　gnomes,2011-08-17,愛知県,35.424715,139.50939,1, #カフェ #洋菓子（その他） #紅茶専門店
執事ラウンジ Refleurir ～ルフルリール～,2011-08-08,東京都,35.455976,139.611519,1, #喫茶店
マザーリーフティースタイル仙台EDEN店,2011-07-23,宮城県,34.055890999999995,134.235517,1, #カフェ　#紅茶専門店　#スイーツ（その他）
マザーリーフ ティースタイル グランデュオ立川店,2011-06-19,東京都,35.697401,139.413855,1, #カフェ #洋食・欧風料理（その他） #スイーツ（その他）
Patisserie Swallowtail BlueRose,2011-05-24,東京都,34.233412,135.173464,1, #洋菓子（その他）
マザーリーフあべのキューズモール店,2011-04-25,大阪府,34.644683,135.51148700000002,1, #カフェ　#スイーツ（その他）　#パスタ
琥珀 -KOHAKU- シーマークスクエア店,2021-09-29,茨城県,140.67746666654742,36.61746487234631,0, #タピオカ　#スイーツ（その他）
琥珀 KOHAKU 仙台長町駅前店,2021-09-15,宮城県,140.8824766157457,38.229679993628295,0, #タピオカ　#スイーツ（その他）
九份茶藝館 恋茶 イオンタウン仙台泉大沢店,2021-09-12,宮城県,140.87991984266677,38.34992945920333,0, #タピオカ　#スイーツ（その他）
奈雪の茶 道頓堀店,2021-09-09,大阪府,135.50234811524206,34.66834187590332,0, #ジュースバー #カフェ・喫茶（その他）
謝謝珍珠（シェイシェイパール） 仙台店,2021-08-25,宮城県,140.86920151574625,38.26462019159728,0, #タピオカ　#スイーツ（その他）
Presotea プレッソティー 西武新宿PePe 店,2021-08-16,東京都,139.6979661156998,35.69427878686285,0, #タピオカ　#スイーツ（その他）
FOOD BOAT cafeフードボートカフェ イオンモール秋田店,2021-08-12,秋田県,140.16040441585127,39.66347394193371,0, #タピオカ　#スイーツ（その他）
CoCo都可新宿アルタ店,2021-07-21,東京都,139.6990270156997,35.69269723694958,0, #ジュースバー #カフェ・喫茶（その他）
Quickly(クィクリー) 名古屋大須店,2021-06-10,愛知県,136.90233600554808,35.15931306602453,0, #ジュースバー #カフェ・喫茶（その他）
TP TEA 全店,2021-06-01,東京都,139.69915651583716,35.68861348019256,0, #フレンチトースト #カフェ #パン
台湾甜商店 表参道旗艦店,2021-05-18,東京都,139.70542628653874,35.667872824534726,0, #スイーツ（その他） #アジア・エスニック料理（その他） #弁当
Tatako御茶ノ水店,2021-05-14,東京都,139.76429580562322,35.69952448019021,0, #スイーツ（その他） #洋菓子（その他） 
ルピシア（LUPICIA）イオンモール京都桂川店,2021-05-10,京都府,135.7075432792435,34.963453848773014,0, #紅茶専門店
ゴンチャ(Gong cha) クリスタ⻑堀店,2021-04-25,⼤阪府,135.50266582924382,34.675161998777554,0, #タピオカ　#スイーツ（その他）
萬波 吉祥寺店,2021-04-18,東京都,139.58107173568277,35.706666713492815,0, #スイーツ（その他） #中国茶専門店
十二星座 立川店,2021-02-22,東京都,139.41476996306315,35.69988300339809,0, #タピオカ　#スイーツ（その他）
TEA18 渋谷マルイ店,2021-02-20,東京都,139.6988151158366,35.66092268019903,0, #中国茶専門店 #中華菓子
琥珀 -kohaku- 気仙沼店,2021-02-16,宮城県,141.5721929159046,38.905332479569424,0, #タピオカ　#スイーツ（その他）
OCHABA(オチャバ) 新宿ルミネエスト店,2021-02-16,東京都,139.69895551584705,35.69132368019199,0, #スイーツ（その他） #日本茶専門店
BROWN SUGAR 黒糖彪 吉祥寺店,2021-02-13,東京都,139.57892682926112,35.703665998761835,0, #タピオカ　#スイーツ（その他）
asian tea house（アジアンティーハウス）,2021-02-09,岐阜県,136.75971422926023,35.41182489876618,0, #中国茶専門店 #カフェ
瑪蜜黛（モミトイ） 盛岡フェザン店,2021-02-07,岩手県,141.1335655159312,39.70277147945453,0, #タピオカ　#スイーツ（その他）
瑪蜜黛（モミトイ）八戸ピアドゥ店,2021-02-07,青森県,141.49736463247604,40.52787462265654,0, #タピオカ　#スイーツ（その他）
マザーリーフ ティースタイル 恵比寿店,2021-02-02,東京都,139.7085141158364,35.646925980202205,0, #カフェ #紅茶専門店 #スイーツ（その他）
TAPI PANDA,2021-01-28,長崎県,129.87532641577988,32.74424728098197,0, #タピオカ　#スイーツ（その他）
琥珀-KOHAKU- 金沢竪町店,2021-01-16,石川県,136.65364482926228,36.5595379987499,0, #タピオカ　#スイーツ（その他）
天仁茗茶 表参道店,2021-01-10,東京都,139.7071028158368,35.6699059801969,0, #タピオカ　#スイーツ（その他）
瑪蜜黛（モミトイ）アスナル金山店,2021-01-07,愛知県,136.90037419045748,35.14452859085215,0, #タピオカ　#スイーツ（その他）
天使島 (ティアンシダオ),2021-01-02,宮城県,140.87214357926382,38.25941399872961,0, #タピオカ　#スイーツ（その他）
THE ALLEY（ジ アレイ）表参道店,2020-12-31,東京都,139.70496142926055,35.667471098762384,0, #カフェ #タピオカ　#スイーツ（その他）
琥珀-KOHAKU- 富山高岡店,2020-12-29,富山県,137.02264250564465,36.74667077995973,0, #タピオカ　#スイーツ（その他）
T/T ティティー,2020-12-28,大阪府,135.60598020560184,34.63060398045249,0, #ベトナム料理 #カレー（その他）
Milksha Ebisu ミルクシャ 恵比寿,2020-12-27,東京都,139.7080025158365,35.648527280201904,0, #タピオカ　#スイーツ（その他）
comma tea阪急石橋阪大前駅ナカ店,2020-12-25,大阪府,135.44521032926,34.80792499877547,0, #タピオカ　#スイーツ（その他）
LEMONADE by Lemonica（レモネードbyレモニカ）仙台駅店,2020-12-20,宮城県,140.88277182924844,38.259629998729636,0, #ジュースバー
アフタヌーンティー・ティールーム 渋谷マークシティ,2020-12-07,東京都,139.6978845292444,35.657914798762484,0, #カフェ #紅茶専門店
アルパカ茶屋鎌倉長谷店,2020-11-23,神奈川県,139.53506182926068,35.311998998767635,0, #タピオカ　#スイーツ（その他）
タピチ ティースタンド イオンモール大和郡山店,2020-11-23,奈良県,135.80077471581652,34.65101698044713,0, #タピオカ　#スイーツ（その他）
TAPiCi タピチティースタンド 名古屋近鉄パッセ店,2020-11-23,愛知県,136.88208261582685,35.169216480316955,0, #タピオカ　#スイーツ（その他）
タピオカ専門店 BOBA.伊勢崎本店,2020-11-23,群馬県,139.16579231298348,36.32701938004875,0, #タピオカ　#スイーツ（その他）
琥珀-KOHAKU- 札幌西28丁目店,2020-11-22,北海道,141.31309382927117,43.06187699869661,0, #タピオカ　#スイーツ（その他）
THE ALLEY 下北沢店,2020-11-21,東京都,139.6668985292444,35.66095459876245,0, #カフェ・喫茶（その他） #タピオカ　#スイーツ（その他）
Lipton Tea Stand 名古屋LACHIC店,2020-11-11,愛知県,136.90538708000113,35.16746778041359,0, #タピオカ　#スイーツ（その他）
タピオカ専門店 香茶 神戸市垂水店,2020-11-07,兵庫県,135.0532159068449,34.62975524026714,0, #タピオカ　#スイーツ（その他）
アフタヌーンティー・ティールーム 渋谷マークシティ店,2020-11-06,東京都,139.69733735705566,35.657914780199725,0, #カフェ #紅茶専門店
THE ALLEY 祐天寺店,2020-11-05,東京都,139.69208010562193,35.63722928020466,0, #タピオカ　#スイーツ（その他）
TACO BELL タコベル 青山骨董通り店,2020-11-04,東京都,139.71115924566232,35.66246232094213,0, #メキシコ料理
丸作食茶 広尾店,2020-11-04,東京都,139.71400167586015,35.65539910451373,0, #タピオカ　#スイーツ（その他）
THE ALLEY 恵比寿店,2020-11-02,東京都,139.7109982056221,35.64745568020229,0, #カフェ
イロドリアザヤカ シャポー市川店,2020-10-30,千葉県,139.90749449419135,35.728884989002616,0, #スイーツ（その他） #カフェ・喫茶（その他）
瑪蜜黛（モミトイ）八乙女店,2020-10-23,宮城県,140.87302992874228,38.315103566954974,0, #タピオカ　#スイーツ（その他）
葡萄酒小屋タピオカ専門店,2020-10-16,宮城県,140.879032742956,38.26006019359774,0, #タピオカ　#スイーツ（その他）
琥珀-KOHAKU- 盛岡肴町店,2020-10-11,岩手県,141.15397550678574,39.69769096581385,0, #タピオカ　#スイーツ（その他）
琥珀-KOHAKU- 松島店,2020-10-05,宮城県,141.06742162559482,38.373402993901074,0, #タピオカ　#スイーツ（その他）
琥珀-KOHAKU- 宇都宮店,2020-09-29,栃木県,139.8837792881994,36.557363934899705,0, #タピオカ　#スイーツ（その他）
comma TOGO 新宿小田急エース店,2020-09-28,東京都,139.69814529127956,35.691293267536594,0, #タピオカ　#スイーツ（その他）
茶寮いの上,2020-09-20,神奈川県,139.55149270561563,35.31875128028047,0, #和食（その他） #甘味処 #レストラン（その他）
琥珀 -KOHAKU- 青森八戸店,2020-09-19,青森県,141.48687682926754,40.50873599870968,0, #タピオカ　#スイーツ（その他）
マザーリーフ東銀座店,2020-09-15,東京都,139.7671984367507,35.668736096935724,0, #紅茶専門店 #洋菓子（その他） #カフェ
FORTUNER tea-box 高崎モントレー店,2020-08-16,群馬県,139.01150462783636,36.322433580049726,0, #タピオカ　#スイーツ（その他）
茶咖匠 ( チャカショウ ) 吉祥寺,2020-08-15,東京都,139.57874082926122,35.70278399876181,0, #スイーツ（その他） #中国茶専門店 #ジュースバー
紀伊茶屋 新宿店,2020-08-14,東京都,139.70287292023735,35.69199359758825,0, #日本茶専門店 #甘味処
琥珀-KOHAKU- いわき駅前店,2020-08-08,福島県,140.89231782926282,37.05523899874357,0, #タピオカ　#スイーツ（その他）
旧邸蒸屋,2020-08-01,大阪府,135.62149391295222,34.76247888041878,0, #和食（その他） #豚しゃぶ #ダイニングバー
KOI Thé（コイティー）表参道店,2020-07-07,東京都,139.70720547034992,35.66969649876837,0, #タピオカ　#スイーツ（その他）
紅茶専門店 京都セレクトショップ 三条店,2020-07-05,京都府,135.76807010560935,35.00882388035648,0,Unfound
ELK NEW YORK BRUNCH 阪急西宮ガーデンズ店,2020-06-24,兵庫県,135.3588305490905,34.74406802456249,0, #カフェ #ハンバーガー #パンケーキ
瑪蜜黛（モミトイ）仙台一番町店,2020-06-11,宮城県,140.87281712327982,38.261674458589454,0, #タピオカ　#スイーツ（その他）
MING TEA 青山店,2020-05-30,東京都,139.70737825097,35.660096475822,0, #タピオカ　#スイーツ（その他）
瑪蜜黛（モミトイ） 札幌南1条店,2020-05-23,北海道,141.34928582927117,43.05848299869661,0, #タピオカ　#スイーツ（その他） #カフェ #中国茶専門店
謝謝珍珠（シェイシェイパール）福島店,2020-05-16,福島県,140.46487920677708,37.75643036632377,0, #タピオカ　#スイーツ（その他）
THE PEZ STREET FACTORY/TIK DOG,2020-05-12,新潟県,-1.0,-1.0,0, #タピオカ　#スイーツ（その他）
巭草堂（カンフーソウドウ ）国分寺店,2020-04-09,東京都,139.47936682926115,35.69893999876192,0, #タピオカ　#スイーツ（その他）
CoCo都可 新宿東口店,2020-04-03,東京都,139.70163082926112,35.69312099876199,0, #タピオカ　#スイーツ（その他）
CoCo都可 表参道店,2020-04-03,東京都,139.70542250676377,35.6679803670447,0, #タピオカ　#スイーツ（その他）
タピパンダ 北浦和店,2020-03-12,埼玉県,139.64628626979686,35.87141113896378,0, #タピオカ　#スイーツ（その他）
台湾タピオカ専門店 茶遇,2020-02-20,神奈川県,139.630970829261,35.5361149987643,0, #タピオカ　#スイーツ（その他）
パールレディ 町屋店,2020-01-19,東京都,139.77989131315408,35.74274978017993,0, #ジュースバー
Yucha 御茶(ユチャ) 中野北口店,2020-01-18,東京都,139.6697498292612,35.70955899876173,0, #タピオカ　#スイーツ（その他）
HOKI TEA 阿佐ヶ谷店,2019-12-26,東京都,139.63613482926118,35.70274999876185,0, #タピオカ　#スイーツ（その他）
琥珀-KOHAKU- 生田駅前店,2019-12-23,神奈川県,139.540947829261,35.61548899876312,0, #タピオカ　#スイーツ（その他）
笑笑果茶,2019-12-16,東京都,139.7591912058183,35.712565080187005,0, #タピオカ　#スイーツ（その他）
TAPITORAタピトラ 表町店,2019-11-20,岡山県,133.9296645070947,34.66045797052433,0, #タピオカ　#スイーツ（その他）
モンマスティー静岡店,2019-10-14,静岡県,138.38867240675808,34.97996976732316,0, #紅茶専門店 #カフェ
TAPICIタピチティースタンド 名古屋近鉄パッセ店,2019-10-06,愛知県,136.8821282154019,35.16911958031689,0, #タピオカ　#スイーツ（その他）
猪豹 Lie baoリエバオ 長野善光寺店,2019-09-20,長野県,138.1865628292624,36.65206199874874,0, #タピオカ　#スイーツ（その他）
琥珀-KOHAKU- 同志社前駅店,2019-09-01,京都府,135.77861561408614,34.80468486755061,0, #タピオカ　#スイーツ（その他）
ティーサロンジークレフ吉祥寺店,2019-07-09,東京都,139.5778389067582,35.70603376703146,0, #紅茶専門店
Narrow K’s（ナローケーズ）,2019-04-21,東京都,139.57858382926116,35.703312998761845,0, #紅茶専門店 #カフェ
吉龍糖ジロンタン 恵比寿店,2019-04-21,東京都,139.71158870676734,35.647189667053794,0, #タピオカ　#スイーツ（その他）
星ビル オルゴール・ティー＆ワインサロン,2019-02-24,広島県,132.4588442067547,34.393746667577055,0, #紅茶専門店 #サンドイッチ　#ワインバー
LUPICIA（ルピシア）イオンモール春日部店,2019-02-23,埼玉県,139.78588981585293,35.98767838012397,0, #紅茶専門店
三國屋善五郎 イオンモール草津店,2019-02-06,滋賀県,135.91517371566528,34.997718380359345,0, #日本茶専門店 #中国茶専門店 #紅茶専門店
Lipton Tea Stand 三井アウトレットパーク札幌北広島店,2019-01-13,北海道,141.46986809093085,42.972123425328036,0, #カフェ
下堂園茶舗,2018-08-10,鹿児島県,130.54408487826055,31.583606439026546,0, #日本茶専門店
紅茶の国から 町田店,2018-05-28,東京都,139.44473742109372,35.54443564516588,0, #カフェ
華泰茶荘 渋谷店,2018-03-04,東京都,139.6964199696136,35.65727923898949,0, #ステーキ #ハンバーグ #ダイニングバー
中国茶房 茶趣茶樂,2017-05-22,新潟県,139.02384431547287,37.89828517973718,0, #台湾料理　#中国茶専門店 #飲茶・点心
ルピシア銀座ショップ,2016-12-02,東京都,139.76286177939622,35.673773738085764,0, #紅茶専門店
中国茶藝館 陶然庭,2016-11-05,大阪府,135.50402597937037,34.68916959143982,0, #中国茶専門店 #カフェ・喫茶（その他） #中華菓子
151E,2016-03-06,福岡県,130.3931496795026,33.585301449733855,0, #ダイニングバー
清品茶房 茶通,2015-11-15,東京都,139.71831267962799,35.650105339382726,0, #中国茶専門店
悟空TEABAR,2015-09-27,神奈川県,139.647953,35.443199,0, #中国茶専門店 #カフェ #肉まん・中華まん
ゴンチャ 原宿表参道店,2015-09-27,東京都,139.70570999999998,35.66750500000001,0, #タピオカ　#スイーツ（その他） #中国茶専門店 #カフェ
紅茶専門店ディコヤ,2015-09-20,北海道,141.366354,43.103948,0, #カフェ　#紅茶専門店
カレルチャペック紅茶店 吉祥寺ライヴス店,2015-08-23,東京都,139.57771200000002,35.706579,0, #紅茶専門店
カレルチャペック スウィーツティールーム,2015-08-01,東京都,139.57778399999998,35.707866,0, #紅茶専門店　#カフェ　#ケーキ
マリアージュフレール京都店,2013-01-31,京都府,35.006976,135.769362,0, #紅茶専門店
ウェッジウッド ティールーム 大丸心斎橋店,2012-03-31,大阪府,43.088395,141.274923,0, #紅茶専門店
アフタヌーンティー・リビング本八幡シャポー,2012-03-19,千葉県,34.975175,135.685465,0,Unfound
SANDGLASS Y150店,2011-10-23,神奈川県,36.5626,136.362305,0, #紅茶専門店　#カフェ　#ケーキ
リプトンティーハウス銀座店,2011-07-10,東京都,34.666646,135.505727,0, #紅茶専門店
アフタヌーンティー千駄ヶ谷,2011-03-24,東京都,36.5626,136.362305,0, #パン　#サンドイッチ
