ShopName,Date,Prefecture,longitude,latitude,Open,genres
カレーのエース,2021-11-11,兵庫県,135.40381552059566,34.7531110288678,1, #カレー
タイガーカレー イオン札幌桑園店,2021-11-11,北海道,141.330170122682,43.068842715237814,1, #カレー
京都スパイスカレーKAAYA,2021-11-11,京都府,135.79253031568666,34.93945587790024,1, #カレー
キーマカレーの店 marsh,2021-11-10,北海道,144.39590071584144,43.00282390225852,1, #カレー
金沢カレー研究所 奈良葛城店,2021-11-10,奈良県,135.73220027975472,34.485016595128506,1, #カレー
カレーの子 くろしお,2021-11-08,北海道,141.31919277682186,43.07053617677126,1, #カレー
Spicy curry N&R,2021-11-06,大阪府,135.53850131568345,34.746399388276075,1, #カレー
KITCHEN826（キッチンハチニイロク）,2021-11-05,群馬県,139.37001294889333,36.3028486582209,1, #カレー
100時間カレー イオンモール鈴鹿店,2021-11-05,三重県,136.52941881568543,34.87176858154392,1, #カレー
欧風カレーイナバ,2021-11-03,東京都,139.56065271569983,35.70304103638221,1, #カレー
マイカリー食堂 宝塚安倉店（松屋併設）,2021-11-02,兵庫県,135.37322910302407,34.795243550333836,1, #カレー
ナンカレーハウス マウントエベレスト,2021-10-26,愛知県,136.942329815691,35.206944963443114,1, #カレー
HOUSE DA CURRY / ハウス・ダ・カリー,2021-10-25,群馬県,139.19527081571005,36.277109704667666,1, #カレー
タイガーカレー紋別店,2021-10-24,北海道,143.3537499674157,44.35052834323026,1, #カレー
kanakoのスープカレー屋さん ブランチ横浜南部市場店,2021-10-21,神奈川県,139.63484109324327,35.38129421064678,1, #カレー
宮本カレー渋谷道玄坂店,2021-10-20,東京都,139.69431077381168,35.65835443873686,1, #カレー
mitomuya（ミトムヤ）,2021-10-20,広島県,132.47002910389625,34.46696695627257,1, #カレー
日乃屋カレー 神戸元町店,2021-10-20,兵庫県,135.18548671568237,34.68920659134048,1, #カレー
まな愛カレー,2021-10-18,東京都,139.70480691430683,35.69649140025661,1, #カレー
ナマステヒマール,2021-10-16,東京都,139.81210479542983,35.70754561904126,1, #カレー
日乃屋カレー 犬山店,2021-10-13,愛知県,136.94756821569345,35.343111656047384,1, #カレー
100時間カレー イオンモール府中店,2021-10-13,広島県,132.4974249815253,34.39449106471128,1, #カレー
YAOKICHI Sen,2021-10-11,愛知県,136.88353521569042,35.16971536546099,1, #カレー
カレーは飲み物。池袋東口店,2021-10-09,東京都,139.714928829252,35.729285487450426,1, #カレー
スープカリー オーヤン 新札幌店,2021-10-07,北海道,141.4708460284622,43.03781102286724,1, #カレー
ゴーゴーカレー 天理スタジアム,2021-10-05,奈良県,135.8323833608927,34.60190320798693,1, #カレー
金沢カレー研究所 松江寺町店,2021-10-04,島根県,133.05733751569574,35.46392044946567,1, #カレー
カレー&オリエンタルバル 桃の実,2021-10-04,東京都,139.76185489804766,35.6958314707209,1, #カレー
スパイスカレースタンド輪心,2021-10-03,神奈川県,139.6459891483488,35.44166534500584,1, #カレー
Tommy’s Curry（トミーズカレー）,2021-10-02,神奈川県,139.53064761569362,35.35213535555666,1, #カレー
カレーしか勝たん 日明店,2021-10-01,福岡県,130.85223571566914,33.891238233644174,1, #カレー
東京ハヤシライス 八重洲地下街店,2021-09-29,東京都,139.7685738082859,35.680038923772365,1, #カレー
ルーとこめ,2021-09-25,兵庫県,135.23407931524216,35.070223580341356,1, #カレー
隙間カレー,2021-09-23,京都府,135.74318211568783,35.010504274069405,1, #カレー
soupcurry凪（nagi）,2021-09-20,北海道,141.3366304158434,43.09509569635668,1, #カレー
Sri Manjal  スリマンジャル,2021-09-19,東京都,139.63633482923584,35.65211648850536,1, #カレー
東京ハヤシライス 新富町店,2021-09-16,東京都,139.77096281569925,35.67113043813244,1, #カレー
キーマカレー専門店 Good Curry,2021-09-13,千葉県,139.9740622157026,35.85991362775801,1, #カレー
タイガーカレー イオン札幌苗穂店,2021-09-13,北海道,141.40109621584307,43.0800669973185,1, #カレー
日乃屋カレー群馬藤岡店,2021-09-09,none,139.07473662461354,36.256236163205266,1, #カレー
ゴーゴーカレー横手スタジアム,2021-09-05,秋田県,140.56202653431518,39.310130165837634,1, #カレー
日野屋カレー 森松店,2021-08-31,愛媛県,132.79369709970396,33.7909490371217,1, #カレー
福茶’s curry,2021-08-27,静岡県,139.0961604253799,34.88541426740768,1, #カレー
諭吉コルリ,2021-08-24,大分県,131.19008582924974,33.60696811573997,1, #カレー
金沢カレー研究所 金沢駅前店,2021-08-22,石川県,-1,-1,1, #カレー
金沢カレー研究所 徳島松茂店,2021-08-22,徳島県,-1,-1,1, #カレー
金沢カレー研究所 廿日市宮島街道店,2021-08-22,広島県,132.3347023156767,34.353461609242444,1, #カレー
金沢カレー研究所 伊那店,2021-08-22,長野県,-1,-1,1, #カレー
金沢カレー研究所 西葛西北口店,2021-08-22,東京都,139.85708781569915,35.66530163845203,1, #カレー
金沢カレー研究所 熊谷店,2021-08-22,埼玉県,139.38282331570812,36.162702511022225,1, #カレー
金沢カレー研究所 大館店,2021-08-22,秋田県,140.55555902767165,40.28415897161469,1, #カレー
カレーや デッカオJr.,2021-08-20,大阪府,135.49528451568344,34.75802138765271,1, #カレー
ゴーゴーカレー 松任徳光スタジアム,2021-08-18,石川県,136.5279656157147,36.533371990372835,1, #カレー
スパイスカレー&カフェ mine mine,2021-08-17,三重県,136.54511761568548,34.872028381529795,1, #カレー
スパイスカレー食堂 中野坂上店,2021-08-12,東京都,139.6793024854887,35.69726419710726,1, #カレー
emacurry （エマカリー）,2021-08-06,兵庫県,135.1859292055401,34.695798290987554,1, #カレー
ゴーゴーカレーなんばフィールド,2021-08-05,大阪府,135.50005123346423,34.65480320272738,1, #カレー
インドダイニング スクーン 坂出店,2021-08-04,香川県,133.8494662164739,34.31802633067603,1, #カレー
つぼやきカレーキートン広島井口店,2021-08-03,広島県,132.38112961287746,34.36841390844856,1, #カレー
SPICE CAMP,2021-08-02,大阪府,135.50214190553962,34.673911792159124,1, #カレー
MOUSOU KITCHEN,2021-08-02,大阪府,135.56576340554025,34.70107939070478,1, #カレー
カレーテイクアウト専門店 Tiffin ティフィン,2021-07-31,大阪府,135.46107551288458,34.78692728610218,1, #カレー
田所商店 スパイスカレー部,2021-07-29,千葉県,140.04187382923578,35.649640088539236,1, #カレー
北海道スープカレーSuage 池袋店,2021-07-27,東京都,139.71001542925202,35.73080808742954,1, #カレー
MINA,2021-07-27,三重県,136.62965471288075,34.57215349759875,1, #カレー
明日へのカレー 平野町店 （Asu e no Curry）,2021-07-27,大阪府,135.50168320553993,34.68763929142433,1, #カレー
旧ヤム邸 かまくら荘,2021-07-21,神奈川県,139.5358900128936,35.31305545768208,1, #カレー
チャンピオンカレー 百万遍店,2021-07-20,京都府,135.77921510554583,35.03001797301615,1, #カレー
Coyamaris（コーヤマリス）,2021-07-20,山口県,130.88311771567294,34.13938412057946,1, #カレー
ジェイズカレー 久我山店,2021-07-19,東京都,139.59885911289996,35.68589353732285,1, #カレー
八Ｏ吉 吹上店 （ヤオキチ）,2021-07-17,愛知県,136.93370132923528,35.15886129520171,1, #カレー
100時間カレー / ゴクゴク 神戸ハーバーランドumie店,2021-07-15,兵庫県,135.18116120084412,34.67956296685013,1, #カレー
アジャンタインドカリ店 伊豆長岡,2021-07-15,静岡県,138.93556101288877,35.03799787258523,1, #カレー
CORE CURRY イオンモール沖縄ライカム店,2021-07-15,沖縄県,127.79380806555967,26.312152342017797,1, #カレー
ゴーゴーカレー ビバシティ彦根パーク,2021-07-15,滋賀県,136.25094912757794,35.24384106144154,1, #カレー
スパイスカレー食堂 五反田店,2021-07-14,東京都,139.72178182925182,35.62420518888636,1, #カレー
日乃屋カレー 横浜弘明寺店,2021-07-13,神奈川県,139.598676244402,35.42378885949695,1, #カレー
ANDY CURRY（アンディーカリー）,2021-07-08,愛知県,136.88268881569056,35.1672434655948,1, #カレー
アイリーノボリタイ,2021-07-07,京都府,135.76058509261804,34.935319342601666,1, #カレー
スパイスキングダム イオンモール浜松市野店,2021-07-06,静岡県,137.7623196582496,34.740663799185,1, #カレー
TOKYO SPICE ななCURRY 青山,2021-07-05,東京都,139.71518510555703,35.66970213821053,1, #カレー
ゴーゴーカレー八戸パーク店,2021-07-04,青森県,141.49227522925761,40.50990281834315,1, #カレー
CURRY HOUSE AKARI,2021-07-04,京都府,135.7408073055463,35.05302787177349,1, #カレー
グローバル カレーハウス Fuji Grand 北島店,2021-07-01,徳島県,-1,-1,1, #カレー
SPICE DREAM 武蔵境店,2021-07-01,東京都,139.54362182925195,35.704139087794324,1, #カレー
イタリアンスパイスカレー専門店colza,2021-07-01,奈良県,135.73129120553705,34.52974839986148,1, #カレー
100時間カレー 福山曙店,2021-06-30,広島県,133.39555291287917,34.47043730302238,1, #カレー
マイカリー食堂 西新宿タワー60店（松屋併設）,2021-06-29,東京都,139.68652422325354,35.693749627809495,1, #カレー
マイカリー食堂 那覇小禄店（松のや併設）,2021-06-29,沖縄県,127.67031630541585,26.19915859674799,1, #カレー
SOUP CURRY S pice（スープカレー エス・パイス）,2021-06-28,香川県,133.7487166128741,34.17149471888263,1, #カレー
スパイス研究所MAD CHEFs 浜松町本店,2021-06-27,東京都,139.75542800555667,35.65409553906621,1, #カレー
恵庭ザンギ五郎,2021-06-25,北海道,141.5704144056966,42.887947509592394,1, #カレー
ゴーゴーカレー堺東スタジアム,2021-06-24,大阪府,135.48272462925073,34.572862203051905,1, #カレー
金沢カレー研究所 鈴鹿中央通店,2021-06-23,三重県,136.56103020554306,34.87560788133728,1, #カレー
スパイスファクトリーあべべ,2021-06-21,岐阜県,137.11989129827583,35.33587205331854,1, #カレー
やらぬ善よりやる偽善,2021-06-21,北海道,141.39279290570008,43.0462074994849,1, #カレー
マイカリー食堂 ひばりが丘店（松のや併設）,2021-06-18,東京都,139.54409782925205,35.752117087137925,1, #カレー
カレーショップC&C 大手町メトロピア店,2021-06-17,東京都,139.76336992925195,35.68507258805499,1, #カレー
SANZOU TOKYO （サンゾウ トウキョウ）,2021-06-16,東京都,139.66972864522646,35.663327644361694,1, #カレー
ダージリンスパイス潮見店,2021-06-16,東京都,139.81713350555668,35.65843083882875,1, #カレー
カレー＆そば ミンガス,2021-06-13,大阪府,135.49564392923486,34.70080210134781,1, #カレー
まる山カリー,2021-06-11,北海道,144.34655752773932,43.554922266797526,1, #カレー
札幌スープカレー専門店エスパーイトウ北22条店,2021-06-10,北海道,141.34258452772923,43.088388496786,1, #カレー
フジヤマコウタ（Fuji-yama Kohta）,2021-06-10,大阪府,135.5025726466083,34.67839242894952,1, #カレー
スパイス研究所 魚町店,2021-06-09,福岡県,130.88029896530315,33.883685393083425,1, #カレー
薬膳スパイスカリー専門店 麻咖ｰマカｰ,2021-06-08,大阪府,135.50159932923478,34.67049210175207,1, #カレー
まるキチ,2021-06-07,鳥取県,133.22495682925182,35.546040089952186,1, #カレー
日乃屋カレー 京急鶴見店,2021-06-03,神奈川県,139.6788977781708,35.50779575003247,1, #カレー
DEURALI （デウラリ）,2021-06-01,愛知県,136.90062250561255,35.166932380317455,1, #カレー
ヤドカリー あべのHoop店,2021-06-01,大阪府,135.51349450560218,34.645057280448775,1, #カレー
100時間カレー高柳店,2021-05-31,石川県,136.66262126555458,36.59549835584338,1, #カレー
カリィ酒場エクソダス,2021-05-31,大阪府,135.39224201294647,34.476486480492696,1, #カレー
GREEN BROWN （グリーンブラウン）,2021-05-31,東京都,139.65767850562403,35.74179718018028,1, #カレー
とんかつ檍のカレー屋 いっぺこっぺ 秋葉原店,2021-05-30,東京都,139.7693303233035,35.7019449444574,1, #カレー
Zipangu Curry Cafe 江坂駅前店,2021-05-29,大阪府,135.50020010560436,34.75733818042005,1, #カレー
カレーのイルトベンリ 三田店,2021-05-28,東京都,139.74358191296986,35.64694188020231,1, #カレー
Eureka （エウレカ）,2021-05-26,大阪府,135.51037271295027,34.67720518044037,1, #カレー
ステーキ五郎咖喱 尼崎店,2021-05-25,兵庫県,135.41532140560366,34.72038778042943,1, #カレー
ステーキ五郎咖喱 上本町ハイハイタウン店,2021-05-25,大阪府,135.51865910560264,34.66558878044351,1, #カレー
ステーキ五郎咖喱 京橋店,2021-05-25,大阪府,135.53195230560317,34.698629580434975,1, #カレー
ステーキ五郎咖喱 樟葉店,2021-05-25,大阪府,135.67543568144652,34.862182639784805,1, #カレー
ステーキ五郎咖喱 摂津富田店,2021-05-25,大阪府,135.59317440560585,34.83670418039988,1, #カレー
ステーキ五郎咖喱 猪名寺店,2021-05-25,兵庫県,135.42282631295222,34.76495648041801,1, #カレー
ステーキ五郎咖喱 西中島店,2021-05-25,大阪府,135.4976774292432,34.72539779877679,1, #カレー
ステーキ五郎咖喱 桂店,2021-05-25,京都府,135.70415030560864,34.97961408036392,1, #カレー
ステーキ五郎咖喱 十三店,2021-05-25,大阪府,135.4824705302882,34.72108182218945,1, #カレー
ステーキ五郎咖喱 梅田茶屋町店,2021-05-25,大阪府,135.4967807139121,34.70689716504552,1, #カレー
スパイス食堂Blue Leaf,2021-05-24,神奈川県,139.6314839948496,35.44799793195122,1, #カレー
カリーゾーン カルナ豊川店,2021-05-22,愛知県,137.3596918292594,34.79837499877563,1, #カレー
日乃屋カレー JR川崎タワー店,2021-05-13,神奈川県,139.69378582926038,35.53012099876437,1, #カレー
お弁当とスープカレーのお店BenBen大通西15丁目店,2021-05-06,北海道,141.33334682927057,43.05785699869665,1, #カレー
NIMROD SPICE BASE,2021-05-05,愛知県,136.85934910561366,35.22532208030302,1, #カレー
ゴーゴーカレー監修 金沢カレー研究所 黒部店,2021-05-03,富山県,137.44739001299473,36.86841037993458,1, #カレー
スープとカレー ボンジョルネ,2021-05-03,愛知県,136.88787560495186,35.24758101588468,1, #カレー
ラ・セッテ 広島ミラノカレー,2021-05-01,広島県,132.4553799055971,34.3945186805143,1, #カレー
ザ・スパイス（THE SPICE）ラシック 栄店,2021-04-28,愛知県,136.90727394298597,35.16753420756587,1, #カレー
カリー・ザ・ハードコア（curry the hardcore）,2021-04-28,東京都,139.71649301297126,35.721234780184936,1, #カレー
咖喱＆カレーパン 天馬 イオンモール岡山店,2021-04-27,岡山県,133.91711126295004,34.662097480444444,1, #カレー
カレー食堂 心 Ario北砂店,2021-04-27,東京都,139.8254571292605,35.682375198762124,1, #カレー
カレーハウスCoCo壱番屋 博多駅南店,2021-04-27,福岡県,130.42025981579584,33.58673958073514,1, #カレー
ゴーゴーカレー土浦神立スタジアム,2021-04-25,茨城県,140.2221378431025,36.12086319048433,1, #カレー
100時間カレーEXPRESS アリオ蘇我店,2021-04-23,千葉県,140.12054547985423,35.58749914281061,1, #カレー
みみこう EKIZO神戸三宮店,2021-04-22,兵庫県,135.1932040573013,34.693478027240374,1, #カレー
名水茶屋 大野三昧,2021-04-22,福井県,136.55066602767167,35.97270388012734,1, #カレー
NENA GIFU YAMANO CURRY,2021-04-20,岐阜県,136.73762600561705,35.39835298026134,1, #カレー
MINGLE TANGLE -WELLNESS CURRY & CAFE-,2021-04-19,東京都,139.70409590562286,35.692527880191726,1, #カレー
ウキヨショウテン（浮世商店）,2021-04-19,福岡県,130.51413882925772,33.313217998800795,1, #カレー
日乃屋カレー栃木黒磯店,2021-04-18,栃木県,140.05006882926222,36.96476299874467,1, #カレー
ガネーシャ 広瀬町店,2021-04-15,宮城県,140.8585022056766,38.26961977967255,1, #カレー
日乃屋カレー 大須店,2021-04-13,愛知県,136.9062817628034,35.16121041251617,1, #カレー
100時間カレー仙台本町一丁目店,2021-04-13,宮城県,140.87898411302413,38.26623457967291,1, #カレー
ニュータンバ,2021-04-10,兵庫県,135.2022819921955,34.6999024939532,1, #カレー
大阪マドラス123号店,2021-04-10,東京都,139.57830422926062,35.70522319876178,1, #カレー
カレー大學 両国アスリート食堂,2021-04-06,東京都,139.793221105623,35.69331678019144,1, #カレー
松のや 仙川店（マイカリー食堂併設）,2021-04-06,東京都,139.58504060562237,35.66092178019899,1, #カレー
ゴーゴーカレーペリエ千葉パーク,2021-04-04,千葉県,140.11315732926045,35.61291399876314,1, #カレー
カレー倶楽部ルウ 堺東店,2021-04-03,大阪府,135.48339382925914,34.573832998779174,1, #カレー
スープカレーなっぱ,2021-04-01,岡山県,-1,-1,1, #カレー
スパイスアンドカレー黄金の風,2021-03-31,大阪府,135.51127540560321,34.700465180434485,1, #カレー
松屋 徳島南矢三店（マイカリー食堂併設）,2021-03-28,徳島県,134.5214504275576,34.0845080858789,1, #カレー
松屋 福井若杉店（マイカリー食堂併設）,2021-03-28,福井県,136.1873886468897,36.05672622678392,1, #カレー
YELLOW（イエロー）,2021-03-25,東京都,139.72703101583724,35.68757398019289,1, #カレー
Kusaka Curry ROYAL 阪急梅田三番街店,2021-03-24,大阪府,135.49835085129487,34.70590974169727,1, #カレー
スープカレー ムラカリータ,2021-03-20,東京都,139.71459982926038,35.56394999876386,1, #カレー
金沢カレー 多治見店,2021-03-19,岐阜県,137.11089341296355,35.34245048027468,1, #カレー
わが家の牛タンカレー,2021-03-18,東京都,139.41921387901368,35.69307011302648,1, #カレー
CRAZY SPICE アクロスモール泉北店,2021-03-17,大阪府,135.49816142873283,34.47986857375169,1, #カレー
カリー＆焼きたてナン DIYA express,2021-03-16,千葉県,139.93113074303432,35.43323200934843,1, #カレー
イエロースパイス 那覇テーブル,2021-03-15,沖縄県,127.67857770545463,26.217075983432018,1, #カレー
BIRTH DINING by plein,2021-03-13,東京都,139.73973782926043,35.65509859876252,1, #カレー
カレーワールド月寒店,2021-03-12,北海道,141.3958346159979,43.02581267914776,1, #カレー
100時間カレー ジアウトレット広島店,2021-03-09,広島県,132.3956441158117,34.40988178051011,1, #カレー
松屋 府中本町店（マイカリー食堂併設）,2021-03-08,東京都,139.4764688292605,35.66684899876239,1, #カレー
辛口カレー専門店 ふじ山,2021-03-07,大阪府,135.5116375682849,34.699341513937455,1, #カレー
本格インド料理ナマステ ゆめシティ新下関店,2021-03-06,山口県,-1,-1,1, #カレー
スパイス越境,2021-03-04,東京都,139.4175058292605,35.704523998761815,1, #カレー
ゴーゴーカレー和歌山紀ノ川スタジアム,2021-03-04,和歌山県,135.15310581294213,34.25596968055104,1, #カレー
ゴーゴーカレー監修 金沢カレー研究所 つくば店,2021-03-03,茨城県,140.0814584158451,36.08376808010238,1, #カレー
林香喱 （ハヤシカリー）,2021-02-27,大阪府,135.6857798977264,34.84505299585752,1, #カレー
インドカレーラッキー,2021-02-26,青森県,141.46120112776927,40.54315467935058,1, #カレー
Rojiura Curry SAMURAI. イオンモール苫小牧店,2021-02-25,北海道,141.64193072781794,42.65640487916811,1, #カレー
Yellow2 （イエローツー）,2021-02-22,福井県,136.22008585408332,36.096015680099775,1, #カレー
ceylon spot,2021-02-21,埼玉県,139.7773021056278,35.922635480138716,1, #カレー
喫茶ベニ屋,2021-02-17,鳥取県,134.229064005764,35.49675314562514,1, #カレー
元祖「飯系カリー」専門店カレーなジカン,2021-02-16,北海道,141.2925298131332,43.10343407914399,1, #カレー
CURRY SHOP VELVET kitchen,2021-02-16,香川県,133.6891821171581,34.13536609824235,1, #カレー
かわはらすぱいす食堂,2021-02-15,福岡県,130.41036142925805,33.592531498795864,1, #カレー
味街道 エスモール店,2021-02-13,山形県,139.83164145511333,38.73922894795255,1, #カレー
こくりのカレー家,2021-02-10,大阪府,135.59261460560083,34.57359728046741,1, #カレー
無添加スープカレー＆スパイスカレーCOSMOS 川崎ルフロン,2021-02-08,神奈川県,139.69617422766254,35.529401280229976,1, #カレー
まな愛カレー,2021-02-08,東京都,139.70716502926052,35.64567349876266,1, #カレー
ターバンカレー麻生店,2021-02-07,北海道,141.3385702804884,43.10768726560632,1, #カレー
大分中央カレークラブ,2021-02-05,大分県,131.68237784684584,33.25380969868083,1, #カレー
淡路島カレー甲斐路,2021-02-04,山梨県,138.56997082926054,35.66279149876239,1, #カレー
カレーハウスCoCo壱番屋 若松藤ノ木駅前店,2021-02-03,福岡県,130.78275842924234,33.89330559879058,1, #カレー
Columbia8(コロンビアエイト) 名古屋金山店,2021-02-01,愛知県,136.90126520561216,35.141693580323505,1, #カレー
日乃屋カレー 宇多津店,2021-01-31,香川県,133.81128197137357,34.307988747928135,1, #カレー
100時間カレー etto宮島口店,2021-01-27,広島県,132.30407020263084,34.311908634174024,1, #カレー
100時間カレー 御経塚店,2021-01-27,石川県,136.59993780564045,36.55017538000081,1, #カレー
NISHIKIYA KITCHEN 仙台パルコ店,2021-01-26,宮城県,140.88147690567658,38.26196877967357,1, #カレー
松のや 志村坂上店（マイカリー食堂併設）,2021-01-26,東京都,139.69449560562472,35.7761868801723,1, #カレー
和平カレー,2021-01-20,福岡県,130.4264139756571,33.64558266118487,1, #カレー
スパイスカレーGOCHI,2021-01-20,富山県,136.97618525894234,36.68542744414015,1, #カレー
バルと,2021-01-20,デリと,スパイスカレー ashitamo-iihi,栃木県,0, #カレー
アジアンコンフォート東京,2021-01-17,東京都,139.73006970562443,35.76327178017525,1, #カレー
元祖小いけ七重浜店,2021-01-16,北海道,140.71137910575536,41.81831057922712,1, #カレー
金曜日のカレー屋さん,2021-01-08,北海道,141.35052220578442,43.05437247914647,1, #カレー
八Ｏ吉,2021-01-08,愛知県,136.9661857129604,35.1756898803152,1, #カレー
胡粋 スパイスカレー 下北沢dukesaloonにて間借り営業,2021-01-08,東京都,139.6672711748845,35.659960429299154,1, #カレー
カレーハウスCoCo壱番屋 市ヶ谷靖国通り店,2021-01-06,東京都,139.74116020562312,35.692249180191816,1, #カレー
CURRY GANG,2021-01-06,東京都,139.7221669477771,35.74327897635476,1, #カレー
curry&cafe M,2021-01-03,広島県,132.3661364105137,34.36604425179477,1, #カレー
MOTHER INDIA 三越前店,2020-12-31,東京都,139.77033121583722,35.68782768019281,1, #カレー
はまやカレー,2020-12-25,神奈川県,139.62868051583263,35.45479838024785,1, #カレー
スパイスタリテマスカ？,2020-12-22,福井県,136.2210874918791,36.08483352535021,1, #カレー
パキスタン料理 DERA 大曲店,2020-12-22,秋田県,140.5075208566843,39.43744052794864,1, #カレー
日乃屋カレー横須賀中央店,2020-12-21,神奈川県,139.6707780523575,35.27972253638769,1, #カレー
日乃屋カレー新小岩店,2020-12-21,東京都,139.85799560562376,35.71826438018567,1, #カレー
アユサダイニングお花茶屋,2020-12-20,東京都,139.8401725056242,35.74732828017904,1, #カレー
インドレストラン スパイスハウス,2020-12-18,愛知県,136.9828466292599,35.162104398769934,1, #カレー
PLANT Sapporo,2020-12-16,北海道,141.34362772927074,43.08995819869658,1, #カレー
ゴーゴーカレー 広島大手町スタジアム,2020-12-13,広島県,132.45594217409933,34.3916126594064,1, #カレー
日乃屋カレー松山市駅店,2020-12-12,愛媛県,132.7601553780043,33.83591145211729,1, #カレー
おだし食堂,2020-12-12,北海道,141.3568195282018,43.05790571075016,1, #カレー
100時間カレー エミフルMASAKI店,2020-12-11,愛媛県,132.71495442160224,33.78925965137422,1, #カレー
インデアンカレー 水戸市役所前店,2020-12-10,,140.47045361298433,36.364949880040605,1, #カレー
和牛ハンバーグ＆欧風カレー 木の葉亭・さくらカリー,2020-12-09,京都府,135.77288152925942,34.820104198775255,1, #カレー
カレー屋キック,2020-12-08,茨城県,140.49372211298393,36.353852380043044,1, #カレー
パンカレー,2020-12-07,宮崎県,131.423188829256,31.91587309882756,1, #カレー
スパイスカレー tirupati,2020-12-06,岡山県,133.7492545411696,34.67539652109681,1, #カレー
金曜日のカレー屋さん,2020-12-04,北海道,141.35011182782725,43.05437247914647,1, #カレー
Darjeeling Spice 中井店,2020-12-03,東京都,139.6878544056236,35.71546558018643,1, #カレー
Komi’z,2020-12-01,東京都,139.77012982926055,35.693164998762015,1, #カレー
MAJI CURRY / マジカレーマルイファミリー志木店,2020-11-29,埼玉県,139.57188651583994,35.8234622801614,1, #カレー
松屋 豊洲IHIビル店（マイカリー食堂併設）,2020-11-29,東京都,139.79365805082568,35.659324627623356,1, #カレー
松屋 天理店（マイカリー食堂併設）,2020-11-29,奈良県,135.83614882925917,34.595572998778835,1, #カレー
肉盛りカレー野郎,2020-11-28,長野県,138.44663560564828,36.92371107992333,1, #カレー
日乃屋カレー東仙台店,2020-11-27,宮城県,140.9253173130245,38.2820346296704,1, #カレー
ヘラディワ 北条店,2020-11-22,茨城県,140.08706911292063,36.175376628585795,1, #カレー
100時間カレー イオンモール新潟南店,2020-11-18,新潟県,139.0803508292473,37.87613599873381,1, #カレー
大衆カレーたまき,2020-11-16,兵庫県,135.37458382925942,34.73985199877653,1, #カレー
Rojiura Curry SAMURAI 福岡警固店,2020-11-16,福岡県,130.39003510558143,33.5835811807361,1, #カレー
來,2020-11-14,北海道,141.37350282927062,43.04680499869669,1, #カレー
松のや / マイカリー食堂 蕨西口店,2020-11-14,埼玉県,139.6889938292607,35.82821399876004,1, #カレー
京CURRY ROKUMEI,2020-11-13,京都府,135.76516082925966,35.00446799877238,1, #カレー
金曜日のカレー屋さん,2020-11-13,北海道,-1,-1,1, #カレー
咖喱＆カレーパン 天馬 イオンモールナゴヤドーム前店,2020-11-12,愛知県,136.94454888153768,35.18713299838882,1, #カレー
松屋 金沢八景店 （マイカリー食堂併設）,2020-11-11,神奈川県,139.62034982926002,35.33163799876733,1, #カレー
negombo33 川越,2020-11-08,埼玉県,139.48275730562756,35.91913838013959,1, #カレー
100時間カレー イオンモール倉敷店,2020-11-08,岡山県,-1,-1,1, #カレー
女王さまのスパカリー,2020-11-01,福岡県,130.4022557055815,33.58468028073579,1, #カレー
Nasu Farm Village,2020-10-31,栃木県,140.09768380418646,36.8420409972918,1, #カレー
ミスターカレー北海道 アリオ上尾店,2020-10-29,none,139.5638476158428,35.961736680129775,1, #カレー
Spice Kingdom イオンモール日吉津店,2020-10-26,鳥取県,133.38537029861652,35.445833150448934,1, #カレー
カレーハウスCoCo壱番屋 加須愛宕店,2020-10-26,埼玉県,139.5852178292611,36.132713998755705,1, #カレー
カレーハウスCoCo壱番屋 BINO栄店,2020-10-26,愛知県,136.90598682925992,35.16914999876981,1, #カレー
CURRY ZONEカリーゾーン熱田店,2020-10-25,愛知県,136.8924608292599,35.13475399877034,1, #カレー
いろり まつもと,2020-10-25,福岡県,130.76765590558696,33.8648659806573,1, #カレー
松屋 北谷美浜店（マイカリー食堂併設）,2020-10-24,沖縄県,127.7597764128039,26.316062883388266,1, #カレー
横須賀海軍カレー本舗 ベイサイドキッチン,2020-10-22,神奈川県,139.66055831582906,35.28324168028903,1, #カレー
Peace Cafe 横浜ジョイナス店,2020-10-21,神奈川県,139.62055090149684,35.46521553451027,1, #カレー
RAMOS CURRY （ラモスカレー）,2020-10-20,東京都,139.70012650145986,35.713679083317466,1, #カレー
スープカリーばぐばぐ 郡山店,2020-10-18,福島県,-1,-1,1, #カレー
インドカレーダンニャバードみはら,2020-10-16,広島県,133.08511961581152,34.39886708051297,1, #カレー
ベンガルカレー亭マンナン,2020-10-16,秋田県,140.09551351041668,39.75266052336712,1, #カレー
咖喱&カレーパン 天馬 イオンレイクタウンmori店,2020-10-15,埼玉県,139.82583331584112,35.88203898014795,1, #カレー
発酵食堂CHIMA CHIMA,2020-10-15,大阪府,135.46219032925939,34.81758049877532,1, #カレー
松屋 岡山下中野店 （マイカリー食堂併設）,2020-10-10,岡山県,133.9032132976515,34.63975268633632,1, #カレー
SPICE DREAM 神戸店,2020-10-08,兵庫県,-1,-1,1, #カレー
idematsu,2020-10-08,大阪府,135.50470882925927,34.698540998777176,1, #カレー
KANDY SPICE(キャンディスパイス) 弘前店,2020-10-06,青森県,-1,-1,1, #カレー
カレーハウスCoCo壱番屋 堺浜寺石津店,2020-10-06,大阪府,135.4529798292591,34.562214998779424,1, #カレー
日乃屋カレー横浜石川町店,2020-10-02,神奈川県,139.64218082926024,35.4394969987657,1, #カレー
curry&quiche&bar たかおかcafe,2020-09-30,愛知県,136.92082100561274,35.17934628031428,1, #カレー
LEO′N HEART(レオンハート),2020-09-25,長崎県,130.3464616539321,32.69984203808887,1, #カレー
東京コロンボ,2020-09-20,東京都,139.70430670562297,35.69393508019144,1, #カレー
男気豚カツカレー 神保町店,2020-09-17,東京都,139.75675582924447,35.697262998761936,1, #カレー
かれいぱんや,2020-09-16,愛知県,136.88364210561303,35.17759168031483,1, #カレー
カレーハウスCoCo壱番屋 西成区津守店,2020-09-11,大阪府,135.48437921294993,34.64637058044843,1, #カレー
カレーハウスCoCo壱番屋 小倉北区西港店,2020-09-11,福岡県,130.8513778582793,33.89949999516195,1, #カレー
Rojiura Curry SAMURAI. グランフロント大阪,2020-09-09,大阪府,135.49265021581778,34.704599280433484,1, #カレー
カレー サファリ,2020-09-09,東京都,139.6901712860028,35.66792922769977,1, #カレー
男気豚カツカレー 渋谷店,2020-09-09,東京都,139.69724582924442,35.659520998762446,1, #カレー
C8 Soup Curry&808,2020-09-08,北海道,141.32371072927057,43.06765499869659,1, #カレー
わしの遠吠え,2020-09-07,広島県,132.45544950559713,34.3860146805164,1, #カレー
日乃屋カレー大船店,2020-09-06,神奈川県,139.52989101583054,35.35424848027179,1, #カレー
日乃屋カレー 虎ノ門店,2020-09-06,東京都,139.7477888056226,35.66861088019723,1, #カレー
日乃屋カレー なんばウォーク店,2020-09-06,大阪府,135.49909282924315,34.66723699877772,1, #カレー
日乃屋カレー飯田橋アイガーデンテラス店,2020-09-06,東京都,139.74994461297084,35.70104488018968,1, #カレー
日乃屋カレー上野アメ横店,2020-09-06,東京都,139.77463581297096,35.710934280187374,1, #カレー
ベビーダ カレー工場 名古屋黒川店,2020-09-05,愛知県,136.91139621296054,35.19946738030946,1, #カレー
94Store,2020-09-04,北海道,141.53751461312183,42.616432679170416,1, #カレー
タラキッチン 北浜店,2020-09-02,大阪府,135.5085331056029,34.68869308043768,1, #カレー
ゴーゴーカレー グランエミオ所沢パーク,2020-09-01,埼玉県,139.4724188292446,35.78641199876065,1, #カレー
神戸スタミナカレー神栖,2020-08-31,茨城県,140.6470688292608,35.89596199875909,1, #カレー
100時間カレーEXPRESSニッケコルトンプラザ店,2020-08-27,千葉県,139.93331091282818,35.71702828727869,1, #カレー
CURRY SHOPゴチカレー,2020-08-23,神奈川県,139.3755608292604,35.574207998763704,1, #カレー
ミルカツカレー専門店 金沢ミルカツカレー,2020-08-19,石川県,136.61795982926165,36.546211998750096,1, #カレー
三ツ星咖喱 大和八木店,2020-08-17,奈良県,135.79193292314042,34.512082156024306,1, #カレー
with curry（ウィズカレー）,2020-08-12,福島県,140.38197151587244,37.396621079830055,1, #カレー
Rojiura Curry SAMURAI.札幌駅アピア,2020-08-06,北海道,141.3502146966413,43.067211446825226,1, #カレー
俺たちカレー部。 神戸元町店,2020-08-01,兵庫県,135.1880578056031,34.68775908043791,1, #カレー
札幌スープカレー LOGO65 （ロゴロゴ）,2020-08-01,北海道,141.35922482927072,43.095913998696496,1, #カレー
ビリヤニ専門店 INDIA GATE,2020-07-31,京都府,135.7566392706254,35.00497459035654,1, #カレー
スープカレー森のバター,2020-07-30,北海道,142.38498700580067,43.73902637911844,1, #カレー
シチサンカレー(73カレー),2020-07-30,京都府,135.76131882925975,35.00506499877235,1, #カレー
カレー＆スープカレーニューストーリー,2020-07-29,北海道,140.9907354257316,43.20085948912889,1, #カレー
三ツ星咖喱 橿原神宮前店,2020-07-27,奈良県,-1,-1,1, #カレー
ガラムマサシ,2020-07-27,京都府,135.7271294608841,34.99464509051136,1, #カレー
満点カレー PASAR幕張上り,2020-07-24,千葉県,140.05271701535938,35.669389123360254,1, #カレー
カレーハウスCoCo壱番屋 北区西天満五丁目店,2020-07-24,大阪府,135.5078452051954,34.69796998043528,1, #カレー
マーヤカレー,2020-07-24,兵庫県,135.27355750560378,34.72019798042949,1, #カレー
FISH 丸の内店,2020-07-23,東京都,139.76650860562285,35.684016480193726,1, #カレー
苫小牧いぶりカレー,2020-07-22,北海道,141.59622382927003,42.639677998698076,1, #カレー
スパイスカレー専門店 アヤカリ亭,2020-07-21,茨城県,140.1197197771574,36.10912011154279,1, #カレー
燻製カレー 京都円町店,2020-07-21,京都府,135.72996840560953,35.02096798035366,1, #カレー
SPICE LOCAL,2020-07-19,北海道,141.34296382927064,43.068175998696645,1, #カレー
おやじカレー&バル,2020-07-17,兵庫県,135.2765378292594,34.726901998776725,1, #カレー
GoodLuckCurry,2020-07-16,東京都,139.70836270562228,35.65101678020138,1, #カレー
Spice Garden（スパイスガーダン）,2020-07-12,茨城県,139.76294561298062,36.180632680080905,1, #カレー
Chai Lab.(チャイラボ),2020-07-10,宮城県,140.98806791302417,38.27012447967237,1, #カレー
カカカカリィ,2020-07-04,宮城県,140.88520710567636,38.257236679674556,1, #カレー
ANDY CURRY アンディーカリー,2020-06-25,愛知県,136.90760628369858,35.163663656920626,1, #カレー
MAJI CURRY / マジカレー  有明ガーデン店,2020-06-23,東京都,139.79221407897563,35.63835799559096,1, #カレー
Spice curry cumin,2020-06-23,島根県,133.0477506991502,35.46864469428806,1, #カレー
タイプレミアムカレー CHADA,2020-06-19,宮城県,140.8707068292638,38.256696998729666,1, #カレー
カレーハウスCoCo壱番屋 岡崎インター店,2020-06-18,愛知県,137.19313990560795,34.94000568037384,1, #カレー
SOUPCURRY TREASURE,2020-06-17,北海道,141.3568080067919,43.05839610360531,1, #カレー
インデアンカレー 大手町店,2020-06-17,東京都,139.76203265828818,35.68772699504817,1, #カレー
fellows(フェローズ),2020-06-16,兵庫県,135.39170982925933,34.75115399877638,1, #カレー
カレー食堂心 西新宿店,2020-06-14,東京都,139.69208721297065,35.691212880192076,1, #カレー
マイカリー食堂 新井薬師前店（松屋併設）,2020-06-11,東京都,139.67147690562342,35.71555078018615,1, #カレー
SOUP CURRY TREASURE,2020-06-08,北海道,141.35675310578452,43.05826357914606,1, #カレー
negombo33 ゴールデン街,2020-06-07,東京都,139.70430670562297,35.69393508019144,1, #カレー
宮本カレー,2020-06-03,京都府,135.69596720560904,34.99081118036097,1, #カレー
カレー部,2020-06-01,東京都,139.72566582926052,35.68818699876198,1, #カレー
野菜を食べるカレーcamp 渋谷道玄坂店,2020-05-29,東京都,139.69605390581708,35.65788688019982,1, #カレー
TAKEOUT＆DELIVERY専門店 Rojiura Curry SAMURAI. 円山ベース,2020-05-24,北海道,141.3052228057842,43.04519497914678,1, #カレー
魔女の一撃カレー,2020-05-07,東京都,139.6806798157689,35.69607698643584,1, #カレー
カリー＆ワヰン ビストロべっぴん舎 神保町店,2020-05-06,東京都,139.7588302680657,35.69683101603539,1, #カレー
肉だくカレー PAIKA45,2020-05-04,北海道,141.3636432390144,43.07863356248107,1, #カレー
Wafu Curry Cotocoto,2020-05-01,東京都,-1,-1,1, #カレー
カレーハウスCoCo壱番屋 兵庫太子町店,2020-04-30,兵庫県,134.58673082926015,34.83329599877503,1, #カレー
カレーハウスCoCo壱番屋 佐倉ユーカリが丘店,2020-04-30,千葉県,140.15527241244445,35.72765198018361,1, #カレー
スパイスカレーミルズ阪急川西能瀬口駅前店,2020-04-24,兵庫県,135.41241282780655,34.82653008040238,1, #カレー
ゴーゴーカレー下関シーモールパーク,2020-04-24,山口県,130.92353921311894,33.949071680634084,1, #カレー
マイカリー食堂 豊田店,2020-04-23,東京都,139.38015682926107,35.66049399876245,1, #カレー
マイカリー食堂 水天宮店,2020-04-23,東京都,139.7833891058176,35.68311318019383,1, #カレー
NATUREMIAN spice curry,2020-04-23,京都府,135.76670600580428,35.017107180354465,1, #カレー
スープカレーRYUCO龍虎,2020-04-22,北海道,140.72706882926929,41.77432199870189,1, #カレー
ハバカ-る富田店,2020-04-17,福島県,140.3590964716736,37.41780397994771,1, #カレー
ゴーゴーカレー 本厚木駅前スタジアム店,2020-04-14,神奈川県,139.3647201058128,35.4406312802512,1, #カレー
ゴーゴーカレー 京都丹波口駅前スタジアム店,2020-04-14,京都府,135.74154210580386,34.99642408035969,1, #カレー
タージマハルエベレスト 大宮店,2020-04-12,京都府,135.74998150580515,35.0571160803444,1, #カレー
タイガーカレー,2020-04-10,東京都,139.70846020581683,35.64810908020201,1, #カレー
CURRY＆GRILL 葡萄匠屋,2020-04-10,大阪府,135.49722731582736,34.698778780434935,1, #カレー
本格インドカレーエイムズ-eim’s,2020-04-06,神奈川県,139.33700622926105,35.59824449876334,1, #カレー
カレーハウスCoCo壱番屋 広島三次店,2020-04-02,広島県,132.87343051313553,34.80581158040759,1, #カレー
Spice Bistro MAcurry（スパイスビストロ マカリ）,2020-04-02,北海道,141.40922152927124,43.050841698696686,1, #カレー
トミヤマカレー,2020-04-01,東京都,139.72774082926122,35.730708998761415,1, #カレー
スパイスカレー専門店 虜-TORIKO-,2020-03-30,東京都,139.6697828292611,35.64407699876273,1, #カレー
かつかつカレー 玉造店,2020-03-26,大阪府,135.5323658292599,34.67403799877759,1, #カレー
日乃屋カレー秋田市民市場店,2020-03-25,秋田県,140.12544401323768,39.71466577945281,1, #カレー
松屋 / マイカリー食堂 梶が谷店,2020-03-25,神奈川県,139.60504009909567,35.59425249414282,1, #カレー
バタチキラバー,2020-03-22,福岡県,130.39526990577642,33.58452798073575,1, #カレー
フルハウス ブックカフェ,2020-03-20,福島県,140.99175071588542,37.56375907979843,1, #カレー
soupcurry 空海,2020-03-17,栃木県,139.61561860583924,36.74951857995904,1, #カレー
曲がり角の間借りカレー 春日部の良ちゃん,2020-03-16,埼玉県,139.7549988058234,35.97869368012599,1, #カレー
欧風カレー919クイック五輪店,2020-03-15,宮城県,140.90404440587096,38.26467047967315,1, #カレー
カレーショップＣ＆Ｃ中央林間店,2020-03-13,神奈川県,139.4435866581654,35.507386995058816,1, #カレー
NOT CURRY(ノットカレー) 名古屋店,2020-03-11,愛知県,136.94525304232704,35.13837528592399,1, #カレー
マボカリ(麻婆咖喱),2020-03-10,大阪府,135.50473170579755,34.663531880444204,1, #カレー
エリックサウス 高円寺カレー＆ビリヤニセンター,2020-03-10,東京都,139.6519328931213,35.70554835971651,1, #カレー
Curry&Cafe bar Cfarm,2020-03-10,静岡県,138.90131456646066,35.10994245097694,1, #カレー
カレーハウス チリチリ,2020-03-09,埼玉県,139.6779309168197,35.80729132862597,1, #カレー
カレーダイニングCooo （クー）,2020-03-08,大阪府,135.4964608057988,34.729323480427205,1, #カレー
日乃屋カレー仙台定禅寺通店,2020-03-06,宮城県,140.8728608292645,38.26677399872959,1, #カレー
日乃屋カレー 十日市店,2020-03-05,岡山県,133.92394841258383,34.63911592433129,1, #カレー
ケニックカレー,2020-03-04,東京都,139.69809766262307,35.66114360443481,1, #カレー
カレー独歩ちゃん,2020-03-03,東京都,139.65926651315328,35.70526088018874,1, #カレー
溝ノ口カレー,2020-02-29,神奈川県,139.61272750581588,35.59836608021377,1, #カレー
zukekura DELI&CAFE,2020-02-28,兵庫県,135.3455248058003,34.80544928040772,1, #カレー
咖喱屋ボングー NEWoMan新宿店,2020-02-26,東京都,139.70191689471943,35.688601047637924,1, #カレー
マイカリー食堂 赤坂店,2020-02-26,東京都,139.7344958292612,35.67085999876224,1, #カレー
カレーハウスCoCo壱番屋 大竹南栄店,2020-02-24,広島県,132.22561982925933,34.213727998785146,1, #カレー
curry stand baimai（カレースタンド バイマイ）,2020-02-22,群馬県,139.00589550583055,36.330494780048056,1, #カレー
かつかつカレー888 中之島,2020-02-21,大阪府,135.48920820579818,34.69200668043672,1, #カレー
グローバルカレーハウス イオンタウン姫路店,2020-02-19,兵庫県,-1,-1,1, #カレー
かつかつカレー888 LINKS UMEDA,2020-02-18,大阪府,135.49541772925994,34.704507298777074,1, #カレー
発酵スープカレー ミコヤ,2020-02-11,神奈川県,139.63243682926097,35.537150998764254,1, #カレー
路地裏キッチン ヨネモンカレー,2020-02-05,兵庫県,135.18421582925993,34.688070998777384,1, #カレー
ゴーゴーカレー屋島スタジアム,2020-02-04,香川県,134.09623441606945,34.33939756944555,1, #カレー
創作スパイス かれはだれ,2020-02-04,東京都,139.69572700581674,35.64107558020388,1, #カレー
ピワン,2020-02-02,東京都,139.57759420581797,35.706571080188496,1, #カレー
おもひやりカフヱー イオン尼崎店,2020-02-01,兵庫県,135.44023341582817,34.74207188042389,1, #カレー
三軒茶屋カリガリマキオカリー,2020-01-29,東京都,139.66982582926104,35.64245099876276,1, #カレー
カレー倶楽部ルウ 寺田町駅前店,2020-01-26,大阪府,135.52460530579697,34.64818888044796,1, #カレー
かつかつカレー888 天四店,2020-01-21,大阪府,135.51113000579815,34.70447878043347,1, #カレー
MAROLOGA bhavan （マロロガ バワン）,2020-01-20,東京都,139.6675478292612,35.71304399876169,1, #カレー
マイカリー食堂 高田馬場店,2020-01-16,東京都,139.70481629278055,35.712954998610016,1, #カレー
カレー倶楽部ルウ南森町店,2020-01-13,大阪府,135.5111248292599,34.696451998777185,1, #カレー
E-itou Curry（エイトカリー）,2020-01-11,東京都,139.66875282926117,35.662706998762424,1, #カレー
日乃屋カレー 一宮店,2019-12-25,愛知県,136.76637561314539,35.31059018028237,1, #カレー
samo curry,2019-12-23,神奈川県,139.65005382926097,35.53542099876431,1, #カレー
咖喱＆カレーパン 天馬 イオンモール橿原店,2019-12-19,奈良県,135.7623538292436,34.507192998780255,1, #カレー
SOUTH WONDER CURRY（サウスワンダーカレー）,2019-12-14,東京都,139.70123573052084,35.691244441384505,1, #カレー
かつかつカレー 888 江戸堀店,2019-12-10,大阪府,135.492873422336,34.68948631440643,1, #カレー
京FUJIHARUカレー,2019-12-06,京都府,135.55362070580455,35.029111880351536,1, #カレー
Route346（ルート346）,2019-12-05,長野県,138.249669829262,36.40213099875203,1, #カレー
DIP RASNAディップラスナ イオンタウン山科椥辻店,2019-12-05,京都府,135.81562582926034,34.97383899877284,1, #カレー
soratobu kaori （ソラトブ カオリ）,2019-12-03,大阪府,135.49013730579796,34.68507318043845,1, #カレー
takecurryテイクカリー,2019-12-02,東京都,139.7174048292611,35.64551399876266,1, #カレー
カレーの店 no curry,2019-11-28, no life.（ノーカレー ノーライフ）,東京都,139.65299982926118,0, #カレー
KING CURRY RASORA,2019-11-27,北海道,141.38266088155225,43.054182998293385,1, #カレー
100時間カレーEX マルイファミリー溝口店,2019-11-26,神奈川県,139.6107915158451,35.59899018021358,1, #カレー
spicecurry&bal FANFARE with spice32,2019-11-23,大阪府,135.46322320675753,34.78828146740869,1, #カレー
J.S. CURRY みなとみらい東急スクエア店,2019-11-19,神奈川県,139.63063791584227,35.45632348024733,1, #カレー
MAJI CURRY (マジカレー) 赤坂見附店,2019-11-17,東京都,139.7349218292612,35.67660799876222,1, #カレー
SPICE HOUSE YU,2019-11-15,宮城県,131.39187670673422,31.914873368783564,1, #カレー
spicecurry＆cafe Buzz（スパイスカリー＆カフェ バズ ）,2019-11-15,和歌山県,135.29677071408017,34.26138096778306,1, #カレー
ララカレー イワタハレパル,2019-11-12,静岡県,137.84945794022622,34.69747899764681,1, #カレー
TOKYO MIX CURRY トウキョウミックスカリー六本木,2019-11-12,東京都,139.7288115067634,35.66462456705047,1, #カレー
Mrs.Dada（ミセス ダダ ）,2019-11-11,東京都,139.76892682926112,35.672859998762256,1, #カレー
神戸カレー食堂 ラージクマール,2019-11-10,兵庫県,135.18881693688238,34.691585204390144,1, #カレー
インデアンカレー中目黒,2019-11-10,東京都,139.69708682926114,35.646282998762665,1, #カレー
スープカレーバル スパイスゲート 札幌すすきの店,2019-11-01,北海道,141.35264482927116,43.05279999869666,1, #カレー
100時間カレーイオンモール宮崎店,2019-10-29,宮崎県,131.45421351577474,31.92262778123835,1, #カレー
神戸居留地オリエンタルカレー ピオレ明石店,2019-10-28,兵庫県,134.99267082925982,34.64921499877799,1, #カレー
カレーショップ初恋＆スパイスバルキメラ,2019-10-25,東京都,139.6961768292611,35.65710799876249,1, #カレー
スパイスパレット,2019-10-24,東京都,139.77531282926114,35.70080399876186,1, #カレー
寝かせ玄米とカレー＆スパイスnuka 東急フードショーエッジ店,2019-10-19,東京都,139.70232915776882,35.65840260821517,1, #カレー
カレーショップ イエロー,2019-10-18,神奈川県,139.554385829261,35.56861799876381,1, #カレー
100時間カレー ファボーレ店,2019-10-18,富山県,137.1706138041873,36.66174499729677,1, #カレー
カレーハウスCoCo壱番屋 西鉄平尾駅前店,2019-10-16,福岡県,130.40611682925862,33.57295999879622,1, #カレー
TABI BAR & CAFE from SUZUVEL,2019-10-11,新潟県,139.06135670586966,37.912315249642475,1, #カレー
咖喱&カレーパン 天馬 武蔵小杉東急スクエア店,2019-10-11,神奈川県,139.65897432343894,35.575918329058986,1, #カレー
KARILAND,2019-10-07,東京都,139.7537318292611,35.66412599876241,1, #カレー
スープカレーBAR 和光商店,2019-10-07,愛知県,136.96380082926052,35.16046199876991,1, #カレー
吉祥寺ハバカーる,2019-10-07,東京都,139.57492682926116,35.70431099876179,1, #カレー
DEAN & DELUCA カフェ新百合丘OPA,2019-10-03,神奈川県,139.50638547985457,35.60364294192715,1, #カレー
Hokkaido Soup Curry Suage 丸の内店,2019-10-02,東京都,139.76201982924502,35.67856499876215,1, #カレー
夙川カレー食堂trinity,2019-10-02,兵庫県,135.32672041484528,34.74132340454362,1, #カレー
スパイスカレー ミルズ,2019-09-30,兵庫県,-1,-1,1, #カレー
カレーハウスCoCo壱番屋 愛甲石田店,2019-09-30,神奈川県,139.34122881408743,35.41669636730465,1, #カレー
カレーと珈琲 シモンフッド,2019-09-29,群馬県,138.78246182926185,36.21240999875462,1, #カレー
ゼロワンカレー,2019-09-27,東京都,139.7428268292612,35.64742299876267,1, #カレー
MODECURRY,2019-09-20,埼玉県,139.28402136965175,36.18207633400242,1, #カレー
おうち△,2019-09-20,兵庫県,135.1909758292599,34.695963998777195,1, #カレー
HOUSE QWAEL SPICE,2019-09-20,大阪府,135.50033982924384,34.67318599877763,1, #カレー
LaLaカレー オンタケ店　,2019-09-14,長野県,137.40488092574694,35.807150738181655,1, #カレー
LEMON STAND 広島,2019-09-11,広島県,132.45838140674874,34.39248056757337,1, #カレー
スープカレー しゃば蔵,2019-09-10,北海道,-1,-1,1, #カレー
MAJI CURRY あべのHoop店,2019-09-09,大阪府,135.51339671815518,34.64513942557732,1, #カレー
soko (倉庫カリー円山店),2019-09-09,北海道,141.3206336030285,43.05550715306958,1, #カレー
カレー屋エデン,2019-09-08,東京都,139.69175690581864,35.73355138018194,1, #カレー
カレーハウスあんくる 北方店,2019-09-08,福岡県,130.86864282925887,33.82745799879173,1, #カレー
スープカレーlavi ルトロワ店,2019-09-06,北海道,141.3556182068232,43.060315065301765,1, #カレー
ゴーゴーカレー メルクス山口スタジアム,2019-09-05,山口県,131.43356782925926,34.1364429987865,1, #カレー
カレースタンド204イオンスタイル仙台卸町店,2019-08-29,宮城県,140.9180310495711,38.25225396138035,1, #カレー
カレーハウスCoCo壱番屋 堺インター店,2019-08-25,大阪府,135.48908141407355,34.508007967673734,1, #カレー
カレーハウスCoCo壱番屋 和歌山黒田店,2019-08-25,和歌山県,135.1927218292594,34.235679998784796,1, #カレー
スパイスカレー MANTRA,2019-08-20,東京都,139.6517073067644,35.70538196703513,1, #カレー
創作カレーMANOS,2019-08-16,東京都,139.6681308292612,35.64829499876258,1, #カレー
もとむのカレーパン 瀬長島ウミカジテラス店,2019-08-10,沖縄県,127.63995482925067,26.17691299896564,1, #カレー
日乃屋カレー 秋田店,2019-08-07,秋田県,140.096637314122,39.738333265964414,1, #カレー
カレー＆ナポリタン専門店 カレのナポリ 馬込店,2019-08-04,東京都,139.714075647148,35.594050608967656,1, #カレー
咖喱＆カレーパン 天馬 大阪NANBAなんなん店,2019-07-27,大阪府,135.50041282925983,34.66519499877769,1, #カレー
by Spice,2019-07-25,千葉県,139.8981447287226,35.78227236777478,1, #カレー
curry&cafe SAMA 千歳店,2019-07-20,北海道,141.6545888428458,42.82984814631713,1, #カレー
カレーハウスCoCo壱番屋 JR武蔵小金井駅北口店,2019-07-18,東京都,139.5066338281374,35.702471967809096,1, #カレー
カレーハウスCoCo壱番屋 (新) JR西船橋駅北口店,2019-07-18,千葉県,139.95777982926114,35.7094509987617,1, #カレー
カレーハウスCoCo壱番屋 中目黒山手通店,2019-07-18,東京都,139.69679541350396,35.64565996721025,1, #カレー
Cfarm 厚木店,2019-07-12,神奈川県,139.358774704825,35.50999419722352,1, #カレー
E-itouCurry35（エイトカリー35）,2019-07-10,北海道,141.3411674141506,43.101964165466576,1, #カレー
熟成とんかつマンマカリー,2019-07-08,大阪府,135.49425582925994,34.698969998777166,1, #カレー
スパイスカレー新海 大門店,2019-07-08,東京都,139.75361770676264,35.65613566705359,1, #カレー
路地裏のカレー屋さん ひまわり トマトチキンカレー&カフェ,2019-07-05,兵庫県,135.22246782925995,34.71262699877697,1, #カレー
宿借りカレー屋 マカリイ,2019-07-01,大阪府,135.4875641140859,34.706215467597616,1, #カレー
とんかつとカツカレーの店 キセキ食堂,2019-07-01,埼玉県,139.6922388292615,35.96536199875809,1, #カレー
幸福堂カレー 新宿御苑店,2019-07-01,東京都,139.71038400675812,35.688865367044265,1, #カレー
ミスターカレー イオン湯川店,2019-06-28,北海道,140.7918545159779,41.777644779230215,1, #カレー
エチオピアカリーキッチン 秋葉原店,2019-06-26,東京都,139.7715218292451,35.69846899876187,1, #カレー
ひみつカレー古沢店,2019-06-20,富山県,137.13960882924638,36.690120998748185,1, #カレー
カレー居酒屋 YELLOW（イエロー）,2019-06-17,大阪府,135.49431322925992,34.70462959877707,1, #カレー
タンドールとインドカリー 新宿ボンベイ,2019-06-16,東京都,139.7005736889022,35.68430278135418,1, #カレー
肉盛りスタミナカレー 一撃,2019-06-13,埼玉県,139.64757190536352,35.84428135135826,1, #カレー
Time is Curry（タイム イズ カリー）,2019-06-10,千葉県,139.9078198140884,35.72899986718167,1, #カレー
Diggin’ in the Curry（ディギンインザカリー）,2019-06-09,東京都,139.71724830676914,35.734347867023004,1, #カレー
カリーとワイン カリー屋MARU,2019-06-02,香川県,134.04763282925947,34.33183499878315,1, #カレー
106 South Indian ベイサイドプレイス博多店,2019-06-01,福岡県,130.3985508250924,33.603911631921726,1, #カレー
北海道スープカレーSuage 渋谷店,2019-05-26,東京都,139.70108471584635,35.65850688019957,1, #カレー
カレーハウス 令和,2019-05-20,東京都,139.72890092926096,35.58714089876352,1, #カレー
神戸居留地オリエンタルカレー スクラ三宮店,2019-05-16,兵庫県,135.1949554140795,34.69297326759976,1, #カレー
Spice Buono!（スパイスボーノ! ）,2019-05-13,愛知県,136.90312882926048,35.16697499876981,1, #カレー
Yeehaw,2019-05-12,兵庫県,135.27582282925994,34.729415998776744,1, #カレー
スープカレー奥芝商店 眞栄荘,2019-05-07,北海道,141.34755441414313,43.00495176546459,1, #カレー
CURRY DINING SHAHI カリーダイニング サヒ,2019-05-04,京都府,135.7260147098188,34.83437703167682,1, #カレー
日常 CURRY&SWEETS,2019-05-01,東京都,139.53506461408466,35.7300042671754,1, #カレー
令和食堂むらた（セルフ）,2019-04-30,和歌山県,135.16123144100678,34.24505310418918,1, #カレー
カレー倶楽部ルウ清水寺二年坂店,2019-04-29,京都府,135.78002282926025,34.998245998772454,1, #カレー
ゴーゴーカレー高崎飯塚スタジアム,2019-04-28,群馬県,139.00842286410798,36.34349628334283,1, #カレー
ナイル  レイリア大橋店,2019-04-25,福岡県,130.42620982925857,33.55906399879644,1, #カレー
スパイス食堂サワキチ 梅田兎我野町店,2019-04-24,大阪府,135.503916999017,34.69899942897323,1, #カレー
kanakoのスープカレー屋さん BRANCH仙台店,2019-04-23,宮城県,140.8453592269572,38.31037358404843,1, #カレー
100時間カレーマリノアシティ福岡店,2019-04-17,福岡県,130.3221135291021,33.59523976387652,1, #カレー
カレーハウスCoCo壱番屋 関山田店,2019-04-12,岐阜県,136.8599448023868,35.46936243225568,1, #カレー
東京チャンプ,2019-04-06,東京都,139.80860591584718,35.71025598018745,1, #カレー
ヨガフレイム,2019-04-05,大阪府,135.51824872925988,34.665588798777726,1, #カレー
TAK CAFE Italian dishes & cakes,2019-04-01,神奈川県,139.44144682926083,35.472833998765175,1, #カレー
札幌スープカレーSha-La-La ウエストサイド店,2019-04-01,北海道,141.26795379636056,43.0729703748339,1, #カレー
J’s curry ジェイズカレー北堀江店,2019-03-31,大阪府,135.49521782925999,34.67415599877757,1, #カレー
スープカリー奥芝商店 女満別空港店,2019-03-27,北海道,144.15832882927236,43.88129299869464,1, #カレー
ジェロニモカリー&bar,2019-03-27,大阪府,135.4989938067522,34.669698467453586,1, #カレー
ON THE CURRY ハマサイト店,2019-03-18,東京都,139.75905841408502,35.656791667205624,1, #カレー
トライバルカリー,2019-03-18,大阪府,135.61750410675853,34.85085526737861,1, #カレー
ルーキーカレー 東京ドーム店,2019-03-17,東京都,139.75230587768334,35.704939434935895,1, #カレー
スパイスカレーBASARA,2019-03-15,神奈川県,139.67376082926094,35.55105799876402,1, #カレー
100時間カレー イトーヨーカドーららぽーと横浜店,2019-03-14,神奈川県,139.56432411584362,35.5171085802328,1, #カレー
金沢カレー ガレージ 中野店,2019-03-13,長野県,138.35982201409973,36.75548966680711,1, #カレー
いずみカリー グランフロント大阪店,2019-03-13,大阪府,135.4926629158274,34.70395858043359,1, #カレー
スープ&カフェ オルト （SOUP&CAFE ORTO）,2019-03-08,東京都,139.71090797582755,35.728011600714886,1, #カレー
カレーハウスCoCo壱番屋 門司駅前店,2019-03-07,福岡県,130.92994431521106,33.902633980646954,1, #カレー
欧風カレー PLUS,2019-03-04,東京都,139.63345182926102,35.653728998762546,1, #カレー
もうやんカレー 虎ノ門,2019-02-28,東京都,139.74579221309222,35.66404718387262,1, #カレー
100時間カレー 岩国駅前店,2019-02-27,山口県,132.22351082925925,34.17099199878586,1, #カレー
マイカリー食堂 上野店,2019-02-26,東京都,139.77784182926112,35.712964998761706,1, #カレー
ミスターカレーイオン余市店,2019-02-24,北海道,140.79797522879045,43.18561686610103,1, #カレー
100時間カレー サンリブシティ小倉店,2019-02-23,福岡県,130.90650061581044,33.83891218066463,1, #カレー
カレー屋ボヌール,2019-02-10,長崎県,129.87930682925764,32.74573699881135,1, #カレー
いきなりラクレットチーズ＋カレー 瀬口家,2019-02-08,東京都,139.6692502067603,35.66275946704903,1, #カレー
カレー&糀Dining 空とぶぞう,2019-01-30,宮城県,140.89012950678818,38.16811456620282,1, #カレー
カレーハウスCoCo壱番屋 稲城向陽台店,2019-01-29,東京都,139.4942806582904,35.63982299505102,1, #カレー
PEACE CURRY ピースカレー,2019-01-25,兵庫県,135.30617282925994,34.73213799877664,1, #カレー
ピカンティ 札幌琴似店,2019-01-23,北海道,141.30773043102786,43.08119379492794,1, #カレー
欧風カリードモン,2019-01-20,北海道,141.3700145068165,43.039754065302496,1, #カレー
カレー倶楽部ルウ梅田店,2019-01-12,大阪府,135.49897491408586,34.69882876758866,1, #カレー
ポーマの本格インドカレー 郡山店,2019-01-12,福島県,140.3851833067738,37.36755906644597,1, #カレー
咖喱＆カレーパン 天馬 サカエチカ店,2019-01-11,愛知県,136.9059618292605,35.16890099876979,1, #カレー
カレーハウスCoCo壱番屋 青葉区中山吉成店,2018-12-18,宮城県,140.82257482816348,38.298702966962225,1, #カレー
すまいるカレー,2018-12-11,愛知県,137.00861976707793,35.12250824391157,1, #カレー
 INDIAN SPICE FACTORY  （インディアンスパイスファクトリー）,2018-12-03,福岡県,130.44855967840175,33.52637176821729,1, #カレー
創八・ジェイズカレー 神保町白山通り店,2018-12-02,東京都,139.75663507033383,35.69736349876797,1, #カレー
日乃屋カレー×ラバール店,2018-11-30,鳥取県,133.24291088000865,35.500609780333626,1, #カレー
カレーハウスCoCo壱番屋 尾道新浜店,2018-11-29,広島県,133.1826235833365,34.40193252429093,1, #カレー
Sapporo Soup Curry JACK,2018-11-26,大阪府,135.48891500665292,34.67711116745016,1, #カレー
くんかれ 赤坂店,2018-11-26,東京都,139.73488517034997,35.67659599876828,1, #カレー
Negombo33 高円寺,2018-11-20,東京都,139.6506302784141,35.70466966728557,1, #カレー
スープカリーシーエス東京スカイツリー店,2018-11-20,東京都,139.80877307108872,35.711190967128296,1, #カレー
カレーハウスCoCo壱番屋 南区吉祥院店,2018-11-20,京都府,135.7242253152395,34.972055980365695,1, #カレー
カリー屋 POKHARA （ポカラ）,2018-11-18,栃木県,139.80402177109667,36.29549046690569,1, #カレー
カレーや マドラス 天理店,2018-11-16,奈良県,135.7981429710816,34.59662696758247,1, #カレー
グルグルカリー,2018-11-14,北海道,140.8016046797209,41.78176897951791,1, #カレー
ラッキーピエロ 港北大前店,2018-11-12,北海道,140.71595017034664,41.80893199833018,1, #カレー
北海道スープカレー専門店 雪道,2018-11-11,北海道,141.33162784724837,43.04747460157905,1, #カレー
カレー専門店 wild cats,2018-11-06,大阪府,135.49451917034852,34.67647999878353,1, #カレー
カレーハウスCoCo壱番屋イオンタウン川西店,2018-11-06,兵庫県,135.41473867999366,34.855313980491104,1, #カレー
カレーアパート トキワ荘,2018-11-04,福岡県,130.37948857103657,33.574585537501996,1, #カレー
DISC SPICE（ディスク スパイス）,2018-11-03,福岡県,130.52349607098353,33.32004395075517,1, #カレー
Magical Spice,2018-11-01,東京都,139.70218017034645,35.69499508792549,1, #カレー
クボカリー大名店,2018-11-01,福岡県,130.3921292709796,33.586187236889884,1, #カレー
スープカレー&サンドイッチcafe paso a paso,2018-10-29,埼玉県,139.3160426799677,36.16345031107862,1, #カレー
Diyoカレーイオンモール釧路昭和店,2018-10-24,北海道,144.3581644801169,43.02709500080948,1, #カレー
カレーハウスCoCo壱番屋 岐阜北方店,2018-10-17,岐阜県,136.68619531525152,35.412778980257684,1, #カレー
カレー倶楽部ルウ 難波中店,2018-10-14,大阪府,135.49883197099382,34.665195279735215,1, #カレー
TOM’S CURRY & COFFEE 京都四条烏丸店,2018-10-14,京都府,135.7545136799453,35.00390337452202,1, #カレー
カレー王国 柏店,2018-10-02,千葉県,139.9570956799623,35.882025126637544,1, #カレー
カレーハウスCoCo壱番屋 泉区松森店,2018-10-02,宮城県,140.91218331533304,38.303140979666765,1, #カレー
ザ・ラージ THE RAJ,2018-10-01,北海道,141.5313311801183,43.08810529690648,1, #カレー
カレーハウスCoCo壱番屋 岡崎矢作店,2018-09-29,愛知県,137.12971731523942,34.97040898036614,1, #カレー
神戸インドカレー ニューコースト新浦安店,2018-09-26,千葉県,139.9206797800747,35.642923980300274,1, #カレー
ゴーゴーカレー ゆめタウン博多スタジアム,2018-09-24,福岡県,130.41063029464053,33.61206265810517,1, #カレー
カレー専門店 プリー,2018-09-24,宮城県,140.8833418784246,38.266865566431456,1, #カレー
ポンガラカレー 大手町プレイス店,2018-09-23,東京都,139.76660182924294,35.6868540880307,1, #カレー
東京カレースタンド HATONOMORI,2018-09-22,東京都,139.77359860332263,35.681074271088924,1, #カレー
カレーハウスCoCo壱番屋 朝霞田島店,2018-09-19,埼玉県,139.6041483152624,35.81433398016353,1, #カレー
カレーの店 ガン爺,2018-09-13,東京都,139.7516045740372,35.667096478562556,1, #カレー
ひよこカレー,2018-09-09,秋田県,140.1254856190542,39.7141451665871,1, #カレー
カレーグリル勝志満 （カツシマ）,2018-09-08,山口県,131.47494827100692,34.174764605902816,1, #カレー
eki spices (エキスパイス),2018-09-05,広島県,132.47349047981137,34.39845900694786,1, #カレー
魚とカレーのお店,2018-08-27,神奈川県,139.48511017033965,35.34048209275142,1, #カレー
ミスターカレー イオン札幌西岡店,2018-08-26,北海道,141.38507598002445,43.01900210132707,1, #カレー
SAMA 明治神宮前店,2018-08-24,東京都,139.70596317034008,35.67017108826478,1, #カレー
カレーライフ,2018-08-23,長崎県,130.2052080782685,32.72588608151339,1, #カレー
カレーハウスCoCo壱番屋 ハラール新宿歌舞伎町店,2018-08-23,東京都,139.70187381130725,35.69569106064458,1, #カレー
土鍋スープカレー 近江屋清右衛門,2018-08-21,京都府,135.7681869709527,35.00483296142899,1, #カレー
咖喱＆カレーパン 天馬 アスティ静岡店,2018-08-06,静岡県,138.38765716750763,34.97202821157056,1, #カレー
カレーハウスCoCo壱番屋 水道橋外堀通り店,2018-08-04,東京都,139.7541404782865,35.70241442351775,1, #カレー
カレーハウスCoCo壱番屋 平野区加美東店,2018-08-04,大阪府,135.56843931523025,34.630006980452734,1, #カレー
日乃屋カレー 播磨,2018-08-01,兵庫県,134.86879317700718,34.723113889620606,1, #カレー
カリーゾーン 南加木屋店,2018-07-23,愛知県,136.9059822770126,34.988226175368126,1, #カレー
curry shop エフェクト,2018-07-17,滋賀県,135.95904296966836,35.02878057317964,1, #カレー
カレー倶楽部ルウ 六甲道店,2018-07-14,兵庫県,135.2389582770071,34.714807590065796,1, #カレー
黄金亭,2018-07-10,北海道,142.3626061703518,43.77151296711869,1, #カレー
カレーハウスcoco壱番屋 須磨駅前店,2018-07-09,兵庫県,135.11309036966054,34.64352439388144,1, #カレー
soup curry＆ethnic food 浅野屋,2018-07-08,北海道,141.32396466985108,43.055324599004294,1, #カレー
カレーハウスcoco壱番屋 箕面国道171号店,2018-07-03,大阪府,135.46779331523527,34.820310980403946,1, #カレー
カレーハウスcoco壱番屋 河内長野外環状線店,2018-07-03,大阪府,135.55989831522567,34.453837980498506,1, #カレー
無添加カレー カフェ&バー Cfarm静岡産業館西通り店,2018-07-01,静岡県,138.40788927701198,34.9672178765009,1, #カレー
カリガリ 間借りカレー・新宿店,2018-06-27,東京都,139.70213191968196,35.68974163720916,1, #カレー
ナマステネパール 栗橋店,2018-06-20,埼玉県,139.7035955696912,36.13141391285526,1, #カレー
スープカリー専門店 元祖 札幌ドミニカ 総本店,2018-06-08,北海道,141.3542334771961,43.05482559903624,1, #カレー
Rojiura Curry SAMURAI. 八王子店,2018-06-08,東京都,139.34336567702624,35.65792333895388,1, #カレー
ゴーゴーカレー のと里山空港前スタジアム,2018-06-04,石川県,136.95919187989043,37.299864447211256,1, #カレー
カレーハウスCoCo壱番屋 下関武久店,2018-06-03,山口県,130.92434283209317,33.982392959359096,1, #カレー
カレーハウスCoCo壱番屋 坂東岩井店,2018-06-03,茨城県,139.88341091301118,36.05200458010949,1, #カレー
カレーハウスCoCo壱番屋 尼崎大庄西町店,2018-05-13,兵庫県,135.38651731565938,34.720541980429346,1, #カレー
スパイスカレー コフタ,2018-05-12,沖縄県,127.74382901279186,26.382369889069093,1, #カレー
カレーハウス,2018-05-07,三重県,136.52405191565572,34.560089380470835,1, #カレー
チキンカリーズ・つくの屋 ミ・ナーラ店,2018-04-23,奈良県,135.80000341565855,34.68518688043845,1, #カレー
Cfarm 市ヶ谷店,2018-04-23,東京都,139.739190005599,35.6917124370037,1, #カレー
カレーハウスCoCo壱番屋 福山駅店,2018-04-22,広島県,133.36146449631894,34.488828474180416,1, #カレー
スープカレーGARAKU 中野店,2018-04-19,東京都,139.63147562783172,35.70958642793003,1, #カレー
ダイヤモンドカリー 大阪国際空港店,2018-04-18,大阪府,135.43879425096114,34.79136335772505,1, #カレー
トマトの花 イオンレイクタウンkaze店,2018-04-15,埼玉県,139.82240751568452,35.87780018014899,1, #カレー
カレーハウスCoCo壱番屋福山駅前店,2018-04-13,広島県,133.35931531565436,34.489113980489336,1, #カレー
カレーハウスCoCo壱番屋東京競馬場店,2018-04-13,東京都,139.48046986336934,35.66521174079323,1, #カレー
無添加薬膳スープカレー COSMOS,2018-04-05,東京都,139.66741440551772,35.659184880199525,1, #カレー
Browny六本木,2018-04-02,東京都,139.7277470128621,35.665524780198034,1, #カレー
北海道スープスタンド 六本木店,2018-03-27,東京都,139.7378221798557,35.667090438451396,1, #カレー
カレーハウスCoCo壱番屋 福井つくし野店,2018-03-26,福井県,136.219626012675,36.11579978009536,1, #カレー
ゴーゴーカレー ピオレ姫路駅スタジアム,2018-03-22,兵庫県,134.68982965491668,34.827193681541004,1, #カレー
Curry&Spaghetti meer lounge イオンモール発寒店,2018-03-22,北海道,141.2766369841332,43.095820820235005,1, #カレー
野菜を食べるBBQカレーcamp 新橋本店,2018-03-17,東京都,139.75527907995405,35.666416038488116,1, #カレー
カレー専門店 ベンガル BENGAL,2018-03-15,東京都,139.76931177738297,35.70214668028648,1, #カレー
カレーショップC&C 秋葉原店,2018-03-15,東京都,139.77488377710077,35.69835838028736,1, #カレー
TAMU Curry Kitdhen,2018-03-04,兵庫県,135.37481717693467,34.802321885372294,1, #カレー
CoCo壱番屋 松阪駅部田店,2018-03-01,三重県,136.5248629271663,34.55918549829175,1, #カレー
オンザカレー 三宮センタープラザ店,2018-03-01,兵庫県,135.1919768124798,34.69169549120816,1, #カレー
ゴーゴーカレーアリオ葛西スタジアム,2018-02-22,東京都,139.8793599154973,35.65246873915576,1, #カレー
くりのりカレー,2018-02-21,東京都,139.64699091549917,35.738041634461105,1, #カレー
豚骨カレーMECHA,2018-02-20,大阪府,135.52551241547775,34.659043992955375,1, #カレー
100時間カレーAMAZING 国立店,2018-02-13,東京都,139.44423481549842,35.70033163653112,1, #カレー
ムンバイ エクスプレス シャポー船橋店,2018-02-09,千葉県,139.9830513154984,35.70143483647057,1, #カレー
Rojiura Curry SAMURAI.,2018-02-01,北海道,141.45689631566066,43.031678500414365,1, #カレー
Curry＆Cafe SAMA 川沿店,2018-01-31,北海道,141.3336796156594,42.976464303943054,1, #カレー
奈良スパイスカレー y’sk,2018-01-29,奈良県,135.82329461548684,34.68282639168255,1, #カレー
Cfarmアントレ生駒店,2018-01-14,奈良県,135.69590061548706,34.69382239109372,1, #カレー
CURRY&BAR XAVIER,2017-12-20,栃木県,139.88534641311819,36.56026515654595,1, #カレー
もうやんカレー,2017-12-06,東京都,139.73358057993778,35.671505438209174,1, #カレー
スープカリーばぐばぐ 名古屋錦店,2017-12-01,愛知県,136.90386232923916,35.172912395012055,1, #カレー
カレーの店 凡亭,2017-11-30,東京都,139.5869440798461,35.63574014016951,1, #カレー
no border ふぁにや ～カレーとちょこちょこ～,2017-11-29,大阪府,135.62630427982847,34.783606586376706,1, #カレー
カレーハウスCoCo壱番屋 ASTY清水店,2017-11-27,静岡県,138.48657577983337,35.02334827347298,1, #カレー
咖喱＆カレーパン 天馬 新百合丘オーパ店,2017-11-27,神奈川県,139.5064002798454,35.60364404192714,1, #カレー
ゴーゴーカレーアリオ川口スタジアム,2017-11-24,埼玉県,139.71172901553956,35.80773388016504,1, #カレー
スープカレー専門店 エスパーイトウ 白石中央店,2017-11-20,北海道,141.39907426983928,43.054906699031044,1, #カレー
カーマ工房 浅草店,2017-11-15,東京都,139.79944431552812,35.715663580186394,1, #カレー
NATURRY NATURAL CURRY ナチュリー ナチュラルカリー,2017-11-13,神奈川県,139.38806957995394,35.45389658034453,1, #カレー
アパ社長カレー 御堂筋本町駅東店,2017-11-06,大阪府,135.50272797971954,34.685883491615094,1, #カレー
アパ社長カレー飯田橋駅南店,2017-10-31,東京都,139.7460616799599,35.700306680286786,1, #カレー
お肉屋さんのから揚げとカレー専門店 ビーフポート,2017-10-18,宮城県,140.87456648002203,38.2259311797793,1, #カレー
100時間カレーEX 高崎オーパ店,2017-10-12,群馬県,139.00895137997486,36.323117980147316,1, #カレー
バタチキ高崎オーパ店,2017-10-12,群馬県,139.00895137997486,36.323117980147316,1, #カレー
コクドウカレー 南8条店,2017-10-10,北海道,141.33955098015045,43.04859707924888,1, #カレー
カレーの赤田屋,2017-10-10,京都府,135.7288294799434,35.00863558045276,1, #カレー
あおいねこ,2017-10-09,北海道,141.00463408015523,43.21993257924073,1, #カレー
カレーハウスCoCo壱番屋 阪急川西能勢口駅店,2017-10-01,兵庫県,135.41037227993922,34.82843218049793,1, #カレー
カレーハウスCoCo壱番屋　福井小浜店,2017-10-01,福井県,135.75732757995493,35.49428518033503,1, #カレー
SRI LANKAN DINING A*MAYA,2017-10-01,大阪府,135.48504187993578,34.679815580535625,1, #カレー
カレーショップイエローモンキー,2017-09-25,東京都,139.75343337995992,35.69946178028716,1, #カレー
カレーハウスCoCo壱番屋 ハラール秋葉原店,2017-09-24,東京都,139.77308317995983,35.70003128028684,1, #カレー
高陣 CUP STORE,2017-09-23,北海道,141.44664038015407,43.17753667924266,1, #カレー
E→F CURRY 高柳店 （E→Fカレー）,2017-09-20,静岡県,138.26355807993974,34.848041680492805,1, #カレー
カレーハウスCoCo壱番屋 岡山西大寺店,2017-09-19,岡山県,134.02621397993522,34.653194480542545,1, #カレー
スープカレー店 34,2017-09-18,北海道,141.36763938015037,43.04021187924905,1, #カレー
ドラゴンカレー 三国店,2017-09-16,大阪府,135.48731167034515,34.738965498782555,1, #カレー
かりんちゅ 淡路島カリー＆CAFE,2017-09-16,兵庫県,135.17244157993537,34.665793680539224,1, #カレー
農かふぇ,2017-09-05,北海道,142.41591598017243,43.82601787921805,1, #カレー
元祖台湾カレー 高畑店,2017-08-26,愛知県,136.85453341535612,35.141190267006394,1, #カレー
いずみカリー 四条烏丸店,2017-08-11,京都府,135.75421992923032,35.00356699729326,1, #カレー
欧風カレー ガヴィアル,2017-08-01,東京都,139.7726968153677,35.68689033726888,1, #カレー
ゴーゴーカレー港北TOKYUスタジアム,2017-07-24,神奈川県,139.57023571536473,35.544218345081156,1, #カレー
ネパールカレーナマステ,2017-07-23,北海道,141.365836315544,43.05278149906497,1, #カレー
銀座ドンピエール Curry&Bar,2017-07-19,東京都,139.7095153153688,35.72907363495375,1, #カレー
マイカリー食堂 ルシーニュ府中店,2017-07-13,東京都,139.47735691536752,35.67188713809146,1, #カレー
ゴーゴーカレー大手町日本ビルパーク,2017-07-04,東京都,139.76717301552284,35.684914880193396,1, #カレー
淡路島カレーとオムライスのお店,2017-07-02,愛媛県,132.76820031534834,33.84016333632365,1, #カレー
チャンピオンカレー富山新庄店,2017-06-24,富山県,137.25670337994615,36.70706978073379,1, #カレー
奥芝商店 実家,2017-06-21,北海道,-1,-1,1, #カレー
カレーハウスCoCo壱番屋 フジグラン阿南店,2017-06-18,徳島県,134.66465691525926,33.92037303211507,1, #カレー
カレーハウスCoCo壱番屋 港北区日吉中央通り店,2017-06-04,神奈川県,139.6417470154437,35.55399794454629,1, #カレー
カレーハウスCoCo壱番屋 城東区諏訪四丁目店,2017-06-04,大阪府,135.5599536154259,34.67879929189822,1, #カレー
ヤミツキカリー 西池袋店,2017-06-04,東京都,139.70419491544735,35.73177053480562,1, #カレー
SOUP CURRY KING セントラル （スープカレー キング）,2017-05-13,北海道,141.35132318010855,43.05811287924823,1, #カレー
櫻屋伽喱本舗 天神橋本店,2017-05-12,大阪府,135.51089957034213,34.70656869878305,1, #カレー
百味飲食 （ヒャクミオンジキ）,2017-05-08,京都府,135.75383811546328,34.99693378035936,1, #カレー
ozimaカレー+,2017-04-27,新潟県,139.01202771541404,37.764552120520406,1, #カレー
AJITO Hacham,2017-04-27,北海道,141.29166981554496,43.0938848964348,1, #カレー
カレーハウスCoCo壱番屋 昭和区荒畑店,2017-04-25,愛知県,136.92466461535628,35.14986646653654,1, #カレー
カレーハウスCoCo壱番屋 熊谷石原店,2017-04-25,埼玉県,139.3669872153781,36.15525441143602,1, #カレー
ダバ☆クニタチ,2017-04-25,東京都,-1,-1,1, #カレー
ゴーゴーカレートレッサ横浜スタジアム,2017-04-24,神奈川県,139.64393277981247,35.52423958032803,1, #カレー
カレーハウスCoCo壱番屋 アクアシティお台場店,2017-04-20,東京都,139.77137961536647,35.627823540506206,1, #カレー
秋葉原ミクミクカレー 浅草橋店,2017-04-17,東京都,139.78576767978458,35.699545780287025,1, #カレー
ゴーゴーカレー七尾矢田新町スタジアム,2017-04-14,石川県,136.98093467033854,37.045626769160705,1, #カレー
Curry Shop JUNAYNA KYOTO TOWER SANDO,2017-04-14,京都府,135.75716077978558,34.98757697540331,1, #カレー
curry’s tribe カレーなる一族,2017-04-12,北海道,141.3542081799753,43.05733279887577,1, #カレー
SoupCurry　笑くぼ,2017-04-11,富山県,137.00844127982347,36.739660078902745,1, #カレー
インディアン・ダイナーGARA鵠沼海岸,2017-04-10,神奈川県,139.47339767979258,35.31446895770242,1, #カレー
カレーと珈琲ナカツボ,2017-04-09,兵庫県,135.36070377978157,34.7878653861482,1, #カレー
100時間カレー AMAZING グランツリー武蔵小杉店,2017-04-07,神奈川県,139.65786938004433,35.573568980316466,1, #カレー
カレーハウスCoCo壱番屋 JR石川町駅南口店,2017-03-31,神奈川県,139.64211997977785,35.43865078034831,1, #カレー
J.S. CURRY 文化村通り店,2017-03-27,東京都,139.69356561535025,35.66003958019919,1, #カレー
カレーハウスCoCo壱番屋 函館競馬場店,2017-03-24,北海道,140.77360647995476,41.782793179331506,1, #カレー
スタンド gu-te,2017-03-20,大阪府,135.51436997975856,34.690211980533,1, #カレー
2nd curry,2017-03-17,京都府,135.80153017976372,34.89169068048195,1, #カレー
カレーのチャンピオンかほく店,2017-03-12,石川県,136.6880559798115,36.71707698006385,1, #カレー
カレーハウスCoCo壱番屋 Maker’s Pier店,2017-03-12,愛知県,136.8448354797679,35.05041738044243,1, #カレー
LOTUS,2017-03-09,大阪府,135.50767371532453,34.66867098044268,1, #カレー
ナミニノ カレー,2017-03-06,大阪府,135.50888367975912,34.7117909805275,1, #カレー
広尾のカレー あにき,2017-03-06,兵庫県,135.18515817975864,34.688934380533304,1, #カレー
原価率研究所 宇部藤山店,2017-03-04,山口県,131.22960667951773,33.97075742956244,1, #カレー
THE SPICE,2017-02-28,東京都,139.4481897703354,35.541127498770244,1, #カレー
カレーハウスCoCo壱番屋 小田急祖師ヶ谷大蔵駅前店,2017-02-28,東京都,139.60674597978326,35.642664380300225,1, #カレー
もうやんカレー大手町,2017-02-22,東京都,139.75978921531848,35.68634223729898,1, #カレー
フジヤマドラゴンカレー 京橋店,2017-02-19,大阪府,135.5322106797588,34.698771280530686,1, #カレー
アパ社長カレーショップ広島駅前店,2017-02-18,広島県,132.47080201531753,34.396882480513604,1, #カレー
カレーハウスCoCo壱番屋 北区鈴蘭台店,2017-02-12,兵庫県,135.1262411153259,34.72161438042906,1, #カレー
咖喱＆カレーパン 天馬 札幌オーロラタウン店,2017-02-10,北海道,141.35136697999326,43.060329579248126,1, #カレー
勝本町,2017-02-09,大阪府,135.5003638797586,34.685809080534085,1, #カレー
100時間カレーAMAZING川口店,2017-02-06,埼玉県,139.7176814797874,35.80445948026296,1, #カレー
カレーハウスCoCo壱番屋 和歌山新宮店,2017-02-06,和歌山県,135.96752067973313,33.67503338080467,1, #カレー
カレーハウスCoCo壱番屋 沖縄石垣店,2017-02-06,沖縄県,124.17708227953112,24.33817598437976,1, #カレー
Premium Marche OSAKA,2017-02-04,大阪府,135.4972379153255,34.70534248043327,1, #カレー
深夜カレー ディアブロ,2017-02-01,大阪府,135.5008406797581,34.67149848053773,1, #カレー
かつ&カレーの店 星のカレー,2017-02-01,神奈川県,139.5364415797798,35.513074580330525,1, #カレー
CURRY no CHIKARA三輪店,2017-01-31,北海道,143.84305621558417,43.797361179116585,1, #カレー
100時間カレーB&R 西葛西店,2017-01-31,東京都,139.85567051535037,35.66409738019824,1, #カレー
カレーハウスCoCo壱番屋 南海堺東駅前店,2017-01-26,大阪府,135.4813729797557,34.57516458056243,1, #カレー
古倉庫伊太利亜酒場 奥芝ール,2017-01-25,北海道,141.34885071058588,43.05761169537809,1, #カレー
スタミナカレーマッスルパンチ北17条店,2016-12-23,北海道,141.3455156796127,43.08159549732396,1, #カレー
カレーハウスCoCo壱番屋 栗東インター店,2016-12-23,滋賀県,136.0033626793794,35.03547577281906,1, #カレー
チャンピオンカレー玉鉾店,2016-12-20,石川県,136.62586517942017,36.571180388355984,1, #カレー
フジヤマドラゴンカレー 秋葉原店,2016-12-17,東京都,139.77292437939673,35.69640743684442,1, #カレー
Cfarm 新さっぽろカテプリ店,2016-12-15,北海道,141.4702116796113,43.03771280013154,1, #カレー
カレーハウスCoCo壱番屋 セントレア店,2016-12-14,愛知県,136.81234577937488,34.859058282324646,1, #カレー
KITCHEN 401 （キッチン ヨンマルイチ）,2016-12-12,東京都,139.6801969793955,35.64991853939358,1, #カレー
薬膳カリィ本舗アジャンタ大通公園店,2016-12-11,北海道,141.3425450796119,43.05837429880984,1, #カレー
仙臺杜の牛たんカレー イオンモール長久手店,2016-12-08,愛知県,137.04821547938292,35.17330896536404,1, #カレー
フジヤマドラゴンカレー沖縄国際通り店,2016-12-01,沖縄県,127.68796217917993,26.216807196093267,1, #カレー
カレー専門店 円山教授。,2016-11-30,北海道,141.32390157975453,43.053543179248514,1, #カレー
SPICY CURRY魯珈（ろか）,2016-11-30,東京都,139.69535917951958,35.698620680287185,1, #カレー
カレーハウスCoCo壱番屋 三沢南山店,2016-11-30,青森県,141.38666397967484,40.68695687943584,1, #カレー
Avenue Curry,2016-11-25,北海道,141.6009083403706,42.889999994814225,1, #カレー
カレ－ショップC＆Cダイニング 京橋店,2016-11-24,東京都,139.76773357951905,35.677044380292216,1, #カレー
CURRY SHOP 井上チンパンジー,2016-11-21,東京都,139.69622067939537,35.64388213972421,1, #カレー
Rojiura Curry SAMURAI. 鎌倉店,2016-11-17,神奈川県,139.54956057950864,35.322486180376,1, #カレー
ナンエクスプレス イオンモール羽生店,2016-11-16,埼玉県,139.53965607940864,36.14289201221967,1, #カレー
カレー＆ビュッフェ Anna purna 池下店,2016-11-01,愛知県,136.94268777938294,35.16755976567544,1, #カレー
カレーカフェテリアSOGA,2016-10-31,千葉県,140.1157075149583,35.592688742430774,1, #カレー
カレーハウスCoCo壱番屋 中央区谷町七丁目店,2016-10-28,大阪府,135.51490651493407,34.672888492215506,1, #カレー
ナマステ東京 アジアンダイニング,2016-10-19,東京都,139.74887491496148,35.71243053586828,1, #カレー
カレーハウスCoCo壱番屋 中区広島女学院前店,2016-10-16,広島県,132.462850614927,34.397579006900244,1, #カレー
カレー専門店 日乃屋御徒町店,2016-10-16,東京都,139.77259551496138,35.70696793616802,1, #カレー
Curry&Cafe SAMA 下北沢店,2016-10-11,東京都,139.66613692921126,35.66283118835906,1, #カレー
サイキッチン （旧店名インドレストランリラ）,2016-10-07,神奈川県,139.6250023150449,35.536411845508475,1, #カレー
野菜を食べるカレーcamp express ららぽーと湘南平塚店,2016-10-05,神奈川県,139.35279681503974,35.336282056420295,1, #カレー
カンティプルカレーハウス,2016-09-20,沖縄県,127.66910477930446,26.21213019628846,1, #カレー
ハンターナ,2016-09-10,奈良県,135.74820297934926,34.69811849096061,1, #カレー
MOOKIE,2016-09-07,神奈川県,139.63454662920446,35.44815649128412,1, #カレー
カレーハウスCoCo壱番屋 ＪＲ本八幡駅北口店,2016-09-06,千葉県,139.92521417921725,35.72238023541951,1, #カレー
SPICE SAKABA （スパイスサカバ）,2016-09-03,群馬県,139.52653067938115,36.24571518016419,1, #カレー
シタルサハリ 小牧店,2016-09-01,愛知県,136.92338747968765,35.26988908038876,1, #カレー
Rojiura Curry SAMURAi.吉祥寺店,2016-08-25,東京都,139.57344641504935,35.70543853625169,1, #カレー
ビストロべっぴん舍,2016-08-23,東京都,139.75881201512456,35.69604563676696,1, #カレー
カレーと立ち呑み ベジン,2016-08-19,大阪府,135.50318291522524,34.66525578044358,1, #カレー
30 curry kitchen サーティカレー代官山,2016-08-11,東京都,139.6999466795577,35.65006263938538,1, #カレー
しまなみカレー ルリヲン （rurryon）,2016-08-09,広島県,133.17645611509028,34.28431071291242,1, #カレー
カレーハウスCoCo壱番屋 アスティ一宮店,2016-07-24,愛知県,136.79472567954937,35.30294235832938,1, #カレー
カレーハウスCoCo壱番屋 大田原本町店,2016-07-19,栃木県,140.0104356795883,36.8727562714101,1, #カレー
原価率研究所 梅屋敷店,2016-07-09,東京都,139.7271736795558,35.56687734393939,1, #カレー
カレーショ ップ C＆C ダイニング 東京ビッグサイト店,2016-07-03,東京都,139.7952106795574,35.6316633403934,1, #カレー
グラス（GURAS） アジアンダイニング&バー　西川口店,2016-07-01,埼玉県,139.69923667956186,35.81304733043626,1, #カレー
カレー専門店 日乃屋両国,2016-06-30,東京都,139.7921996795589,35.69566133688504,1, #カレー
Yatara spice,2016-06-22,大阪府,135.47917617032,34.66659610180997,1, #カレー
Gallery Cafe & Curry 紅屋,2016-06-20,千葉県,140.07844767956303,35.85970732786774,1, #カレー
上等カレー 秋葉原店,2016-06-19,東京都,139.76967667955918,35.701971336538925,1, #カレー
エリックサウスKITTE名古屋店,2016-06-16,愛知県,136.88049167954628,35.17286636538777,1, #カレー
ニューカトマンズキッチン,2016-06-15,東京都,139.79481367955958,35.721425335471196,1, #カレー
下町カレー ヒーハー,2016-06-11,兵庫県,135.1468616795338,34.65247339340329,1, #カレー
Bull Curry,2016-06-01,兵庫県,135.1263416795336,34.64497739380414,1, #カレー
カレーハウスCoCo壱番屋 松江城山西通り店,2016-05-16,島根県,133.04231931508826,35.479474348618176,1, #カレー
カレーハウスCoCo壱番屋 長久手店,2016-05-13,愛知県,137.03842531508056,35.17123136537989,1, #カレー
ピレーネ,2016-05-09,兵庫県,135.1911696795038,34.692119391281594,1, #カレー
TIFFIN de CoCo 甲州勝沼店,2016-05-08,山梨県,138.71414467952775,35.67465933803711,1, #カレー
香辛亭 中之島店,2016-04-27,大阪府,135.48713867950372,34.69203539128594,1, #カレー
ニューマハラジャ 大山店,2016-04-27,東京都,139.69943567952964,35.74784533402047,1, #カレー
ラージャ,2016-04-25,埼玉県,139.6361561703214,36.110889082211074,1, #カレー
カレーの惑星,2016-04-23,東京都,139.66407867954626,35.671106338231816,1, #カレー
AAGAMAN,2016-04-22,北海道,141.67424467977276,43.91907084331811,1, #カレー
野菜を食べるカレーcamp express イオンモール橿原店,2016-04-22,奈良県,135.76043367965542,34.50737098058008,1, #カレー
Curry NaNa （カレー7）,2016-04-21,岡山県,133.92232467952124,34.64453839382769,1, #カレー
野菜を食べるカレーcamp KITTE博多店,2016-04-20,福岡県,130.41723367949638,33.58891244954584,1, #カレー
カレーハウスCoCo壱番屋 都島インター店,2016-04-19,大阪府,135.52863267952313,34.72225338966728,1, #カレー
カレーハウスCoCo壱番屋 藤井寺外環状線店,2016-04-14,大阪府,135.60449767965727,34.580233980561125,1, #カレー
カレーハウスCoCo壱番屋 東急上野毛駅前店,2016-04-12,東京都,139.63631067969104,35.61184998030742,1, #カレー
カレーハウスCoCo壱番屋 足立区佐野店,2016-04-12,東京都,139.83959067969582,35.78777398026679,1, #カレー
カレーハウスCoCo壱番屋 南区西蟹屋店,2016-04-11,広島県,132.47729567965843,34.39159998061042,1, #カレー
ポンガラカレー,2016-04-09,大阪府,135.49688531523233,34.70303598043406,1, #カレー
フジヤマドラゴンカレー,2016-04-09,広島県,133.36182331522662,34.48701498048985,1, #カレー
ゆず屋 （soupcurry&bar）,2016-04-09,北海道,141.3551644127248,43.0551439791464,1, #カレー
ぷりずむ （カレーの店 ぷりずむ）,2016-04-09,兵庫県,135.1892533152322,34.691271980436916,1, #カレー
カレーハウスCoCo壱番屋 TX六町駅前店,2016-04-08,東京都,139.81989467969558,35.78423898026745,1, #カレー
カレーハウスCoCo壱番屋 イズミヤスーパーセンター福町店,2016-04-06,大阪府,135.44198767966643,34.69958798053052,1, #カレー
カレーハウスCoCo壱番屋 立川西砂店,2016-04-01,東京都,139.35547467958355,35.728639335075165,1, #カレー
カレーハウスCoCo壱番屋 ミスターマックス時津店,2016-03-30,長崎県,129.84349867951633,32.83387148848491,1, #カレー
カレーハウスCoCo壱番屋 港南区港南中央駅前店,2016-03-30,神奈川県,139.58796367957578,35.40055235301819,1, #カレー
カレーハウスCoCo壱番屋 岡山庭瀬店,2016-03-28,岡山県,133.85505867955783,34.64593039375309,1, #カレー
CURRY&SPAGHETTI ダイヤモンドカリー,2016-03-22,大阪府,135.49722267979686,34.69879898053075,1, #カレー
日乃屋カレー秋葉原店,2016-03-18,東京都,139.76815167982213,35.699102980287144,1, #カレー
ゴーゴーカレー ヨドバシ横浜スタジアム,2016-03-18,神奈川県,139.61834967981628,35.46769698034135,1, #カレー
薬膳カリー　Esha　,2016-03-14,大阪府,135.48463667971987,34.721626980524924,1, #カレー
カレーハウスCoCo壱番屋　ガーデンモール南千里店,2016-03-11,大阪府,135.507618679722,34.79400098050647,1, #カレー
カレーショップ亜橋 長尾センタープラザ店,2016-03-09,福岡県,130.37642767969024,33.55590498083809,1, #カレー
タシモリカレー,2016-03-09,大阪府,135.61179967972336,34.85191798049193,1, #カレー
西新宿もうやんカレー なごや,2016-03-08,愛知県,136.88235267973178,35.17201798041256,1, #カレー
CAFE カリーマート ＠久留米,2016-03-03,福岡県,130.51712967949618,33.31275046387696,1, #カレー
CAMEL DINER 阿波座隠れ家店,2016-03-03,大阪府,135.48322067952827,34.68328739175424,1, #カレー
CoCo壱番屋 アクロスガーデン千鳥橋店,2016-03-01,福岡県,130.40766367953384,33.60627844864119,1, #カレー
淡路島咖哩 西食堂～ウエストキッチン～,2016-03-01,沖縄県,127.67928067938551,26.213632796225614,1, #カレー
ゴーゴーカレー東北自動車道 Pasar羽生(下り線),2016-02-26,埼玉県,139.58307167959472,36.180759310118965,1, #カレー
カレー倶楽部ルウ守口店,2016-02-15,大阪府,135.5626943152691,34.739120980424566,1, #カレー
カレーのチャンピオン大須店,2016-02-15,愛知県,136.9000773152804,35.15969198031917,1, #カレー
100時間カレーB&R 北浦和店,2016-02-15,埼玉県,139.64234831529942,35.872165980150356,1, #カレー
インデアン東5条店,2016-02-02,北海道,143.2107936799382,42.919623979255405,1, #カレー
ジャングルキッチン福岡伊都店,2016-02-02,福岡県,130.256401679673,33.577449980832085,1, #カレー
マンドリルカレー 神戸王子公園店,2016-02-01,兵庫県,135.21701467970243,34.71078198052775,1, #カレー
カリワラ ラボラトリー,2016-01-22,青森県,141.36612867976572,40.68408604736101,1, #カレー
SPICE MADE,2015-12-10,東京都,139.70281231535046,35.666351980197724,1, #カレー
まるかつShokudo 神田店,2015-12-10,東京都,139.7669813153513,35.69242898019163,1, #カレー
カレーハウスCoCo壱番屋 桜井東新堂店,2015-12-08,奈良県,135.82803831532087,34.522517980480536,1, #カレー
Curry&cafe isora,2015-12-07,大阪府,135.60249731532357,34.628586980453065,1, #カレー
AWAJISHIMA CURRY RED TUG,2015-12-07,埼玉県,139.58453031535413,35.81343298016372,1, #カレー
HIGUMA-ヒグマ-,2015-12-07,北海道,141.32445831556186,43.07366497914541,1, #カレー
金澤ななほしカレー,2015-12-07,石川県,136.6550623153741,36.561676979998296,1, #カレー
野菜を食べるカレー キャンプエクスプレス イオンモール常滑店,2015-12-04,愛知県,136.8252672200325,34.884720715388916,1, #カレー
CRAZY SPICE イオン札幌元町店,2015-11-27,北海道,141.36598831547448,43.101685979144,1, #カレー
ラムじいさんのインドカレー 館林店,2015-11-25,群馬県,139.5667403152683,36.24242898006723,1, #カレー
Curry&Cafe SAMA 福岡けやき通り店,2015-11-25,福岡県,130.38565231519684,33.58388898073594,1, #カレー
カレーハウスCoCo壱番屋 八尾太子堂店,2015-11-21,大阪府,135.5886133152237,34.61318898045712,1, #カレー
スープカリー おにっこ,2015-11-21,埼玉県,139.3556533152658,36.15099598008736,1, #カレー
タンドリーレストラン アサ 千歳店,2015-11-21,北海道,141.64050531546593,42.834540979157865,1, #カレー
CURRY ON フォレストモール新前橋店,2015-11-18,群馬県,139.04312131521158,36.37668729912421,1, #カレー
カレーハウスCoCo壱番屋 かみしんプラザ店,2015-11-17,大阪府,135.54000631517286,34.7484113881691,1, #カレー
奥芝商店 函館美原店,2015-11-14,北海道,140.7469306797865,41.82263797696395,1, #カレー
Aaha（アーハ）,2015-11-03,北海道,142.38058231556755,43.787923851726255,1, #カレー
ターリー屋中野セントラルパーク店,2015-11-01,東京都,139.65934631502293,35.70700033616613,1, #カレー
印度のルー 大井競馬場店,2015-11-01,東京都,139.74034731502007,35.59302934241201,1, #カレー
カレーハウスCoCo壱番屋 梅田スカイビル店,2015-11-01,大阪府,135.48855931499736,34.70473639051021,1, #カレー
淡路島カレーすぱいす,2015-11-01,広島県,133.39538531499156,34.46963240306662,1, #カレー
カレーハウスCoCo壱番屋 港北区綱島駅前店,2015-10-30,神奈川県,139.63073031521176,35.53675198022832,1, #カレー
渋谷幡ヶ谷パンNIGO,2015-10-27,東京都,139.67545831521585,35.67834898019497,1, #カレー
スープカレーハウスしっぽ 矢巾店,2015-10-24,岩手県,141.14547531533086,39.608682979467225,1, #カレー
Aazeez イオンモール四條畷店,2015-10-23,大阪府,135.6272843151902,34.746094980422775,1, #カレー
CAMEL DINER 京都店,2015-10-22,京都府,135.76481731519738,35.00805698035671,1, #カレー
CHUTTA！篠路店,2015-10-21,北海道,141.34782631544275,43.14433597914199,1, #カレー
カレーハウスCoCo壱番屋 豊岡正法寺店,2015-10-19,兵庫県,134.80683131521198,35.5393369802276,1, #カレー
カレーハウスCoCo壱番屋 板宿駅前店,2015-10-13,兵庫県,135.1314383150957,34.65993398044491,1, #カレー
カレー屋麺八,2015-10-12,東京都,139.6672983151236,35.6316829802059,1, #カレー
カレーハウスCoCo壱番屋 三浦海岸店,2015-10-10,神奈川県,139.65098031511064,35.18457498031305,1, #カレー
カレーハウスCoCo壱番屋 姫路花田国道2号店,2015-10-05,兵庫県,134.727812,34.823466,1, #カレー
カレー食堂 「心」 ヨドバシAkiba店,2015-10-02,東京都,139.774747,35.69898,1, #カレー
インド式カレー 夢民,2015-10-01,東京都,139.77587599999998,35.62549,1, #カレー
カレーハウスCoCo壱番屋 甲府国母店,2015-10-01,山梨県,138.558743,35.642618999999996,1, #カレー
ほこカレー,2015-09-25,香川県,134.06632299999998,34.334727,1, #カレー
ルンビニフードカフェ千歳店,2015-09-23,北海道,141.62663899999998,42.854203,1, #カレー
Liberta Curry,2015-09-18,東京都,139.701212,35.662296999999995,1, #カレー
カレーハウスCoCo壱番屋 春日部備後東店,2015-09-17,埼玉県,139.772732,35.961138000000005,1, #カレー
Rajyani,2015-09-16,埼玉県,139.695817,35.820223000000006,1, #カレー
路地裏カリィ侍. 神楽坂店,2015-09-15,東京都,139.732827,35.700099,1, #カレー
Curry & Spice Bar 咖喱人,2015-09-11,東京都,139.74823899999998,35.700806,1, #カレー
カレーハウスCoCo壱番屋 南岩国店,2015-09-05,山口県,132.2039296,34.13432375,1, #カレー
インドカレービンディカ呼読店,2015-09-01,愛知県,136.930746,35.114083,1, #カレー
かれー屋ひろし,2015-09-01,京都府,135.72707599999998,35.021533999999996,1, #カレー
カレーハウスCoCo壱番屋茅ヶ崎萩園店,2015-08-27,神奈川県,139.377983,35.339688,1, #カレー
カレーハウスCoCo壱番屋 京橋駅北口店,2015-08-27,大阪府,135.531987,34.698613,1, #カレー
oze,2015-08-21,栃木県,139.882591,36.560896,1, #カレー
カレーハウスCoCo壱番屋 EXPASA足柄下り店,2015-08-14,静岡県,138.96742,35.313410000000005,1, #カレー
カキノキテラス,2015-08-10,東京都,139.335602,35.665788,1, #カレー
原了郭,2015-08-08,京都府,135.759543,34.98470900000001,1, #カレー
奥芝商店 千歳鮭公園,2015-08-08,北海道,141.659121,42.834047,1, #カレー
銀座マハラジャ,2015-08-04,東京都,139.76179099999996,35.672023,1, #カレー
あめいろたまねぎ 天文館店,2015-08-03,鹿児島県,130.554355,31.591615,1, #カレー
HAKUSEN,2015-07-30,鳥取県,133.900622,35.469865999999996,1, #カレー
山口カリー,2015-07-21,大阪府,135.512939,34.698609999999995,1, #カレー
GENCO CURRY INC,2015-07-21,北海道,141.28166099999999,43.072590999999996,1, #カレー
ターバンカレー小矢部店,2015-07-16,富山県,136.881166,36.688952,1, #カレー
スープカリーhirihiri 旭川店,2015-07-10,北海道,142.39588799999999,43.7451,1, #カレー
Luckyカレー,2015-07-06,群馬県,139.009656,36.324645,1, #カレー
黒岩咖哩飯店,2015-06-29,北海道,141.344258,43.060385999999994,1, #カレー
カレー屋 SPICE工房 池田駅前店,2015-06-28,大阪府,135.427681,34.821081,1, #カレー
和牛スジカレー 奈良本店,2015-06-12,奈良県,135.828805,34.681927,1, #カレー
シロクマカレー 代々木店,2015-06-10,東京都,139.704383,35.682556,1, #カレー
インド料理YUJIN,2015-06-05,千葉県,139.903109,35.67175400000001,1, #カレー
カレーハウスCoCo壱番屋一関いわいショッピングセンター店,2015-06-01,岩手県,141.143127,38.940365,1, #カレー
カレーハウスCoCo壱番屋 東急宮前平ショッピングパーク店,2015-05-30,神奈川県,139.57810999999998,35.589681,1, #カレー
カレーハウスCoCo壱番屋 相模原清新店,2015-05-29,神奈川県,139.363292,35.571507,1, #カレー
カレーハウスCoCo壱番屋 ＪＲ垂水駅東口店,2015-05-25,兵庫県,135.055074,34.629985,1, #カレー
カレーハウスCoCo壱番屋 新神戸フラワーロード店,2015-05-21,兵庫県,135.194413,34.701984,1, #カレー
SOUPCURRY ZORA,2015-05-16,北海道,141.34742400000002,43.058814999999996,1, #カレー
カレーハウスCoCo壱番屋 稲沢大矢店,2015-04-01,愛知県,136.795762,35.217017,1, #カレー
スープカレー lavi旭川店,2015-03-27,北海道,142.35794099999998,43.764176,1, #カレー
マイカリー食堂 三鷹店,2015-03-20,東京都,139.65618999999998,35.68349500000001,1, #カレー
カレーハウスCoCo壱番屋 京急金沢八景駅前店,2015-03-13,神奈川県,139.621177,35.332422,1, #カレー
エリックカレー ＆ベジタブル デリ,2015-03-13,愛知県,136.985011,35.16176300000001,1, #カレー
カレーハウスCoCo壱番屋 京急金沢八景駅前店,2015-03-13,神奈川県,139.621199,35.33242,1, #カレー
カレーハウスCoCo壱番屋 JR北浦和駅前店,2015-03-10,埼玉県,139.644333,35.871724,1, #カレー
カレーハウスCoCo壱番屋 野田船形ショッピングセンター店,2015-03-05,千葉県,139.86225,35.97995799999999,1, #カレー
Curry&Wine Koume,2014-11-04,東京都,139.722297,35.689255,1, #カレー
ひよ子,2014-08-06,東京都,139.7736385,35.689817699999864,1, #カレー
日高屋 小手指北口店,2013-01-30,埼玉県,35.689257,139.77243,1, #カレー
ゴーゴーカレー苗場ゲレンデスタジアム,2012-12-24,新潟県,35.72942,139.714627,1, #カレー
ゴーゴーカレー池袋60階通りスタジアム,2012-12-24,東京都,35.658671,139.7772,1, #カレー
カレーハウスCoCo壱番屋　奈良国道24号店,2012-12-24,奈良県,36.521717,139.03334,1, #カレー
カレーハウスCoCo壱番屋　奈良国道24号店,2012-12-19,奈良県,36.521717,139.03334,1, #カレー
カレーハウスCoCo壱番屋　川越的場店,2012-12-19,埼玉県,35.913471,139.426616,1, #カレー
ゴーゴーカレー赤坂サカス前スタジアム,2012-12-04,東京都,34.728949,138.455511,1, #カレー
レストラン モンタンベール,2012-12-02,東京都,139.71295610675745,35.64794906705589,1, #カレー
カレーハウスCoCo壱番屋 佐伯区西風新都店,2012-12-02,広島県,34.444499,132.379771,1, #カレー
カレーハウスCoCo壱番屋　東京メトロ東池袋駅前店,2012-11-24,東京都,36.521717,139.03334,1, #カレー
淡路島カレーhage店,2012-11-22,大阪府,34.731976,135.593358,1, #カレー
カレーハウスCoCo壱番屋　サンシャインシティアルパ店,2012-11-21,東京都,35.54499,139.445538,1, #カレー
やるき,2012-11-19,東京都,33.561647,130.425114,1, #カレー
カレーハウスCoCo壱番屋　柳津店,2012-11-15,岐阜県,35.36834,136.745346,1, #カレー
カレーハウスCoCo壱番屋　沖縄南インター店,2012-11-06,沖縄県,33.526973,130.42526,1, #カレー
ゴーゴーカレー仙台泉SCスタジアム,2012-11-05,宮城県,35.464733,139.624515,1, #カレー
蜂の家 大手町フィナンシャルシティ店,2012-11-01,東京都,35.68842,139.766017,1, #カレー
プロント関西空港エアロプラザ店,2012-10-27,大阪府,34.434355,135.232293,1, #カレー
asian“C”curry YAMITUKI （アジアン シーカリー ヤミツキ）,2012-10-24,東京都,35.673750,139.765139,1, #カレー
ゴーゴーカレー河原町三条スタジアム,2012-10-24,京都府,35.009194,135.771216,1, #カレー
ゴーゴーカレー池袋東口スタジアム,2012-10-24,東京都,34.794951,136.015481,1, #カレー
当たり前田カレー,2012-10-16,鳥取県,35.746746,139.384991,1, #カレー
ヨツバカリー 谷町店,2012-10-09,大阪府,35.651235,139.72353,1, #カレー
ニャソ屋,2012-10-09,大阪府,35.704936,139.578693,1, #カレー
カレーハウスCoCo壱番屋 フォレオ広島東店,2012-10-09,広島県,34.695932,135.197353,1, #カレー
カレーハウスCoCo壱番屋　西京大枝中山店,2012-10-08,京都府,34.970779,135.676614,1, #カレー
カレーハウスCoCo壱番屋　東武朝霞駅南口店,2012-10-08,埼玉県,34.794951,136.015481,1, #カレー
神南カリー 中野店,2012-10-04,東京都,35.70751,139.660596,1, #カレー
ゴーゴーカレー西池袋スタジアム,2012-09-24,東京都,35.668396,139.704139,1, #カレー
カレーの市民 アルバ秋葉原本店,2012-09-15,東京都,35.621198,139.682226,1, #カレー
北新地銀亭カレー,2012-09-05,大阪府,36.374234,140.358753,1, #カレー
ゴーゴーカレー秋葉原スタジアム,2012-09-04,東京都,35.662861,139.7097,1, #カレー
カレーハウスCoCo壱番屋一宮昭和店,2012-08-25,愛知県,34.664673,135.501316,1, #カレー
ゴーゴーカレー新橋駅前スタジアム,2012-08-24,東京都,35.669251,139.7577,1, #カレー
カレーハウスCoCo壱番屋　南区上鳥羽店,2012-08-09,京都府,35.794285,139.583273,1, #カレー
シロクマカレー日本橋日銀通り店,2012-08-07,東京都,35.688793,139.77125,1, #カレー
カレーハウスCoCo壱番屋　安佐北区可部店,2012-08-04,広島県,34.527132,132.514365,1, #カレー
カレーハウスCoCo壱番屋　JR大久保駅北口店,2012-08-04,東京都,38.218492,140.885035,1, #カレー
カレーハウスCoCo壱番屋　仙台長町店,2012-08-04,宮城県,38.221501,140.883447,1, #カレー
シロクマカレーゲートシティ大崎店,2012-07-30,東京都,35.643817,139.670307,1, #カレー
ゴーゴーカレー四谷三丁目スタジアム,2012-07-24,東京都,36.5626,136.362305,1, #カレー
ロイヤルホストのカレー専門店カレー家族（ 1 号店）,2012-07-12,東京都,36.5626,136.362305,1, #カレー
カレーハウスCoCo壱番屋　秋田東通店,2012-07-04,秋田県,35.715228,140.021396,1, #カレー
カレーのチャンピオン甲府店,2012-06-13,山梨県,35.651368,138.548251,1, #カレー
カレーハウス ココ壱番屋 中区松原三丁目店,2012-05-27,愛知県,35.153565,136.89836,1, #カレー
カレーハウスCoCo壱番屋 ARROW池上店,2012-05-23,東京都,35.700606,139.578115,1, #カレー
カレーハウス ココ壱番屋 東京メトロ西日暮里駅前店,2012-05-22,東京都,35.379008,139.544359,1, #カレー
カレーハウスCoCo壱番屋明石大久保店,2012-05-15,兵庫県,35.763804,139.818642,1, #カレー
カレーハウスCoCo壱番屋小倉南区朽網店,2012-04-26,福岡県,35.1825,136.932579,1, #カレー
ゴーゴーカレー丼丼イオンモール船橋ドーム,2012-04-24,千葉県,35.71143,139.979339,1, #カレー
ゴーゴーカレー下北沢劇場,2012-04-24,東京都,35.729548,139.709272,1, #カレー
カレーハウスCoCo壱番屋東区新出来店,2012-04-23,愛知県,35.400551,136.885191,1, #カレー
レトルトカレー専門店 梅田カレーコレクション,2012-04-23,大阪府,36.5626,136.362305,1, #カレー
カレーハウスCoCo壱番屋各務原三ツ池店,2012-04-22,岐阜県,35.816082,139.705769,1, #カレー
すき家イオンモール福津店,2012-04-20,福岡県,35.634688,139.885167,1, #カレー
東京チカラめし目黒1号店,2012-04-18,東京都,35.623381,139.775257,1, #カレー
カレーハウスCoCo壱番屋西武上石神井駅南口店,2012-04-15,東京都,34.622534,135.581664,1, #カレー
soup curry Spice × Smile,2012-04-13,東京都,35.64823,139.703039,1, #カレー
カレーハウスCoCo壱番屋東区栄町店,2012-04-09,北海道,35.194665,137.025669,1, #カレー
ゴーゴーカレー 神田駅南口スタジアム,2012-04-05,東京都,35.58292,139.217205,1, #カレー
ゴーゴーカレー 神保町スタジアム,2012-04-05,東京都,35.69174,139.775405,1, #カレー
カレーハウスCoCo壱番屋本地ケ原店,2012-04-02,愛知県,33.590421,130.366677,1, #カレー
カレーハウスCoCo壱番屋ヤフードーム店,2012-03-30,福岡県,35.607662,140.118143,1, #カレー
ゴーゴーカレー 小川町スタジアム,2012-03-25,東京都,34.816465,137.240201,1, #カレー
インドカリーダイニングコバラヘッタ新千歳空港店,2012-03-15,北海道,42.787574,141.681436,1, #カレー
ゴーゴーカレー金沢有松スタジアム,2012-03-14,石川県,35.907456,139.618343,1, #カレー
RESTAURANT&CAFE 東洋軒ジャズドリーム長島店,2012-03-13,三重県,34.668406,135.437102,1, #カレー
カマル,2012-03-07,京都府,35.624844,139.42542,1, #カレー
カレーハウスCoCo壱番屋大分賀来店,2012-03-07,大分県,33.211646,131.563784,1, #カレー
カレーハウスCoCo壱番屋茨木豊川店,2012-02-27,大阪府,36.5626,136.362305,1, #カレー
ゴーゴーカレー 金沢県庁前スタジアム,2012-02-17,石川県,35.650601,139.557345,1, #カレー
ゴーゴーカレー 大宮東口スタジアム,2012-02-14,埼玉県,36.5626,136.362305,1, #カレー
オリエンタルカレー栄店,2012-02-10,愛知県,36.5626,136.362305,1, #カレー
アジア型YAMITUKIカリー　神保町店,2012-02-08,東京都,35.342671,136.918348,1, #カレー
ゴーゴーカレー丼丼野々市市役所前スタジアム,2012-02-04,石川県,36.517375,136.608966,1, #カレー
カレーハウスCoCo壱番屋新宿区曙橋駅前店,2012-01-18,東京都,34.790405,135.544102,1, #カレー
華麗なる食卓カレーショップ（HORIPRO G☆SQUAREカフェ）,2012-01-18,東京都,36.5626,136.362305,1, #カレー
Soupcurry & Bar 悟空,2012-01-15,北海道,34.596529,133.766806,1, #カレー
カレーハウスCoCo壱番屋高松南新町店,2011-12-26,香川県,35.561836,139.71318,1, #カレー
ゴーゴーカレー新宿東口中央通りスタジアム,2011-12-24,東京都,35.690801,139.703492,1, #カレー
カレーハウスCoCo壱番屋ＪＲ恵比寿駅東口店,2011-12-21,東京都,35.647029,139.71211,1, #カレー
カレーハウスCoCo壱番屋 横浜駅西口店,2011-12-17,神奈川県,35.691037,139.769319,1, #カレー
ゴーゴーカレー　八王子駅前スタジアム,2011-12-14,東京都,36.925194,138.434258,1, #カレー
カレー専門店　大阪 難波アーリオ・オーリオ,2011-12-07,大阪府,38.04826,140.740206,1, #カレー
カレーハウスCoCo壱番屋 和歌山北インター店,2011-12-06,和歌山県,34.2565,135.225044,1, #カレー
はなまるうどん+カレー仲御徒町店,2011-12-04,東京都,35.804693,139.717898,1, #カレー
カレー＆スパゲティーインディアンカレー,2011-12-02,石川県,34.660969,135.505113,1, #カレー
ゴーゴーカレー代々木駅前スタジアム,2011-11-24,東京都,35.560145,140.180019,1, #カレー
だいきちカレーゆめタウン徳島店,2011-11-24,徳島県,34.118307,134.501967,1, #カレー
カレーハウスCoCo壱番屋守山志段味店,2011-11-21,愛知県,35.243875,137.017933,1, #カレー
カレーハウスCoCo壱番屋和泉いぶき野店,2011-11-17,大阪府,34.459269,135.459827,1, #カレー
カレーショップC&C永山店,2011-11-15,東京都,35.661805,139.584744,1, #カレー
新宿中村屋レストラン（仮店舗）,2011-11-15,東京都,35.691859,139.702036,1, #カレー
牛すじ煮込みカレー グリル誠三朗,2011-11-14,東京都,35.672742,139.793482,1, #カレー
四天王寺カレー,2011-11-11,大阪府,35.700122,139.699284,1, #カレー
札幌スープカレーNATURAL９,2011-11-08,宮城県,35.659969,139.698937,1, #カレー
あきばカレー工場　秋葉原昭和通店,2011-11-02,東京都,33.887998,130.76019,1, #カレー
あきばカレー工場　品川店,2011-10-20,東京都,35.626324,139.738157,1, #カレー
みよしの 美園店,2011-10-15,北海道,43.040603,141.389537,1, #カレー
カレーハウスCoCo壱番屋 長野西和田店,2011-10-08,長野県,35.731081,139.708539,1, #カレー
カレーハウスCoCo壱番屋JR新秋津駅前通店,2011-10-04,東京都,34.663993,135.59957,1, #カレー
カレーハウスCoCo壱番屋熊本植木店,2011-10-01,熊本県,34.771159,136.124961,1, #カレー
カレーハウスCoCo壱番屋 京王千歳烏山駅,2011-09-27,東京都,35.644158,139.670531,1, #カレー
カレーハウスCoCo壱番屋 世田谷区三軒茶屋店,2011-09-27,東京都,31.573435,130.556771,1, #カレー
カレーハウスCoCo壱番屋 鹿児島天保山店,2011-09-27,鹿児島県,36.5626,136.362305,1, #カレー
ゴーゴーカレー新宿甲州街道スタジアム,2011-09-25,東京都,36.5626,136.362305,1, #カレー
カレーの店シャリデス,2011-09-20,東京都,36.5626,136.362305,1, #カレー
カレーハウスCoCo壱番屋ＪＲ浦和駅西口店,2011-09-20,埼玉県,36.5626,136.362305,1, #カレー
カレーハウスCoCo壱番屋緑区徳重店,2011-09-07,愛知県,35.095684,137.004297,1, #カレー
カレーハウスCoCo壱番屋 上田中央東店,2011-09-02,長野県,36.123421,140.078516,1, #カレー
カレーハウスCoCo壱番屋ココイチエキスプレス鷺沼店,2011-08-12,神奈川県,33.789917,132.716063,1, #カレー
カレーハウスCoCo壱番屋 鳩ヶ谷里店,2011-08-05,埼玉県,35.834324,139.729486,1, #カレー
カレーハウスCoCo壱番屋長崎浜町店,2011-08-03,長崎県,36.5626,136.362305,1, #カレー
カレーハウスCoCo壱番屋八幡東区平野店,2011-08-03,福岡県,33.861106,130.792065,1, #カレー
カレーハウスCoCo壱番屋住之江区南港ATC店,2011-08-03,大阪府,34.704306,135.50137,1, #カレー
カレーハウスCoCo壱番屋　北区角田町店,2011-08-03,大阪府,35.707828,139.775062,1, #カレー
銀カレーTOKYO イオンモール高崎店,2011-07-28,群馬県,35.464519,139.620465,1, #カレー
カレーハウスCoCo壱番屋 北区角田町店,2011-07-27,大阪府,34.775495,135.394928,1, #カレー
ゴーゴーカレー六本木スタジアム,2011-07-16,東京都,36.722016,137.249448,1, #カレー
カレーハウスCoCo壱番屋アコルデ代々木上原店,2011-06-21,東京都,34.885931,139.21875,1, #カレー
カレーハウスCoCo壱番屋川崎たちばなモール参番街店,2011-06-21,神奈川県,34.986304,139.092493,1, #カレー
ゴーゴーカレー渋谷警察署前店,2011-06-15,東京都,35.65649,139.73618,1, #カレー
カレーハウスCoCo壱番屋フォレオ大阪ドームシティ店,2011-06-14,大阪府,36.5626,136.362305,1, #カレー
カレーハウスCoCo壱番屋ビバモール寝屋川店,2011-06-11,大阪府,34.766559,135.650103,1, #カレー
カレーハウスCoCo壱番屋阪神尼崎駅前店,2011-05-30,兵庫県,34.880859,135.672658,1, #カレー
カレーハウスCoCo壱番屋島本町国道１７１号店,2011-05-30,大阪府,34.170323,132.214022,1, #カレー
カレーハウスCoCo壱番屋早島インター店,2011-05-29,岡山県,37.726907,140.46308,1, #カレー
カレーハウスCoCo壱番屋ハローパーク周船寺店,2011-05-26,福岡県,33.56632,130.238178,1, #カレー
ゴーゴーカレー池袋東口店,2011-05-24,東京都,43.057879,141.333042,1, #カレー
LUMBINI CURRY CAFE,2011-05-22,北海道,41.840522,140.73624,1, #カレー
カレーハウスCoCo壱番屋寝屋川池田中町店,2011-05-19,大阪府,35.906893,139.621793,1, #カレー
カレーハウスCoCo壱番屋南青山外苑東通店,2011-05-15,東京都,35.695269,139.700893,1, #カレー
カレーハウスCoCo壱番屋新宿歌舞伎町店,2011-05-15,東京都,35.671818,139.748626,1, #カレー
カレーハウスCoCo壱番屋新宿歌舞伎町店,2011-05-13,東京都,34.657034,135.505896,1, #カレー
カレーハウスCoCo壱番屋浪速区日本橋五丁目店,2011-05-03,大阪府,35.772326,139.422898,1, #カレー
カレーハウスCoCo壱番屋西武ドーム店,2011-05-03,埼玉県,35.748184,139.501991,1, #カレー
銀カレーTOKYO サンモール中野店,2011-05-02,東京都,36.5626,136.362305,1, #カレー
カレーハウスCoCo壱番屋中京区河原町三条店,2011-04-30,京都府,35.007969,135.769429,1, #カレー
CoCo壱番屋宇佐四日市店,2011-04-24,大分県,35.253978,136.823183,1, #カレー
CoCo壱番屋東京メトロ南行徳駅北口店,2011-04-24,千葉県,34.735247,135.565002,1, #カレー
CoCo壱番屋京阪守口市駅店,2011-04-15,大阪府,35.691175,139.757178,1, #カレー
カレーハウスCoCo壱番屋小田急海老名駅前店,2011-04-04,神奈川県,35.450265,139.391739,1, #カレー
カレーハウスCoCo壱番屋伊勢南勢バイパス店,2011-03-15,三重県,34.505584,136.708717,1, #カレー
銀カレーTOKYO,2011-03-07,東京都,36.5626,136.362305,1, #カレー
カレーハウスCoCo壱番屋京王仙川駅前通店,2011-03-06,東京都,35.659963,139.585824,1, #カレー
カレーハウスCoCo壱番屋春日岡本店,2011-02-27,福岡県,35.749573,139.806765,1, #カレー
カレーハウスCoCo壱番屋岐阜北鶉店,2011-02-15,岐阜県,35.65707,139.627503,1, #カレー
カレーハウスCoCo壱番屋ナゴヤドーム店,2011-02-10,愛知県,35.116537,135.913888,1, #カレー
カレーハウスCoCo壱番屋大津堅田店,2011-02-10,滋賀県,35.577994,139.734351,1, #カレー
カレーハウスCoCo壱番屋京急平和島駅前店,2011-02-10,東京都,36.5626,136.362305,1, #カレー
カレーハウスCoCo壱番屋南区星崎店,2011-02-06,愛知県,35.083926,136.933084,1, #カレー
カレーハウス「アムアム」オープン,2011-02-03,none,34.436978,135.244601,1, #カレー
カレーハウスCoCo壱番屋赤羽ＬａＬａガーデン店,2010-12-11,東京都,35.174761,136.990855,1, #カレー
カレーハウスCoCo壱番屋東武和光市駅前店,2010-11-27,埼玉県,33.571328,130.453892,1, #カレー
カレーハウスCoCo壱番屋京田辺松井山手店,2010-11-23,京都府,34.790752,134.719797,1, #カレー
カレーハウスCoCo壱番屋美濃加茂山手町店,2010-11-22,岐阜県,35.440242,137.015664,1, #カレー
カレーハウスCoCo壱番屋新宿NSﾋﾞﾙ店,2010-11-14,東京都,34.697674,135.505478,1, #カレー
カレーハウスCoCo壱番屋北区西天満四丁目店,2010-11-14,大阪府,41.986468,140.746843,1, #カレー
カレーハウスCoCo壱番屋JR目白駅前通店,2010-11-11,東京都,34.733871,135.592023,1, #カレー
カレーハウスCoCo壱番屋北区芝田一丁目店,2010-11-07,大阪府,35.702936,139.621392,1, #カレー
CoCo壱番屋富田林外環状線店,2010-09-21,大阪府,35.651787,139.543834,1, #カレー
CoCo壱番屋京王調布駅北口店,2010-09-21,東京都,35.664995,139.747047,1, #カレー
CoCo壱番屋港区虎ノ門三丁目店,2010-09-21,東京都,35.219965,136.285025,1, #カレー
カリー乃 五○堂,2010-09-20,北海道,35.686337,139.726481,1, #カレー
CURRY HOUSE RUU,2010-09-15,東京都,35.064695,135.790286,1, #カレー
CoCo壱番屋中央区馬喰町店,2010-08-26,東京都,39.715648,140.127034,1, #カレー
カレーハウスCoCo壱番屋中区大手町店,2010-08-21,広島県,35.647057,139.744093,1, #カレー
カレーハウスCoCo壱番屋港区三田店,2010-08-21,東京都,32.600699,130.675721,1, #カレー
ゴーゴーカレー シーモール下関パーク,2021-11-03,山口県,130.92201681567005,33.9492831305954,0, #カレー
カレーのチャンピオンミタス伊勢店,2021-11-01,三重県,136.70981935235866,34.50031992877281,0, #カレー
カレー堂難波店,2021-10-26,大阪府,135.50170891568197,34.66306659273964,0, #カレー
カレーハウスCoCo壱番屋 東急市が尾駅前店,2021-10-15,神奈川県,139.5395053156974,35.552447444630644,0, #カレー
CURRYSHOP 井上チンパンジー,2021-10-14,東京都,139.69608751569868,35.64379283963072,0, #カレー
カレーハウスCoCo壱番屋 中区広島女学院前店,2021-10-10,広島県,132.462850614927,34.397579006900244,0, #カレー
カレーは飲み物。池袋店,2021-10-08,東京都,139.70481582925208,35.73243308740731,0, #カレー
大阪マドラスカレー123号店,2021-10-01,東京都,139.5766627157,35.705227536261965,0, #カレー
カレーハウスCoCo壱番屋 泉区松森店,2021-09-17,宮城県,140.91218331533304,38.303140979666765,0, #カレー
金沢ミルカツカレー,2021-09-15,石川県,136.61634401571484,36.546197189655246,0, #カレー
ミスターカレー イオン桑園店,2021-09-11,北海道,141.33037231584277,43.06958559798938,0, #カレー
信濃路 平和島店,2021-09-06,東京都,139.73236811569765,35.57832974321513,0, #カレー
カレーの市民アルバ小松本店,2021-09-04,石川県,136.44730091571216,36.399811397833716,0, #カレー
カレーは飲み物。池袋店,2021-08-24,東京都,139.7031743157005,35.732436334768394,0, #カレー
カレーハウスCoCo壱番屋 三浦海岸店,2021-08-15,神奈川県,139.65098031511064,35.18457498031305,0, #カレー
さふらん,2021-08-10,宮城県,140.87401895700393,38.26511899156827,0, #カレー
ポンガラカレー赤坂アークヒルズ店,2021-06-26,東京都,139.73794031569926,35.667529638329874,0, #カレー
ロケットカレー 二十四軒店,2021-06-25,北海道,141.32579724780214,43.084268497258556,0, #カレー
カレー道場黒帯,2021-06-21,北海道,141.35051271304312,43.05725799877812,0, #カレー
カレー処三休庵,2021-06-12,神奈川県,139.37257061289796,35.572368943541036,0, #カレー
カレーハウスCoCo壱番屋 大宮大栄橋店,2021-06-03,埼玉県,139.62429444995408,35.90856006939124,0, #カレー
カレーハウスCoCo壱番屋 原町田中央通店,2021-06-01,東京都,139.4482058292609,35.541889998764184,0, #カレー
モンスナック,2021-05-27,東京都,139.70233582924445,35.692053998762,0, #カレー
ボルツ京成大久保店,2021-04-29,千葉県,140.0484936292606,35.68815189876207,0, #カレー
カレーハウスCoCo壱番屋 新座大和田店,2021-04-29,埼玉県,139.54803461583973,35.807695680164976,0, #カレー
白バラ食堂,2021-04-24,高知県,133.5607998629289,33.5602380307427,0, #カレー
カレーショップミンガス,2021-04-17,大阪府,135.49434551581749,34.70120348043438,0, #カレー
カレーハウスCoCo壱番屋阪急三宮駅北口店,2021-04-11,兵庫県,135.19286020560327,34.694075880436145,0, #カレー
新宿カレー 西新宿1丁目店,2021-04-03,東京都,139.69513911583724,35.68933018019248,0, #カレー
Beyond Age 北22条店,2021-03-29,北海道,141.34285531313273,43.088352979144815,0, #カレー
新宿カレー西新宿1丁目店,2021-03-01,東京都,139.69513911583724,35.68933018019248,0, #カレー
カレーショップC&C 高幡SC店,2021-03-01,東京都,139.41095871583667,35.66203488019885,0, #カレー
カレーショップC＆C永山店,2021-02-27,東京都,139.44804476525525,35.630313214132336,0, #カレー
カレーハウスサンマルコ 博多１番街店,2021-02-26,福岡県,130.4177051157961,33.59055548073417,0, #カレー
カレーハウスCoCo壱番屋 名鉄岐阜駅前店,2021-02-14,岐阜県,136.75825631583163,35.41146098025807,0, #カレー
ニュー ガネーシャ 狭山市駅前店,2021-02-13,埼玉県,139.41209041584062,35.85577138015402,0, #カレー
カレーハウスCoCo壱番屋 多摩桜ケ丘店,2021-02-12,東京都,139.458263705622,35.64506328020281,0, #カレー
Curry Up（カリーアップ）ルミネ新宿店,2021-02-11,東京都,139.69707711583723,35.689178880192465,0, #カレー
ゴーゴーカレー＆カフェ マリエとやまパーク,2021-02-10,富山県,137.21306622926184,36.700277398748085,0, #カレー
カレー専門店 クラウンエース 上野店,2021-02-03,東京都,139.77421333573795,35.71128843312961,0, #カレー
CLOCK クロック 江別店,2021-01-18,北海道,141.53873389546803,43.11369599816556,0, #カレー
日乃屋カレー石岡店,2021-01-16,茨城県,140.29850881584733,36.18566878007992,0, #カレー
カレーハウスCoCo壱番屋 音更木野大通店,2021-01-16,北海道,143.2041582159964,42.958194079151184,0, #カレー
マイカリー食堂 ル・シーニュ府中店,2021-01-14,東京都,139.47964282926046,35.67152199876229,0, #カレー
本氣カレー ステーキ食堂BECO,2021-01-11,大阪府,135.62043128674065,34.70901460890363,0, #カレー
TRIANGLE CURRY トライアングルカレー,2020-12-31,東京都,139.70476848001223,35.653323280297734,0, #カレー
カレーステーション藤沢店,2020-12-25,神奈川県,139.48528100123775,35.338763914528556,0, #カレー
代々木カリー,2020-12-23,東京都,139.7010624474974,35.68212335847677,0, #カレー
日乃屋カレー大塚店,2020-12-15,東京都,139.7270359792606,35.73163304876141,0, #カレー
カレーのチャンピオン 栄プリンセス店,2020-12-14,愛知県,136.9048702056125,35.16684038031742,0, #カレー
ダルシムカリー,2020-12-08,東京都,139.71961733109214,35.71100764107492,0, #カレー
ゴーゴーカレー 新宿総本店,2020-12-06,東京都,139.70302602926066,35.690706498762026,0, #カレー
日乃屋カレー 四谷店,2020-12-01,東京都,139.7257086129706,35.68731158019289,0, #カレー
HARE GINZA,2020-11-29,東京都,139.76074461583696,35.67156098019657,0, #カレー
カレーハウスCoCo壱番屋  港区芝大門店,2020-11-26,東京都,139.7528424399405,35.65659183225414,0, #カレー
チキンプレイス 蔵前店,2020-11-02,東京都,139.7882868055078,35.70014431072335,0, #カレー
カレーハウスCoCo壱番屋 小田急マルシェ秦野店,2020-11-01,神奈川県,139.2260446056168,35.37024218026784,0, #カレー
ミスターカレー新さっぽろ店,2020-10-14,北海道,141.47278981313167,43.037650179147256,0, #カレー
ゴーゴーカレー代々木駅前店,2020-10-08,東京都,139.70215460562292,35.68237498019405,0, #カレー
カレーのマスター,2020-10-04,広島県,132.56482640559446,34.24684958055343,0, #カレー
ゴーゴーカレー千葉中央スタジアム,2020-10-02,千葉県,140.11732117976015,35.60764488030832,0, #カレー
カレーハウスCoCo壱番屋 港区ヴィータイタリア店,2020-09-24,東京都,139.7574076056225,35.661453480198865,0, #カレー
パキスタンカレー BOSCO,2020-08-13,北海道,141.4285408131315,43.03264117914742,0, #カレー
タンドールエミフルMASAKI店,2020-08-09,愛媛県,132.71560367173308,33.78932568301662,0, #カレー
Fjord フィヨルド,2020-08-08,東京都,139.72755531296997,35.65907378019947,0, #カレー
カレースタンド204イオンスタイル仙台卸町店,2020-07-26,宮城県,140.91888850097428,38.252212323578696,0, #カレー
スープカリィ ヴァサラロード 長町本店,2020-07-04,宮城県,140.87798860567548,38.22165537968069,0, #カレー
カレーと野菜 香希,2020-06-14,宮城県,140.86687851058642,38.265597099804666,0, #カレー
カレーハウスCoCo壱番屋 JR北松戸駅前店,2020-06-10,千葉県,139.91247670562532,35.800323180166735,0, #カレー
京華＋ （Kyoka PLUS）,2020-06-01,群馬県,139.06969882926208,36.394263998752145,0, #カレー
大谷地カレー颯,2020-05-25,北海道,141.45582441313144,43.0287987791476,0, #カレー
カレー専門店 プリー,2020-05-21,宮城県,140.8835671056767,38.26687607967271,0, #カレー
ばんしゃく家MOSH / カレー屋 MOSH,2020-05-21,愛知県,136.93524200561265,35.1678083803171,0, #カレー
カリガリ間借りカレー 新宿店,2020-05-05,東京都,139.70008751584683,35.689873780192244,0, #カレー
とんかつ＆カレー 三象,2020-05-04,広島県,133.364525205794,34.48630128048999,0, #カレー
ぐらむ亭 中川富永店,2020-05-02,愛知県,136.80646924519777,35.12557148957599,0, #カレー
B&T カリーカフェ B&T CURRY CAFE,2020-04-13,北海道,144.3862276133126,43.014844879148484,0, #カレー
ボクらの町のカレー屋さんKOTOKOTO,2020-04-12,広島県,132.4045366158209,34.37287748051997,0, #カレー
帯広白樺通りスープカレー本舗,2020-03-29,北海道,143.1863539133101,42.920500379153225,0, #カレー
野菜を食べるカレーcamp express エキュート品川サウス店,2020-03-28,東京都,139.7366245158457,35.62798108020682,0, #カレー
野菜を食べるカレーcamp express 池袋店,2020-03-28,東京都,139.71068990297314,35.72954155018533,0, #カレー
フジヤマドラゴンカレー秋葉原店,2020-03-01,東京都,139.77505570287113,35.696326492289195,0, #カレー
シャポーブラン大須本店,2020-02-19,愛知県,136.90116590580726,35.15958358031928,0, #カレー
いずみカリー水道橋店,2020-02-08,東京都,139.7556776058179,35.69964488019007,0, #カレー
カレーのチャンピオン 神戸店,2020-02-04,兵庫県,134.97375460098496,34.66893927590318,0, #カレー
カレーハウスCoCo壱番屋 北区王子明治通店,2020-01-28,東京都,139.739585234301,35.75472943947606,0, #カレー
CURRY ON,2020-01-27,群馬県,139.04411771316694,36.37649798003822,0, #カレー
温故知新ブルックスカレー食堂伏古店,2020-01-12,北海道,141.39441982927127,43.09086499869654,0, #カレー
100時間カレーAMAZING 川口店,2020-01-10,埼玉県,139.71972780582007,35.804449180165875,0, #カレー
カレーの森豊橋曙店,2020-01-01,愛知県,137.4000998292599,34.72996199877666,0, #カレー
カレーハウスCoCo壱番屋 中央区平尾店,2019-11-17,福岡県,130.40476154905278,33.57424543163057,0, #カレー
ゴーゴーカレー東陽町スタジアム,2019-11-08,東京都,139.81519197978395,35.669037980294,0, #カレー
きっちんモト,2019-11-07,石川県,136.80096870677224,36.894498866604636,0, #カレー
和風カレー処 三休庵 駅西店,2019-11-04,石川県,136.63477551409846,36.593431466864,0, #カレー
CLUB30,2019-10-17,徳島県,134.55095050675135,34.04965106772346,0, #カレー
カレー＆バー パンドラ 麻生店,2019-10-13,北海道,141.346571814155,43.104103365452,0, #カレー
カレーの力 湘南店,2019-10-09,神奈川県,139.39644261408938,35.349561667326995,0, #カレー
カレーのチャンピオン守山店,2019-10-03,愛知県,136.95017842781397,35.21127238030645,0, #カレー
カレーのチャンピオン イオンモール久御山店,2019-09-25,京都府,135.74428331583124,34.89309598038553,0, #カレー
ゴーゴーカレー 金沢有松スタジアム,2019-09-10,石川県,136.63950531317036,36.54062978000293,0, #カレー
カレーハウス CoCo壱番屋 太白区中田店,2019-09-08,宮城県,140.89072921320468,38.19336787968532,0, #カレー
カレーハウス CoCo壱番屋 平塚大神店,2019-09-06,神奈川県,139.35920371584078,35.388151380263636,0, #カレー
カレーのチャンピオン 富大前店,2019-09-06,富山県,137.18741421586753,36.70073177996928,0, #カレー
カレーハウスCoCo壱番屋 高岡中川栄町店,2019-09-05,富山県,137.02779082926244,36.74466699874753,0, #カレー
カレーハウスCoCo壱番屋 小倉北区西港店,2019-08-30,福岡県,130.85236682925895,33.899792998790474,0, #カレー
みよしの 旭川4・6店,2019-08-29,北海道,142.35882806415773,43.76901911541695,0, #カレー
おじいさんの時計,2019-08-28,大分県,131.48124327366514,33.302412677043925,0, #カレー
カレーハウス CoCo壱番屋 平高岡中川栄町店,2019-08-14,富山県,137.0281705067679,36.74466246665939,0, #カレー
カレーのチャンピオン 星崎店,2019-08-11,愛知県,136.9261998292604,35.07913899877122,0, #カレー
カレー・シチュー屋 シーサー,2019-08-02,東京都,139.5049838292612,35.70219299876186,0, #カレー
日乃屋カレー 高田馬場店,2019-07-31,東京都,139.70678560675972,35.71254606702615,0, #カレー
野菜を食べるカレーcamp express 相鉄ジョイナス店,2019-07-26,神奈川県,139.6204806287302,35.4654224678963,0, #カレー
Big Sur（ビッグサー ）,2019-06-25,神奈川県,139.48609580676055,35.313830067187155,0, #カレー
野菜を食べるカレーcamp express 三井アウトレットパーク入間店,2019-06-24,埼玉県,139.3799919292613,35.81017819876027,0, #カレー
ゴーゴーカレー久留米合川スタジアム,2019-06-23,福岡県,130.5412785292582,33.31967989880072,0, #カレー
日乃屋カレー分倍河原店,2019-06-20,東京都,139.46884210671027,35.66918976704844,0, #カレー
ANA FESTA 羽田59番ゲートフード店,2019-06-19,東京都,139.787761660417,35.552489375046655,0, #カレー
日乃屋カレー川口店,2019-06-17,埼玉県,139.7200291760098,35.80278513517435,0, #カレー
GRAND GIOIAL グランドジョイアル吉祥寺店,2019-05-29,東京都,139.57753282926117,35.70285799876182,0, #カレー
船場カリー +h cafe 高松店,2019-05-27,香川県,134.04877020675227,34.339255767596164,0, #カレー
船場カリー 北梅田店,2019-05-26,大阪府,135.49654782925992,34.71156799877701,0, #カレー
野菜を食べるカレー camp express ららぽーと海老名店,2019-05-11,神奈川県,139.38689431520967,35.455794980247425,0, #カレー
くわまんカレーブラッキーひさご通り店,2019-05-08,東京都,139.79365750676695,35.71636166702972,0, #カレー
野菜を食べるカレー camp express ららぽーと立川立飛店,2019-05-06,東京都,139.41571131535156,35.71317698018693,0, #カレー
鐵道カフェ＆カレー,2019-04-28,兵庫県,135.2004298140854,34.70261016758912,0, #カレー
野菜を食べるカレーcamp express イオンモール幕張新都心店,2019-04-21,千葉県,140.0293910158462,35.65386478020069,0, #カレー
Hot Spice（ホットスパイス）,2019-04-19,北海道,141.3967338292712,43.09261999869655,0, #カレー
ドンピエール クイック ( dompierre Quick ),2019-03-25,東京都,139.74808741300237,35.64492508020283,0, #カレー
ドンピエール ジェット,2019-03-25,東京都,139.768116828726,35.5457703678686,0, #カレー
道の駅上州おにし 味楽,2019-03-24,群馬県,139.038213215856,36.14307298008927,0, #カレー
カフェ とーぶ 春日部店,2019-03-08,埼玉県,139.75224651409155,35.980261667081365,0, #カレー
Curry Shop Stand Ten （カレーショップ スタンドテン）,2019-03-08,神奈川県,139.27249070676052,35.372048767161694,0, #カレー
カレーハウス オータム,2019-03-07,静岡県,137.70337171408076,34.75543166757003,0, #カレー
Curry Leaf（カレー リーフ）,2019-02-27,大阪府,135.52466471409093,34.76222026757386,0, #カレー
Bar華麗に乾杯！,2019-02-25,長崎県,129.7258372850898,33.16407218809846,0, #カレー
野菜を食べるカレーcamp express 仙台パルコ2店,2019-02-10,宮城県,140.87751367962412,38.25903619202241,0, #カレー
グーカレー,2019-02-09,大分県,131.60649970346384,33.23660167662109,0, #カレー
外堀パンチ（SOTOBORI PUNCH）,2019-01-27,愛知県,136.9103296140847,35.17810536739906,0, #カレー
ゴーゴーカレー 金沢東インター店,2019-01-25,石川県,136.67619481409355,36.60969136685379,0, #カレー
カレーとチャイの店 ぞうのはなは,2019-01-14,愛媛県,132.95969983707434,34.04278286937081,0, #カレー
堺伽俚 堺東店,2019-01-01,大阪府,135.48321107108617,34.57245366759056,0, #カレー
CLOVER CURRY（クローバーカレー）,2018-12-19,兵庫県,135.2378933236234,34.71578783504202,0, #カレー
北新地カレー Clobe （クローブ）,2018-12-10,大阪府,135.5000143645339,34.69715051511336,0, #カレー
スパイスカフェ ベロデカ,2018-12-07,北海道,-1,-1,0, #カレー
野菜を食べるカレーcamp express イオンモール広島府中店,2018-12-02,広島県,132.49790987032367,34.39322252562398,0, #カレー
上級 家カレー 三代目 奥三田,2018-11-26,兵庫県,135.14380582924346,34.95348699877319,0, #カレー
kanakoのスープカレー屋さん 仙台泉セルバ店,2018-11-03,宮城県,140.88002608001193,38.323565788267054,0, #カレー
CABaN葉山,2018-11-02,神奈川県,139.56924837995058,35.27607995978793,0, #カレー
オニオン座,2018-10-29,山口県,131.47583867992967,34.17893441858489,0, #カレー
カレーの市民アルバ 水道橋店,2018-10-27,東京都,139.7502555155068,35.70156423646342,0, #カレー
カレーショップ涅槃,2018-10-23,東京都,139.66950477832572,35.664713625584554,0, #カレー
カレーのチャンピオン 四日市店,2018-10-23,三重県,136.60806679294294,34.96227756449521,0, #カレー
野菜を食べるカレーcamp 名古屋ユニモール店,2018-10-11,愛知県,136.88416052994847,35.1714113654657,0, #カレー
カレーハウス十八番館,2018-10-08,岡山県,133.7698181703376,34.58511410289499,0, #カレー
スタンドニューキャッスル神田店,2018-10-07,東京都,139.7708738710749,35.691745167131145,0, #カレー
チキンカリーズ スパイス王国 イオンモール宇城店,2018-09-26,熊本県,130.70335901358712,32.59771494651712,0, #カレー
P&G,2018-09-22,大阪府,135.64982641399888,34.81688436754797,0, #カレー
くわまんカレー Blacky千束店,2018-09-21,東京都,139.79694277096092,35.72421912215361,0, #カレー
倉庫カリー,2018-09-19,北海道,141.35426486911555,43.07431581062729,0, #カレー
キッチンユキ 浪漫,2018-09-14,石川県,136.52881796275938,36.53424752170198,0, #カレー
カレーバルfamille(ファミーユ),2018-09-13,東京都,139.66310770670853,35.768289267006594,0, #カレー
PAPA no CURRY (パパノカリー),2018-09-12,大阪府,135.57071927847588,34.664953367704236,0, #カレー
東京カレーラボ,2018-09-09,東京都,139.74325807998576,35.6585971389167,0, #カレー
カレーハウスCoCo壱番屋 東京メトロ末広町駅前店,2018-09-06,東京都,139.77100017033902,35.70320408781327,0, #カレー
カレーやマドラス川西店,2018-08-26,兵庫県,135.4136100782797,34.829991771023515,0, #カレー
ゴーゴーカレー キャナルシティ博多スタジアム,2018-08-25,福岡県,130.41055545545706,33.58868769525208,0, #カレー
カリデリ 丸の内,2018-08-22,東京都,139.761811579856,35.681239437675586,0, #カレー
カレーハウスCoCo壱番屋 聖蹟桜ヶ丘駅前店,2018-08-10,東京都,139.44820998551097,35.65023138926777,0, #カレー
くんかれ 日本橋人形町店,2018-08-09,東京都,139.78347607095242,35.68394802437501,0, #カレー
カレーにっぽん 飯田橋店,2018-08-09,東京都,139.748047406521,35.69975622340943,0, #カレー
カレー屋マドラス川西店,2018-08-06,兵庫県,135.4136100782797,34.829991771023515,0, #カレー
神保町チャボ,2018-08-01,東京都,139.75933362727233,35.695704236785275,0, #カレー
ゴーゴーカレー赤坂サカス前スタジアム,2018-07-25,東京都,139.73675677712572,35.67401173807187,0, #カレー
ゴーゴーカレー渋谷宇田川町店,2018-07-25,東京都,139.6972191703398,35.66184908837846,0, #カレー
カレーハウスcoco壱番屋 箕面キューズモール店,2018-07-21,大阪府,135.48796365432318,34.83272428824136,0, #カレー
船場カリー イオンモール大阪ドームシティ店,2018-06-30,大阪府,135.4773538916959,34.670413792442844,0, #カレー
Ailand Cafe & Bar 甲南店,2018-06-18, 庫県,135.273146077007,34.72117618972444,0, #カレー
カレーハウスCoCo壱番屋 中央区天神三丁目店,2018-05-28,福岡県,130.3964281769847,33.59245604936059,0, #カレー
spice32NAMBAなんなん店,2018-05-14,大阪府,135.49935031565792,34.665239980443594,0, #カレー
カレー＆バル ハナミドリ,2018-05-11,東京都,139.76051502767098,35.66540078019803,0, #カレー
野菜を食べるカレーcamp expressイオンモール橿原店,2018-05-08,奈良県,135.7600735154834,34.50735420105582,0, #カレー
農直 穂野か利府店,2018-05-05,宮城県,140.95569321306323,38.312007079665165,0, #カレー
カレーのチャンピオン アイモール三好店,2018-05-04,愛知県,137.07503741566748,35.09254708033572,0, #カレー
カレー工房・金のスプーン,2018-04-15,大分県,131.3341612128161,33.531224280750926,0, #カレー
和カ哩えんや 周船寺店,2018-04-05,福岡県,130.24149920547265,33.57233098073925,0, #カレー
ゴーゴーカレー 神保町スタジアム,2018-04-02,東京都,139.7590739128627,35.69618318019086,0, #カレー
カレーハウスCoCo壱番屋 知多新知店,2018-03-24,愛知県,136.86495187720269,34.980265680459844,0, #カレー
カレーハウスCoCo壱番屋 JR西船橋駅北口店,2018-03-11,千葉県,139.95811747721285,35.70937408028482,0, #カレー
クマリカレー,2018-03-05,千葉県,139.93356349544092,35.716787298257266,0, #カレー
カレーハウスCoCo壱番屋 板橋区桜川店,2018-03-05,東京都,139.67425665202367,35.76089323899037,0, #カレー
カレーの市民アルバ京都店,2018-02-26,京都府,135.75860549183682,34.98818288045781,0, #カレー
カレーハウス一番館 大宮店,2018-02-05,埼玉県,139.62216481550257,35.909313725036185,0, #カレー
Vovo亀田店,2018-02-05,新潟県,139.08841621554322,37.87013661443977,0, #カレー
野菜を食べるカレー camp なんばダイニングメゾン店,2018-02-04,大阪府,135.49926081547798,34.664259892676185,0, #カレー
カレーハウスCoCo壱番屋 松阪駅部田店,2018-01-27,三重県,136.52541440537618,34.54967039879919,0, #カレー
カレーのチャンピオンタイキ豊川住吉店,2018-01-26,愛知県,137.3995993154893,34.816156884532994,0, #カレー
パインコーン,2018-01-17,大阪府,135.60473411548423,34.553109898615645,0, #カレー
インドカリーダイニング コバラヘッタCobara-Hetta ヨドバシ吉祥寺店,2018-01-16,東京都,139.57934591550685,35.704706436291104,0, #カレー
新宿中村屋アトレ恵比寿店,2018-01-16,東京都,139.70778011550559,35.64700843945493,0, #カレー
野菜を食べるカレーcamp expressイオンモール常滑店,2018-01-12,愛知県,136.82449731549065,34.8816580810121,0, #カレー
カレーハウスCoCo壱番屋 西武大泉学園駅北口店,2018-01-04,東京都,139.58525512923993,35.750855587155186,0, #カレー
ゴーゴーカレー 那覇久茂地スタジアム,2017-12-20,沖縄県,127.67928121534511,26.21865879593336,0, #カレー
カウボーイカレー COWBOY CURRY,2017-12-14,兵庫県,134.98437887992011,34.77079158706419,0, #カレー
カレーや黒魔術,2017-12-11,北海道,144.38842518009727,42.97930420386368,0, #カレー
マイカリー食堂 すすきの店,2017-12-11,北海道,141.3511819800991,43.05457799905184,0, #カレー
札幌スープカレー傾奇,2017-12-01,北海道,141.35153521552672,43.05959499862907,0, #カレー
東京スタミナカレー365 秋葉原道場,2017-12-01,東京都,139.7698459153486,35.70037903652883,0, #カレー
カレーハウスCoCo壱番屋 岐阜若宮町店,2017-11-28,岐阜県,136.75841707984154,35.41979465196921,0, #カレー
インドの恵み＆オムジェ,2017-11-25,大阪府,135.69186497982935,34.82647528407499,0, #カレー
カレーのチャンピオン 四日市インター店,2017-11-25,三重県,136.54976837983276,34.98854587535079,0, #カレー
カレーのチャンピオン尾張旭店,2017-11-25,愛知県,137.04805227983738,35.21537886308267,0, #カレー
レイジーカレー 本店,2017-11-13,静岡県,138.66723937994732,35.17447578041196,0, #カレー
Bagus(バグース),2017-11-12,北海道,141.58989658013934,42.64596047927065,0, #カレー
ハングリー味川,2017-11-06,東京都,139.7510724797418,35.7014040365696,0, #カレー
カレーハウスCoCo壱番屋 近鉄藤井寺駅前店,2017-11-05,大阪府,135.59128477993323,34.57214298056331,0, #カレー
野菜を食べるカレーcamp express イオンレイクタウンKaze店,2017-10-27,埼玉県,139.82259257996412,35.87761978024612,0, #カレー
ゴーゴーカレー 小山ひととのやスタジアム,2017-10-26,栃木県,139.78741857997431,36.30055988015222,0, #カレー
カレーハウスCoCo壱番屋 南青山外苑東通店,2017-10-17,東京都,139.72431137995906,35.67061948029371,0, #カレー
カレーハウスコロンボ,2017-10-13,東京都,139.64773611535375,35.70941183603316,0, #カレー
スパイスプラス神谷町店,2017-10-01,東京都,139.743553079959,35.66345028029542,0, #カレー
カレーのチャンピオン 豊田久保店,2017-09-23,愛知県,137.16014187994546,35.090782780432406,0, #カレー
BENGAL ベンガル,2017-08-20,東京都,139.77058890519658,35.700958836496916,0, #カレー
くんかれ大久保店,2017-08-16,東京都,139.69121181536815,35.702043336437555,0, #カレー
サリーズキッチン 六甲道店,2017-08-15,兵庫県,135.23679511534706,34.714808689969935,0, #カレー
魚藍亭のよこすか海軍カレー館,2017-07-19,神奈川県,139.66399301535918,35.28124225941146,0, #カレー
野菜を食べるカレーcamp カラフルタウン岐阜店,2017-07-12,岐阜県,136.72621481536078,35.36244725499609,0, #カレー
ゴッホ,2017-07-11,東京都,139.67166625660892,35.65412403906537,0, #カレー
上等カレー 岡山本町店,2017-07-04,岡山県,133.91814471549844,34.66507938044363,0, #カレー
カレー部長 三軒茶屋店,2017-07-01,東京都,139.66956261562285,35.642361480203455,0, #カレー
カレーのチャンピオン日進店,2017-06-24,愛知県,137.067159,35.12601499999999,0, #カレー
カレーのチャンピオン 長久手店,2017-06-24,愛知県,137.04305782121125,35.182649364856914,0, #カレー
カレーハウスCoCo壱番屋 東広島西条店,2017-06-21,広島県,132.7219020917081,34.4369170049026,0, #カレー
カレーのチャンピオン 熊本東バイパス店,2017-06-13,熊本県,130.75941137975641,32.8235205890131,0, #カレー
とんかつ ときわ,2017-06-12,東京都,139.72957997975226,35.721224435481744,0, #カレー
金沢ロイヤルカレー創 大須店,2017-06-09,愛知県,136.90454502351363,35.15835945167665,0, #カレー
おこめとかれぇ野菜研究室 Rice 京都,2017-06-03,京都府,135.79281911549592,34.93704377803069,0, #カレー
チキンカリーズ,2017-06-02,岡山県,133.89948487972433,34.66791509257677,0, #カレー
シロクマカレー 代々木店,2017-05-20,東京都,139.70220037984785,35.68256918029099,0, #カレー
RED TUG CURRY,2017-05-19,埼玉県,139.5861607703391,35.813455686303605,0, #カレー
FISH（フィッシュ）,2017-05-12,東京都,139.7379275799121,35.66713738029466,0, #カレー
カレーハウスCoCo壱番屋 藤沢プラザ店,2017-05-08,神奈川県,139.48752991547155,35.335105480276574,0, #カレー
ニコカレー,2017-05-06,北海道,142.38740461276785,43.80395107911647,0, #カレー
スパイスプラス 霞ヶ関イイノダイニング店,2017-05-02,東京都,139.75058131549426,35.670979980196854,0, #カレー
チャオカリー新宿野村ビル店,2017-03-28,東京都,139.6931906797845,35.69299068028858,0, #カレー
キリン堂 マリーナホップ店,2017-03-25,広島県,132.4131933797502,34.359723080618764,0, #カレー
カレー工房 KIND,2017-03-14,大分県,131.6537446152888,33.25188988083117,0, #カレー
どんマック筑紫野店,2017-03-07,福岡県,130.50602121529502,33.495869580760946,0, #カレー
カレー工房 ビートル,2017-03-04,北海道,141.56913551555598,42.88407517915518,0, #カレー
モード和食 元祖黒カレー屋本舗 ひこね,2017-03-04,滋賀県,136.2488420153394,35.24334328029868,0, #カレー
原価率研究所 亀田店,2017-03-04,新潟県,139.09884367960248,37.88532821366349,0, #カレー
原価率研究所 小針店,2017-03-04,新潟県,138.98570711541035,37.88854127973886,0, #カレー
原価率研究所 白山店,2017-03-04,新潟県,139.02740791541092,37.91328417973447,0, #カレー
福島 上等カレー イオン伊丹昆陽SC店,2017-02-04,兵庫県,135.37919647976096,34.78446698050894,0, #カレー
ゴーゴーカレー新橋駅前スタジアム,2017-01-04,東京都,139.7544735797838,35.667526480294455,0, #カレー
カレーショップ愛 駅前店,2016-12-30,静岡県,138.17287867680972,34.830872580497164,0, #カレー
ゴーゴーカレー 河原町三条スタジアム,2016-12-08,京都府,135.76732207937874,35.00875687426135,0, #カレー
渋谷カリガリ,2016-12-05,東京都,139.70605587939565,35.65761843897154,0, #カレー
ベジフルカレー福島駅前店,2016-11-30,大阪府,135.48455497964196,34.69692978053115,0, #カレー
カレービストロ InDO,2016-11-26,静岡県,138.37784317949848,34.97368718046143,0, #カレー
Curry & Cafe SAMA 福岡けやき通り店,2016-11-22,福岡県,130.38565287934233,33.58388154980801,0, #カレー
TK-BASE 元気があればなんでもできる！,2016-11-15,広島県,132.45709917936273,34.38566860762859,0, #カレー
アガーリcurry,2016-11-13,富山県,137.4197429794273,36.830125073813164,0, #カレー
桔梗屋,2016-10-22,愛知県,136.92215581494017,34.90231047990193,0, #カレー
シディーク曙橋店,2016-10-19,東京都,139.7183372150998,35.69195543699138,0, #カレー
THAI LIGHT,2016-10-11,北海道,141.37094961525642,43.03593290014302,0, #カレー
